[{"StopId":7257,"Code":"BXLT Thu Dau Mot","Name":"Bến xe Thủ Dầu Một","StopType":"Bến xe","Zone":"Ngoại thành","Ward":null,"AddressNo":"Bến xe Thủ Dầu Một","Street":"Đường 30 tháng 4","SupportDisability":"Có","Status":"Đang khai thác","Lng":106.668524,"Lat":10.96564,"Search":"BxTDM BxTDM D30t4","Routes":"61-2, 61-3, 61-4, 61-8, 61-9"},{"StopId":8362,"Code":"BD-0051","Name":"Ngã ba Cây Me","StopType":"Trụ - hộp thông tin","Zone":"Bình Dương","Ward":null,"AddressNo":"Ngã ba Cây Me","Street":"CMT8","SupportDisability":"Có","Status":"Đang khai thác","Lng":106.671495,"Lat":10.963638,"Search":"NbCM NbCM C","Routes":"61-37, 61-38, 61-39, 61-8"},{"StopId":8632,"Code":"BD-0343","Name":"Số nhà 1224","StopType":"Trụ - hộp thông tin","Zone":"Bình Dương","Ward":null,"AddressNo":"Số nhà 1224","Street":"Cách mạng tháng 8","SupportDisability":"","Status":"Đang khai thác","Lng":106.673089,"Lat":10.96278,"Search":"Sn1224 Sn1224 Cmt8","Routes":"61-37, 61-38, 61-39, 61-8"},{"StopId":8633,"Code":"BD-0344","Name":"Bò tơ 5 Sánh","StopType":"Trụ - hộp thông tin","Zone":"Bình Dương","Ward":null,"AddressNo":"Bò tơ 5 Sánh","Street":"Cách mạng tháng 8","SupportDisability":"","Status":"Đang khai thác","Lng":106.67679,"Lat":10.956307,"Search":"Bt5S Bt5S Cmt8","Routes":"61-8"},{"StopId":9123,"Code":"BD-0836","Name":"Chùa Sắc Tứ Thiên Tôn","StopType":"Ô sơn","Zone":"Bình Dương","Ward":null,"AddressNo":"Chùa Sắc Tứ Thiên Tôn","Street":"Đường ĐT 745","SupportDisability":"","Status":"Đang khai thác","Lng":106.679446,"Lat":10.95181,"Search":"CSTTT CSTTT DD745","Routes":"61-8"},{"StopId":9126,"Code":"BD-0837","Name":"Trường Đại Học Thủy Lợi","StopType":"Ô sơn","Zone":"Bình Dương","Ward":null,"AddressNo":"Trường Đại Học Thủy Lợi","Street":"Đường ĐT 745","SupportDisability":"","Status":"Đang khai thác","Lng":106.682812,"Lat":10.949729,"Search":"TDHTL TDHTL DD745","Routes":"61-8"},{"StopId":8829,"Code":"BD-0575","Name":"Phòng khám đa khoa An Thạnh","StopType":"Nhà chờ","Zone":"Bình Dương","Ward":null,"AddressNo":"Phòng khám đa khoa An Thạnh","Street":"Cách mạng tháng 8","SupportDisability":"","Status":"Đang khai thác","Lng":106.688195,"Lat":10.94707,"Search":"PkdkAT PkdkAT Cmt8","Routes":"61-8"},{"StopId":8830,"Code":"BD-0576","Name":"Vị trí UBND Hưng Định","StopType":"Nhà chờ","Zone":"Bình Dương","Ward":null,"AddressNo":"Vị trí UBND Hưng Định","Street":"Cách mạng tháng 8","SupportDisability":"","Status":"Đang khai thác","Lng":106.690743,"Lat":10.942935,"Search":"VtUHD VtUHD Cmt8","Routes":"61-8"},{"StopId":8637,"Code":"BD-0346","Name":"Vị trí cổng ấp Hưng Thọ","StopType":"Trụ - hộp thông tin","Zone":"Bình Dương","Ward":null,"AddressNo":"Vị trí cổng ấp Hưng Thọ","Street":"Cách mạng tháng 8","SupportDisability":"","Status":"Đang khai thác","Lng":106.686854,"Lat":10.936494,"Search":"VtcaHT VtcaHT Cmt8","Routes":"61-8"},{"StopId":8639,"Code":"BD-0347","Name":"Vị trí Bình Nhâm 08","StopType":"Trụ - hộp thông tin","Zone":"Bình Dương","Ward":null,"AddressNo":"Vị trí Bình Nhâm 08","Street":"Cách mạng tháng 8","SupportDisability":"","Status":"Đang khai thác","Lng":106.688597,"Lat":10.932406,"Search":"VtBN08 VtBN08 Cmt8","Routes":"61-8"},{"StopId":9179,"Code":"BD-0892","Name":"Công ty inox kiếng thành Trung","StopType":"Ô sơn","Zone":"Bình Dương","Ward":null,"AddressNo":"Công ty inox kiếng thành Trung","Street":"DT 745","SupportDisability":"","Status":"Đang khai thác","Lng":106.689263,"Lat":10.931199,"Search":"CtiktT CtiktT D745","Routes":"61-8"},{"StopId":8641,"Code":"BD-0348","Name":"Cây xăng Hoàng Minh","StopType":"Trụ - hộp thông tin","Zone":"Bình Dương","Ward":null,"AddressNo":"Cây xăng Hoàng Minh","Street":"Cách mạng tháng 8","SupportDisability":"","Status":"Đang khai thác","Lng":106.691676,"Lat":10.926312,"Search":"CxHM CxHM Cmt8","Routes":"61-8"},{"StopId":8643,"Code":"BD-0349","Name":"Đường Cây me","StopType":"Trụ - hộp thông tin","Zone":"Bình Dương","Ward":null,"AddressNo":"Đường Cây me","Street":"Cách mạng tháng 8","SupportDisability":"","Status":"Đang khai thác","Lng":106.692492,"Lat":10.924169,"Search":"DCm DCm Cmt8","Routes":"61-8"},{"StopId":8644,"Code":"BD-0350","Name":"Đền thờ Bình Nhâm","StopType":"Trụ - hộp thông tin","Zone":"Bình Dương","Ward":null,"AddressNo":"Đền thờ Bình Nhâm","Street":"Cách mạng tháng 8","SupportDisability":"","Status":"Đang khai thác","Lng":106.693972,"Lat":10.919744,"Search":"DtBN DtBN Cmt8","Routes":"61-8"},{"StopId":9178,"Code":"BD-0891","Name":"Trang trí Nội Thất Tiến Thành","StopType":"Ô sơn","Zone":"Bình Dương","Ward":null,"AddressNo":"Trang trí Nội Thất Tiến Thành","Street":"DT 745","SupportDisability":"","Status":"Đang khai thác","Lng":106.694638,"Lat":10.917337,"Search":"TtNTTT TtNTTT D745","Routes":"61-8"},{"StopId":8647,"Code":"BD-0351","Name":"Trường Chính Trị","StopType":"Trụ - hộp thông tin","Zone":"Bình Dương","Ward":null,"AddressNo":"Trường Chính Trị","Street":"Cách mạng tháng 8","SupportDisability":"","Status":"Đang khai thác","Lng":106.696027,"Lat":10.915225,"Search":"TCT TCT Cmt8","Routes":"61-8"},{"StopId":9128,"Code":"BD-0840","Name":"Cửa hành VLXD phú Châu","StopType":"Ô sơn","Zone":"Bình Dương","Ward":null,"AddressNo":"Cửa hành VLXD phú Châu","Street":"Đường ĐT 745","SupportDisability":"","Status":"Đang khai thác","Lng":106.696761,"Lat":10.914472,"Search":"ChVpC ChVpC DD745","Routes":"61-8"},{"StopId":8788,"Code":"BD-0352","Name":"Phòng Quản lý đô thị thị xã Thuận An","StopType":"Trụ - hộp thông tin","Zone":"Bình Dương","Ward":null,"AddressNo":"Phòng Quản lý đô thị thị xã Thuận An","Street":"Cách mạng tháng 8","SupportDisability":"","Status":"Đang khai thác","Lng":106.700313,"Lat":10.911459,"Search":"PQldttxTA PQldttxTA Cmt8","Routes":"61-8"},{"StopId":9277,"Code":"BD-0980","Name":"Ngân hàng ACB","StopType":"Trụ dừng","Zone":"Bình Dương","Ward":null,"AddressNo":"Ngân hàng ACB","Street":"DT 745","SupportDisability":"","Status":"Đang khai thác","Lng":106.700828,"Lat":10.907297,"Search":"NhA NhA D745","Routes":"61-8"},{"StopId":9181,"Code":"BD-0893","Name":"đói diện UBND phường Lái Thiêu","StopType":"Ô sơn","Zone":"Bình Dương","Ward":null,"AddressNo":"đói diện UBND phường Lái Thiêu","Street":"DT 745","SupportDisability":"","Status":"Đang khai thác","Lng":106.699997,"Lat":10.905132,"Search":"ddUpLT ddUpLT D745","Routes":"61-8"},{"StopId":8833,"Code":"BD-0579","Name":"Chợ Lái Thiêu","StopType":"Nhà chờ","Zone":"Bình Dương","Ward":null,"AddressNo":"Chợ Lái Thiêu","Street":"Cách mạng tháng 8","SupportDisability":"","Status":"Đang khai thác","Lng":106.700962,"Lat":10.903173,"Search":"CLT CLT Cmt8","Routes":"61-8"},{"StopId":9131,"Code":"BD-0844","Name":"Quầy thuốc tây Lam Kiều","StopType":"Ô sơn","Zone":"Bình Dương","Ward":null,"AddressNo":"Quầy thuốc tây Lam Kiều","Street":"Đường ĐT 745","SupportDisability":"","Status":"Đang khai thác","Lng":106.704186,"Lat":10.90233,"Search":"QttLK QttLK DD745","Routes":"61-8"},{"StopId":8663,"Code":"BD-0519","Name":"Nhà thuốc Phát Đạt - Đường Nguyễn Trãi đi cầu Ông Bố","StopType":"Trụ - hộp thông tin","Zone":"Bình Dương","Ward":null,"AddressNo":"Nhà thuốc Phát Đạt - Đường Nguyễn Trãi đi cầu Ông Bố","Street":"Nguyễn Trãi","SupportDisability":"","Status":"Đang khai thác","Lng":106.710001,"Lat":10.901308,"Search":"NtPD-DNTdcOB NtPD-DNTdcOB NT","Routes":"61-8"},{"StopId":9572,"Code":"BD-0999","Name":"Cửa hàng Hoàng Gia Lâm","StopType":"Ô sơn","Zone":"Bình Dương","Ward":null,"AddressNo":"465C (Cột điện 13)","Street":"Quốc lộ 13","SupportDisability":"","Status":"Đang khai thác","Lng":106.710716,"Lat":10.900044,"Search":"ChHGL 465C(d13) Ql13","Routes":"171, 61-3, 61-8"},{"StopId":9573,"Code":"BD-1000","Name":"Đối diện Gỗ Vạn Tiến Phúc","StopType":"Ô sơn","Zone":"Bình Dương","Ward":null,"AddressNo":"Đối diện Vạn Tiến Phúc (số 144)","Street":"Quốc lộ 13","SupportDisability":"","Status":"Đang khai thác","Lng":106.707402,"Lat":10.895817,"Search":"DdGVTP DdVTP(144) Ql13","Routes":"171, 61-3, 61-8"},{"StopId":9574,"Code":"BD-1001","Name":"Kế tạp hóa Hải Dương","StopType":"Ô sơn","Zone":"Bình Dương","Ward":null,"AddressNo":"Kế 65D/1 (Cột điện 46)","Street":"Quốc lộ 13","SupportDisability":"","Status":"Đang khai thác","Lng":106.702381,"Lat":10.890022,"Search":"KthHD K65D/1(d46) Ql13","Routes":"171, 61-3, 61-8"},{"StopId":9575,"Code":"BD-1002","Name":"Kế sắt thép Phú Cường","StopType":"Ô sơn","Zone":"Bình Dương","Ward":null,"AddressNo":"Kế sắt thép Phú Cường (số 1/10)","Street":"Quốc lộ 13","SupportDisability":"","Status":"Đang khai thác","Lng":106.6989,"Lat":10.885294,"Search":"KstPC KstPC(1/10) Ql13","Routes":"171, 61-3, 61-8"},{"StopId":8986,"Code":"BD-0701","Name":"Kamza - Gò Đậu -> Cổng chào Bình Dương","StopType":"Ô sơn","Zone":"Bình Dương","Ward":null,"AddressNo":"Kamza - Gò Đậu -> Cổng chào Bình Dương","Street":"Quốc lộ 13","SupportDisability":"","Status":"Đang khai thác","Lng":106.698607,"Lat":10.880353,"Search":"K-GD-&gt;CcBD K-GD-&gt;CcBD Ql13","Routes":"171, 61-3, 61-8"},{"StopId":9576,"Code":"BD-1003","Name":"Đối diện Vạn Lộc Phát Palce","StopType":"Ô sơn","Zone":"Bình Dương","Ward":null,"AddressNo":"45718","Street":"Quốc lộ 13","SupportDisability":"","Status":"Đang khai thác","Lng":106.702014,"Lat":10.873902,"Search":"DdVLPP 45718 Ql13","Routes":"171, 61-3, 61-8"},{"StopId":9263,"Code":"BD-0968","Name":"Đối diện khu phố Vĩnh Phú - Cổng chào Bình Dương -> Gò Đậu","StopType":"Trụ dừng","Zone":"Bình Dương","Ward":null,"AddressNo":"Đối diện khu phố Vĩnh Phú - Cổng chào Bình Dương -> Gò Đậu","Street":"Quốc lộ 13","SupportDisability":"","Status":"Đang khai thác","Lng":106.706901,"Lat":10.870596,"Search":"DdkpVP-CcBD-&gt;GD DdkpVP-CcBD-&gt;GD Ql13","Routes":"171, 61-3, 61-8"},{"StopId":3362,"Code":"QTD 212","Name":"Cầu Vĩnh Bình","StopType":"Trụ dừng","Zone":"TP. Thủ Đức - KV3","Ward":"Phường Hiệp Bình Phước","AddressNo":"875","Street":"Quốc lộ 13","SupportDisability":"","Status":"Đang khai thác","Lng":106.718254,"Lat":10.867865,"Search":"CVB 875 Ql13","Routes":"171, 61-3, 61-8"},{"StopId":3360,"Code":"QTD 213","Name":"Xây dựng Ngọc Đào","StopType":"Trụ dừng","Zone":"TP. Thủ Đức - KV3","Ward":"Phường Hiệp Bình Phước","AddressNo":"Kế 801","Street":"Quốc lộ 13","SupportDisability":"","Status":"Đang khai thác","Lng":106.722581,"Lat":10.867065,"Search":"XdND K801 Ql13","Routes":"171, 61-3, 61-8"},{"StopId":349,"Code":"QTD 214","Name":"Ngã 4 Bình Phước","StopType":"Trụ dừng","Zone":"TP. Thủ Đức - KV3","Ward":"Phường Hiệp Bình Phước","AddressNo":"779","Street":"Quốc lộ 13","SupportDisability":"","Status":"Đang khai thác","Lng":106.72451,"Lat":10.863809,"Search":"N4BP 779 Ql13","Routes":"05, 171, 19, 61-8, 91"},{"StopId":350,"Code":"QTD 215","Name":"Hồ bơi Mèo Mun","StopType":"Trụ dừng","Zone":"TP. Thủ Đức - KV3","Ward":"Phường Hiệp Bình Phước","AddressNo":"797 (Đối diện 782)","Street":"Quốc lộ 13","SupportDisability":"","Status":"Đang khai thác","Lng":106.724396,"Lat":10.861345,"Search":"HbMM 797(d782) Ql13","Routes":"05, 171, 19, 61-8, 91"},{"StopId":353,"Code":"QTD 216","Name":"UBND P.Hiệp Bình Phước","StopType":"Trụ dừng","Zone":"TP. Thủ Đức - KV3","Ward":null,"AddressNo":"715","Street":"Quốc lộ 13","SupportDisability":"","Status":"Đang khai thác","Lng":106.723782,"Lat":10.859791,"Search":"UPBP 715 Ql13","Routes":"05, 171, 19, 61-8, 91"},{"StopId":351,"Code":"QTD 217","Name":"Trạm y tế P. Hiệp Bình Phước","StopType":"Trụ dừng","Zone":"TP. Thủ Đức - KV3","Ward":null,"AddressNo":"645","Street":"Quốc lộ 13","SupportDisability":"","Status":"Đang khai thác","Lng":106.722343,"Lat":10.856024,"Search":"TytPHBP 645 Ql13","Routes":"05, 171, 19, 61-8, 91"},{"StopId":355,"Code":"QTD 218","Name":"Ngã 3 Đường Hiệp Bình","StopType":"Trụ dừng","Zone":"TP. Thủ Đức - KV3","Ward":null,"AddressNo":"607","Street":"Quốc lộ 13","SupportDisability":"","Status":"Đang khai thác","Lng":106.720719,"Lat":10.852579,"Search":"N3DHB 607 Ql13","Routes":"05, 171, 19, 61-8, 91"},{"StopId":352,"Code":"QTD 219","Name":"Ngã 3 Hiệp Bình","StopType":"Trụ dừng","Zone":"TP. Thủ Đức - KV3","Ward":"Phường Hiệp Bình Phước","AddressNo":"Đối diện 566 (557A)","Street":"Quốc lộ 13","SupportDisability":"","Status":"Đang khai thác","Lng":106.718346,"Lat":10.848727,"Search":"N3HB Dd566( Ql13","Routes":"05, 171, 19, 61-8, 91"},{"StopId":358,"Code":"QTD 220","Name":"Cân Nhơn Hòa","StopType":"Trụ dừng","Zone":"TP. Thủ Đức - KV3","Ward":"Phường Hiệp Bình Phước","AddressNo":"445 - 447","Street":"Quốc lộ 13","SupportDisability":"","Status":"Đang khai thác","Lng":106.718086,"Lat":10.844473,"Search":"CNH 445-447 Ql13","Routes":"05, 171, 19, 61-8, 91"},{"StopId":354,"Code":"QTD 221","Name":"Đường số 4","StopType":"Trụ dừng","Zone":"TP. Thủ Đức - KV3","Ward":"Phường Hiệp Bình Phước","AddressNo":"385-387","Street":"Quốc lộ 13","SupportDisability":"","Status":"Đang khai thác","Lng":106.716858,"Lat":10.84109,"Search":"Ds4 385-387 Ql13","Routes":"05, 171, 19, 61-8, 91"},{"StopId":359,"Code":"QTD 222","Name":"Đường số 3","StopType":"Trụ dừng","Zone":"TP. Thủ Đức - KV3","Ward":"Phường Hiệp Bình Phước","AddressNo":"327-329","Street":"Quốc lộ 13","SupportDisability":"","Status":"Đang khai thác","Lng":106.714915,"Lat":10.83877,"Search":"Ds3 327-329 Ql13","Routes":"05, 171, 19, 61-8, 91"},{"StopId":356,"Code":"QTD 223","Name":"Cầu Ông Dầu","StopType":"Trụ dừng","Zone":"TP. Thủ Đức - KV3","Ward":"Phường Hiệp Bình Phước","AddressNo":"261","Street":"Quốc lộ 13","SupportDisability":"","Status":"Đang khai thác","Lng":106.713745,"Lat":10.835822,"Search":"COD 261 Ql13","Routes":"05, 171, 19, 61-8, 91"},{"StopId":357,"Code":"QTD 224","Name":"Trạm xăng dầu","StopType":"Trụ dừng","Zone":"TP. Thủ Đức - KV3","Ward":"Phường Hiệp Bình Chánh","AddressNo":"173-175","Street":"Quốc lộ 13","SupportDisability":"","Status":"Đang khai thác","Lng":106.71389,"Lat":10.83294,"Search":"Txd 173-175 Ql13","Routes":"05, 171, 19, 61-8, 91"},{"StopId":360,"Code":"QTD 225","Name":"UBND P.Hiệp Bình Chánh","StopType":"Nhà chờ","Zone":"TP. Thủ Đức - KV3","Ward":"Phường Hiệp Bình Chánh","AddressNo":"328/5 (Đại học Luật)","Street":"Quốc lộ 13","SupportDisability":"","Status":"Đang khai thác","Lng":106.714027,"Lat":10.830039,"Search":"UPBC 328/5(hL Ql13","Routes":"05, 171, 19, 61-8, 91"},{"StopId":1403,"Code":"BX44","Name":"Bến xe Miền Đông","StopType":"Bến xe","Zone":"Quận Bình Thạnh","Ward":null,"AddressNo":"Bến xe Miền Đông","Street":"Đinh Bộ Lĩnh","SupportDisability":"","Status":"Đang khai thác","Lng":106.711294,"Lat":10.814733,"Search":"BxMD BxMD DBL","Routes":"14, 146, 24, 43, 45, 60-3, 61-8, 64, 67"}]