[{"StopId":166,"Code":"BX41","Name":"Bến xe An Sương","StopType":"Bến xe","Zone":"Quận 12","Ward":null,"AddressNo":"Bến xe An Sương","Street":"Quốc lộ 22","SupportDisability":"","Status":"Đang khai thác","Lng":106.61337280273438,"Lat":10.843737602233887,"Search":"BxAS BxAS Ql22","Routes":"04, 104, 122, 151, 27, 33, 41, 61-3, 62-5, 65, 71, 74, 85"},{"StopId":167,"Code":"Q12 135","Name":"Bitis","StopType":"Nhà chờ","Zone":"Quận 12","Ward":null,"AddressNo":"487","Street":"Trường Chinh","SupportDisability":"","Status":"Đang khai thác","Lng":106.617347,"Lat":10.838891,"Search":"B 487 TC","Routes":"04, 104, 13, 145, 27, 41, 65, 94"},{"StopId":172,"Code":"Q12 136","Name":"Chùa Lạc Quang","StopType":"Nhà chờ","Zone":"Quận 12","Ward":null,"AddressNo":"257","Street":"Trường Chinh","SupportDisability":"","Status":"Đang khai thác","Lng":106.620212,"Lat":10.834497,"Search":"CLQ 257 TC","Routes":"04, 104, 13, 145, 27, 41, 65, 94"},{"StopId":168,"Code":"Q12 137","Name":"Chùa Vĩnh Phước","StopType":"Nhà chờ","Zone":"Quận 12","Ward":null,"AddressNo":"Chùa Vĩnh Phước","Street":"Trường Chinh","SupportDisability":"","Status":"Đang khai thác","Lng":106.621794,"Lat":10.83202,"Search":"CVP CVP TC","Routes":"04, 104, 13, 145, 27, 41, 65, 94"},{"StopId":169,"Code":"Q12 139","Name":"Cầu Tham Lương - Siêu thị Thiên Hòa","StopType":"Nhà chờ","Zone":"Quận 12","Ward":null,"AddressNo":"21 (Kế 2/6B)","Street":"Trường Chinh","SupportDisability":"","Status":"Đang khai thác","Lng":106.62586,"Lat":10.82624,"Search":"CTL-StTH 21(2/6B) TC","Routes":"04, 104, 13, 145, 23, 27, 41, 62, 65, 94"},{"StopId":174,"Code":"QTP 010","Name":"Trạm Dệt Thành Công","StopType":"Nhà chờ","Zone":"Quận Tân Phú","Ward":"Phường Tây Thạnh","AddressNo":"8","Street":"Trường Chinh","SupportDisability":"Có","Status":"Đang khai thác","Lng":106.629825,"Lat":10.822315,"Search":"TDTC 8 TC","Routes":"04, 104, 13, 145, 23, 27, 32, 41, 62, 65, 94"},{"StopId":173,"Code":"QTP 011","Name":"Trạm KCN Tân Bình","StopType":"Nhà chờ","Zone":"Quận Tân Phú","Ward":"Phường Tây Thạnh","AddressNo":"881","Street":"Trường Chinh","SupportDisability":"Có","Status":"Đang khai thác","Lng":106.630615,"Lat":10.819386,"Search":"TKTB 881 TC","Routes":"04, 104, 13, 145, 23, 27, 28, 62, 65, 94"},{"StopId":176,"Code":"QTP 012","Name":"Ngã 3 Chế Lan Viên","StopType":"Nhà chờ","Zone":"Quận Tân Phú","Ward":"Phường Tây Thạnh","AddressNo":"831 (trước showroom o tô)","Street":"Trường Chinh","SupportDisability":"Có","Status":"Đang khai thác","Lng":106.632377,"Lat":10.814455,"Search":"N3CLV 831(sot TC","Routes":"04, 104, 13, 145, 23, 27, 28, 62, 65, 94"},{"StopId":177,"Code":"QTP 014","Name":"Trạm Đài Liệt Sỹ","StopType":"Nhà chờ","Zone":"Quận Tân Phú","Ward":"Phường Tây Thạnh","AddressNo":"1/3","Street":"Trường Chinh","SupportDisability":"","Status":"Đang khai thác","Lng":106.634019,"Lat":10.808689,"Search":"TDLS 1/3 TC","Routes":"04, 104, 13, 145, 16, 23, 27, 28, 48, 62, 63-1, 65, 94"},{"StopId":2292,"Code":"QTP 015","Name":"Siêu thị BigC","StopType":"Nhà chờ","Zone":"Quận Tân Phú","Ward":"Phường Tây Thạnh","AddressNo":"1/1","Street":"Trường Chinh","SupportDisability":"Có","Status":"Đang khai thác","Lng":106.634773,"Lat":10.806212,"Search":"StB 1/1 TC","Routes":"13, 23, 27, 48, 62, 65, 94"},{"StopId":2291,"Code":"QTP 016","Name":"Trạm Tân Kỳ Tân Quý","StopType":"Trụ dừng","Zone":"Quận Tân Phú","Ward":"Phường Tây Thạnh","AddressNo":"33/24 (659-661)","Street":"Trường Chinh","SupportDisability":"","Status":"Đang khai thác","Lng":106.635269,"Lat":10.8048,"Search":"TTKTQ 33/24( TC","Routes":"13, 23, 27, 62, 65, 94"},{"StopId":2293,"Code":"QTB 080","Name":"Chợ Võ Thành Trang","StopType":"Trụ dừng","Zone":"Quận Tân Bình","Ward":null,"AddressNo":"541","Street":"Trường Chinh","SupportDisability":"","Status":"Đang khai thác","Lng":106.637517,"Lat":10.801275,"Search":"CVTT 541 TC","Routes":"13, 23, 65, 94"},{"StopId":2296,"Code":"QTB 081","Name":"Ngã ba Trương Công Định","StopType":"Trụ dừng","Zone":"Quận Tân Bình","Ward":null,"AddressNo":"403","Street":"Trường Chinh","SupportDisability":"","Status":"Đang khai thác","Lng":106.641557,"Lat":10.799115,"Search":"NbTCD 403 TC","Routes":"13, 23, 65, 94"},{"StopId":2559,"Code":"QTB 082","Name":"Ngã ba Hồng Đào","StopType":"Trụ dừng","Zone":"Quận Tân Bình","Ward":null,"AddressNo":"351","Street":"Trường Chinh","SupportDisability":"","Status":"Đang khai thác","Lng":106.644266,"Lat":10.797666,"Search":"NbHD 351 TC","Routes":"13, 30, 64, 65, 94"},{"StopId":1392,"Code":"QTB 083","Name":"Ngã ba Hoàng Hoa Thám","StopType":"Trụ dừng","Zone":"Quận Tân Bình","Ward":null,"AddressNo":"233","Street":"Trường Chinh","SupportDisability":"","Status":"Đang khai thác","Lng":106.646218,"Lat":10.796606,"Search":"NbHHT 233 TC","Routes":"13, 30, 64, 65, 94"},{"StopId":1826,"Code":"QTB 084","Name":"Nhà thờ Đắc Lộ","StopType":"Nhà chờ","Zone":"Quận Tân Bình","Ward":null,"AddressNo":"97 (đối diện 160B)","Street":"Trường Chinh","SupportDisability":"","Status":"Đang khai thác","Lng":106.64926,"Lat":10.794978,"Search":"NtDL 97(d160B) TC","Routes":"13, 30, 64, 65, 94"},{"StopId":1830,"Code":"QTB 085","Name":"Ngã tư Bảy Hiền","StopType":"Nhà chờ","Zone":"Quận Tân Bình","Ward":null,"AddressNo":"67","Street":"Trường Chinh","SupportDisability":"","Status":"Đang khai thác","Lng":106.651368,"Lat":10.793856,"Search":"NtBH 67 TC","Routes":"13, 30, 64, 65, 94"},{"StopId":996,"Code":"QTB 059","Name":"Bệnh viện Thống Nhất","StopType":"Nhà chờ","Zone":"Quận Tân Bình","Ward":null,"AddressNo":"1125 (đối diện 544)","Street":"Cách Mạng Tháng Tám","SupportDisability":"","Status":"Đang khai thác","Lng":106.654131,"Lat":10.792391,"Search":"BvTN 1125(d544) CMTT","Routes":"103, 13, 30, 65"},{"StopId":998,"Code":"QTB 060","Name":"Y tế Phường 4","StopType":"Biển treo","Zone":"Quận Tân Bình","Ward":null,"AddressNo":"1057","Street":"Cách Mạng Tháng Tám","SupportDisability":"","Status":"Đang khai thác","Lng":106.655885,"Lat":10.791463,"Search":"YtP4 1057 CMTT","Routes":"103, 13, 30, 65"},{"StopId":1000,"Code":"QTB 061","Name":"Hồ Bơi Cộng Hòa","StopType":"Biển treo","Zone":"Quận Tân Bình","Ward":null,"AddressNo":"1003","Street":"Cách Mạng Tháng Tám","SupportDisability":"","Status":"Đang khai thác","Lng":106.65846,"Lat":10.790114,"Search":"HBCH 1003 CMTT","Routes":"103, 13, 30, 65"},{"StopId":1002,"Code":"QTB 062","Name":"Ông Tạ","StopType":"Trụ dừng","Zone":"Quận Tân Bình","Ward":null,"AddressNo":"907","Street":"Cách Mạng Tháng Tám","SupportDisability":"","Status":"Đang khai thác","Lng":106.660075,"Lat":10.789261,"Search":"OT 907 CMTT","Routes":"103, 13, 30, 65"},{"StopId":1001,"Code":"QTB 063","Name":"Ngã ba Bành Văn Trân","StopType":"Trụ dừng","Zone":"Quận Tân Bình","Ward":null,"AddressNo":"755-757 (771)","Street":"Cách Mạng Tháng Tám","SupportDisability":"","Status":"Đang khai thác","Lng":106.66274,"Lat":10.78785,"Search":"NbBVT 755-757( CMTT","Routes":"103, 13, 30, 65"},{"StopId":1003,"Code":"Q10 083","Name":"Công viên Lê Thị Riêng","StopType":"Nhà chờ","Zone":"Quận 10","Ward":null,"AddressNo":"875","Street":"Cách Mạng Tháng Tám","SupportDisability":"","Status":"Đang khai thác","Lng":106.665777,"Lat":10.786236,"Search":"CvLTR 875 CMTT","Routes":"103, 13, 30, 65"},{"StopId":2562,"Code":"Q10 084","Name":"Hội thánh tin lành Hòa Hưng","StopType":"Trụ dừng","Zone":"Quận 10","Ward":null,"AddressNo":"601","Street":"Cách Mạng Tháng Tám","SupportDisability":"","Status":"Đang khai thác","Lng":106.668684,"Lat":10.784671,"Search":"HttlHH 601 CMTT","Routes":"13, 30, 65"},{"StopId":2561,"Code":"Q10 085","Name":"Ngã ba Tô Hiến Thành","StopType":"Biển treo","Zone":"Quận 10","Ward":null,"AddressNo":"513","Street":"Cách Mạng Tháng Tám","SupportDisability":"","Status":"Đang khai thác","Lng":106.672699,"Lat":10.782535,"Search":"NbTHT 513 CMTT","Routes":"13, 30, 65"},{"StopId":1399,"Code":"Q10 086","Name":"Chùa Bửu Đà","StopType":"Trụ dừng","Zone":"Quận 10","Ward":null,"AddressNo":"427","Street":"Cách Mạng Tháng Tám","SupportDisability":"","Status":"Đang khai thác","Lng":106.675063,"Lat":10.78124,"Search":"CBD 427 CMTT","Routes":"13, 30, 65"},{"StopId":2564,"Code":"Q10 087","Name":" Ngã ba Hòa Hưng","StopType":"Biển treo","Zone":"Quận 10","Ward":null,"AddressNo":"385","Street":"Cách Mạng Tháng Tám","SupportDisability":"","Status":"Đang khai thác","Lng":106.676575,"Lat":10.780435,"Search":"NbHH 385 CMTT","Routes":"13, 30, 65"},{"StopId":1394,"Code":"Q10 088","Name":"Công trường Dân Chủ","StopType":"Nhà chờ","Zone":"Quận 10","Ward":null,"AddressNo":"Đối diện 132A","Street":"Cách Mạng Tháng Tám","SupportDisability":"","Status":"Đang khai thác","Lng":106.680706,"Lat":10.778205,"Search":"CtDC Dd132A CMTT","Routes":"13, 30, 65"},{"StopId":2563,"Code":"Q3 015","Name":"Công an Quận 3","StopType":"Nhà chờ","Zone":"Quận 3","Ward":null,"AddressNo":"243","Street":"Cách Mạng Tháng Tám","SupportDisability":"Có","Status":"Đang khai thác","Lng":106.68246,"Lat":10.777219,"Search":"CaQ3 243 CMTT","Routes":"13, 30, 65"},{"StopId":1400,"Code":"Q3 016","Name":"Bệnh viện Mắt - Bình Dân - Da Liễu","StopType":"Trụ dừng","Zone":"Quận 3","Ward":null,"AddressNo":"205","Street":"Cách Mạng Tháng Tám","SupportDisability":"Có","Status":"Đang khai thác","Lng":106.684338,"Lat":10.776202,"Search":"BvM-BD-DL 205 CMTT","Routes":"13, 65"},{"StopId":2477,"Code":"Q3 017","Name":"Võ Văn Tần","StopType":"Trụ dừng","Zone":"Quận 3","Ward":null,"AddressNo":"179C","Street":"Cách Mạng Tháng Tám","SupportDisability":"","Status":"Đang khai thác","Lng":106.687202,"Lat":10.77469,"Search":"VVT 179C CMTT","Routes":"13, 28, 65"},{"StopId":1396,"Code":"Q1 004","Name":"Trống Đồng","StopType":"Trụ dừng","Zone":"Quận 1","Ward":null,"AddressNo":"85","Street":"Cách Mạng Tháng Tám","SupportDisability":"","Status":"Đang khai thác","Lng":106.691499,"Lat":10.772345,"Search":"TD 85 CMTT","Routes":"13, 28, 38, 65, 69"},{"StopId":85,"Code":"Q1 145","Name":"Nguyễn Trãi","StopType":"Trụ dừng","Zone":"Quận 1","Ward":"Phường Bến Thành","AddressNo":"22","Street":"Nguyễn Trãi","SupportDisability":"","Status":"Đang khai thác","Lng":106.69268,"Lat":10.77097,"Search":"NT 22 NT","Routes":"28, 46, 65"},{"StopId":87,"Code":"Q1 146","Name":"Tôn Thất Tùng","StopType":"Trụ dừng","Zone":"Quận 1","Ward":"Phường Bến Thành","AddressNo":"136","Street":"Nguyễn Trãi","SupportDisability":"","Status":"Đang khai thác","Lng":106.690788,"Lat":10.769646,"Search":"TTT 136 NT","Routes":"28, 46, 65"},{"StopId":35,"Code":"BX 01","Name":"Bến xe buýt Sài Gòn","StopType":"Bến xe","Zone":"Quận 1","Ward":"Phường Phạm Ngũ Lão","AddressNo":"BẾN XE BUÝT SÀI GÒN","Street":"Lê Lai","SupportDisability":"Có","Status":"Đang khai thác","Lng":106.689362,"Lat":10.767676,"Search":"BxbSG BXBSG LL","Routes":"03, 04, 102, 109, 13, 140, 171, 172, 18, 19, 20, 27, 28, 34, 36, 39, 52, 65, 69, 72, 75, 86, 88, 93, D4, DL03, DL04, DL05"}]