[{"StopId":7695,"Code":"BX 33","Name":"Bến xe Miền Đông mới","StopType":"Bến xe","Zone":"TP. Thủ Đức - KV2","Ward":"Phường Long Bình","AddressNo":"Bến xe Miền Đông mới","Street":"Quốc lộ 1","SupportDisability":"Có","Status":"Đang khai thác","Lng":106.81497,"Lat":10.878606,"Search":"BxMDm BxMDm Ql1","Routes":"150, 56, 60-7, 61-05, 61-77, 61-9, 67, 76, 93"},{"StopId":3742,"Code":"Q9 267","Name":"Đường Hoàng Hữu Nam","StopType":"Trụ dừng","Zone":"TP. Thủ Đức - KV2","Ward":"Phường Long Bình","AddressNo":"373","Street":"Hoàng Hữu Nam","SupportDisability":"","Status":"Đang khai thác","Lng":106.814125,"Lat":10.871176,"Search":"DHHN 373 HHN","Routes":"150, 56, 61-05, 61-77, 61-9, 67, 76, 93"},{"StopId":3745,"Code":"Q9 059","Name":"Ngã ba Lâm Viên 1","StopType":"Trụ dừng","Zone":"TP. Thủ Đức - KV2","Ward":"Phường Tân Phú","AddressNo":"Đối diện 100","Street":"D400","SupportDisability":"","Status":"Đang khai thác","Lng":106.812386,"Lat":10.870689,"Search":"NbLV1 Dd100 D","Routes":"150, 56, 61-05, 61-77, 61-9, 76, 93"},{"StopId":3744,"Code":"Q9 060","Name":"Nghĩa trang liệt sĩ Tp.HCM","StopType":"Nhà chờ","Zone":"TP. Thủ Đức - KV2","Ward":"Phường Tân Phú","AddressNo":"Đối diện 28","Street":"D400","SupportDisability":"","Status":"Đang khai thác","Lng":106.809345,"Lat":10.871408,"Search":"NtlsT Dd28 D","Routes":"150, 56, 61-05, 61-77, 61-9, 67, 76, 93"},{"StopId":572,"Code":"QTD 175","Name":"Đại học An Ninh Nhân Dân","StopType":"Trụ dừng","Zone":"TP. Thủ Đức - KV3","Ward":null,"AddressNo":"Nhà máy Tiến Thành","Street":"Quốc lộ 1","SupportDisability":"","Status":"Đang khai thác","Lng":106.806657,"Lat":10.871402,"Search":"DhANND NmTT Ql1","Routes":"08, 10, 150, 164V, 166, 19, 33, 53, 60-1, 60-2, 60-3, 60-7, 61-9, 67, 76, 99"},{"StopId":576,"Code":"QTD 176","Name":"Trường giáo dục Quốc phòng","StopType":"Trụ dừng","Zone":"TP. Thủ Đức - KV3","Ward":null,"AddressNo":"Trường giáo dục Quốc phòng","Street":"Quốc lộ 1","SupportDisability":"","Status":"Đang khai thác","Lng":106.804727,"Lat":10.869172,"Search":"TgdQp TgdQp Ql1","Routes":"08, 10, 150, 164V, 166, 19, 33, 53, 60-2, 60-3, 60-7, 61-9, 67, 76, 99"},{"StopId":574,"Code":"QTD 177","Name":"Khu DL Suối Tiên","StopType":"Nhà chờ","Zone":"TP. Thủ Đức - KV3","Ward":"Phường Linh Trung","AddressNo":"9/29","Street":"Quốc lộ 1","SupportDisability":"","Status":"Đang khai thác","Lng":106.801116,"Lat":10.86605,"Search":"KDST 9/29 Ql1","Routes":"08, 10, 150, 19, 33, 53, 60-1, 60-2, 60-3, 60-7, 61-9, 67, 76, 93, 99"},{"StopId":4559,"Code":"QTD 197","Name":"Câu vượt Trạm 2","StopType":"Nhà chờ","Zone":"TP. Thủ Đức - KV3","Ward":"Phường Linh Trung","AddressNo":"Câu vượt Trạm 2","Street":"Quốc lộ 1","SupportDisability":"","Status":"Đang khai thác","Lng":106.797318,"Lat":10.8639,"Search":"CvT2 CvT2 Ql1","Routes":"08, 150, 67, 76"},{"StopId":398,"Code":"QTD 074","Name":"Khu Công nghệ cao Q9","StopType":"Trụ dừng","Zone":"TP. Thủ Đức - KV3","Ward":"Phường Linh Trung","AddressNo":"Đối diện Khu công nghệ cao","Street":"Xa Lộ Hà Nội","SupportDisability":"","Status":"Đang khai thác","Lng":106.791138,"Lat":10.860218,"Search":"KCncQ DdKcnc XLHN","Routes":"06, 08, 10, 150, 52, 60-3, 67, 76"},{"StopId":4392,"Code":"QTD 075","Name":"Xa Lộ Hà Nội","StopType":"Nhà chờ","Zone":"TP. Thủ Đức - KV3","Ward":"Phường Linh Trung","AddressNo":"Đối diện Khu Công Nghệ Cao Q.9","Street":"Xa Lộ Hà Nội","SupportDisability":"","Status":"Đang khai thác","Lng":106.788633,"Lat":10.858716,"Search":"XLHN DdKCNCQ XLHN","Routes":"06, 08, 10, 150, 52, 60-3, 67, 76"},{"StopId":401,"Code":"QTD 076","Name":"Công ty Cocacola","StopType":"Nhà chờ","Zone":"TP. Thủ Đức - KV3","Ward":"Phường Linh Trung","AddressNo":"Công ty Cocacola","Street":"Xa Lộ Hà Nội","SupportDisability":"","Status":"Đang khai thác","Lng":106.784964,"Lat":10.856483,"Search":"CtC CtC XLHN","Routes":"06, 08, 10, 150, 52, 60-3, 67, 76"},{"StopId":1502,"Code":"Q9 089","Name":"Siêu thị Coopmart","StopType":"Nhà chờ","Zone":"TP. Thủ Đức - KV2","Ward":null,"AddressNo":"4-6","Street":"Lê Văn Việt","SupportDisability":"","Status":"Đang khai thác","Lng":106.775032,"Lat":10.848192,"Search":"StC 4-6 LVV","Routes":"141, 162, 56, 57, 76"},{"StopId":1504,"Code":"Q9 090","Name":"Bệnh viện 7C-Trường Quân y 2","StopType":"Trụ dừng","Zone":"TP. Thủ Đức - KV2","Ward":null,"AddressNo":"50","Street":"Lê Văn Việt","SupportDisability":"","Status":"Đang khai thác","Lng":106.778124,"Lat":10.846262,"Search":"Bv7C-TruongQy2 50 LVV","Routes":"141, 162, 56, 57, 76"},{"StopId":1495,"Code":"Q9 091","Name":"Nhà sách Thành Nghĩa","StopType":"Trụ dừng","Zone":"TP. Thủ Đức - KV2","Ward":null,"AddressNo":"142-144","Street":"Lê Văn Việt","SupportDisability":"","Status":"Đang khai thác","Lng":106.780563,"Lat":10.84486,"Search":"NsTN 142-144 LVV","Routes":"141, 162, 162V, 56, 57, 76"},{"StopId":1497,"Code":"Q9 092","Name":"Trạm y tế Phường Hiệp Phú","StopType":"Trụ dừng","Zone":"TP. Thủ Đức - KV2","Ward":"Phường Tăng Nhơn Phú B","AddressNo":"192-194 (188)","Street":"Lê Văn Việt","SupportDisability":"","Status":"Đang khai thác","Lng":106.782028,"Lat":10.844114,"Search":"TytPHP 192-194( LVV","Routes":"141, 162, 162V, 56, 76, 99"},{"StopId":1499,"Code":"Q9 093","Name":"Chợ Hiệp Phú","StopType":"Trụ dừng","Zone":"TP. Thủ Đức - KV2","Ward":"Phường Tăng Nhơn Phú B","AddressNo":"(278) 284","Street":"Lê Văn Việt","SupportDisability":"","Status":"Đang khai thác","Lng":106.784261,"Lat":10.844128,"Search":"CHP (284 LVV","Routes":"141, 162, 162V, 56, 76, 99"},{"StopId":3748,"Code":"Q9 144","Name":"Ngã 3 Lê Văn Việt","StopType":"Trụ dừng","Zone":"TP. Thủ Đức - KV2","Ward":"Phường Tăng Nhơn Phú A","AddressNo":"28A","Street":"Man Thiện","SupportDisability":"","Status":"Đang khai thác","Lng":106.786761,"Lat":10.846004,"Search":"N3LVV 28A MT","Routes":"162, 162V, 76"},{"StopId":3746,"Code":"Q9 143","Name":"Học Viện Bưu chính","StopType":"Trụ dừng","Zone":"TP. Thủ Đức - KV2","Ward":null,"AddressNo":"A1/3 (số 3)","Street":"Man Thiện","SupportDisability":"","Status":"Đang khai thác","Lng":106.787383,"Lat":10.84859,"Search":"HVBc A(3) MT","Routes":"162, 162V, 76"},{"StopId":3747,"Code":"Q9 142","Name":"Học viện Chính trị - Hành chính","StopType":"Trụ dừng","Zone":"TP. Thủ Đức - KV2","Ward":null,"AddressNo":"Đối diện học viện Chính trị - Hành chính","Street":"Man Thiện","SupportDisability":"","Status":"Đang khai thác","Lng":106.787764,"Lat":10.850245,"Search":"HvCt-Hc DdhvCt-Hc MT","Routes":"162, 162V, 76"},{"StopId":3749,"Code":"Q9 141","Name":"Chung Cư C3","StopType":"Ô sơn","Zone":"TP. Thủ Đức - KV2","Ward":"Phường Tăng Nhơn Phú A","AddressNo":"152","Street":"Man Thiện","SupportDisability":"","Status":"Đang khai thác","Lng":106.79184,"Lat":10.853032,"Search":"CCC 152 MT","Routes":"162, 76"},{"StopId":3751,"Code":"Q9 140","Name":"Trường mầm non Tuổi Hồng","StopType":"Ô sơn","Zone":"TP. Thủ Đức - KV2","Ward":"Phường Tăng Nhơn Phú A","AddressNo":"212-214 (263-265)","Street":"Man Thiện","SupportDisability":"","Status":"Đang khai thác","Lng":106.79554,"Lat":10.850469,"Search":"TmnTH 212-214( MT","Routes":"162, 76"},{"StopId":3750,"Code":"Q9 139","Name":"Chung Cư C5","StopType":"Ô sơn","Zone":"TP. Thủ Đức - KV2","Ward":"Phường Tăng Nhơn Phú A","AddressNo":"272","Street":"Man Thiện","SupportDisability":"","Status":"Đang khai thác","Lng":106.798729,"Lat":10.847784,"Search":"CCC 272 MT","Routes":"162, 76"},{"StopId":1505,"Code":"Q9 242","Name":"Ngã 3 Nghêu sò","StopType":"Trụ dừng","Zone":"TP. Thủ Đức - KV2","Ward":null,"AddressNo":"CX3","Street":"Làng Tăng Phú","SupportDisability":"","Status":"Đang khai thác","Lng":106.798767,"Lat":10.845685,"Search":"N3Ns C LTP","Routes":"141, 76"},{"StopId":1531,"Code":"Q9 240","Name":"Khu phố 4","StopType":"Trụ dừng","Zone":"TP. Thủ Đức - KV2","Ward":"Phường Tăng Nhơn Phú A","AddressNo":"51C","Street":"Làng Tăng Phú","SupportDisability":"","Status":"Đang khai thác","Lng":106.798496,"Lat":10.843177,"Search":"Kp4 51C LTP","Routes":"141, 76"},{"StopId":1510,"Code":"Q9 244","Name":"Ngã 3 Xóm Bến","StopType":"Trụ dừng","Zone":"TP. Thủ Đức - KV2","Ward":null,"AddressNo":"19D","Street":"Làng Tăng Phú","SupportDisability":"","Status":"Đang khai thác","Lng":106.797531,"Lat":10.840752,"Search":"N3XB 19D LTP","Routes":"141, 76"},{"StopId":1509,"Code":"Q9 074","Name":"Dốc xóm Bến","StopType":"Trụ dừng","Zone":"TP. Thủ Đức - KV2","Ward":null,"AddressNo":"Đối diện Quán Nhà Quê","Street":"Lã Xuân Oai","SupportDisability":"","Status":"Đang khai thác","Lng":106.799408,"Lat":10.836178,"Search":"DxB DdQNQ LXO","Routes":"141, 76"},{"StopId":1512,"Code":"Q9 073","Name":"Ngã tư Samsung","StopType":"Nhà chờ","Zone":"TP. Thủ Đức - KV2","Ward":null,"AddressNo":"Cột điện T73C (Đối diện 215)","Street":"Lã Xuân Oai","SupportDisability":"","Status":"Đang khai thác","Lng":106.803589,"Lat":10.831241,"Search":"NtS CdT(d215) LXO","Routes":"141, 76"},{"StopId":3752,"Code":"Q9 111","Name":"Ngã 3 Lò Lu","StopType":"Trụ dừng","Zone":"TP. Thủ Đức - KV2","Ward":null,"AddressNo":"81A","Street":"Lò Lu","SupportDisability":"","Status":"Đang khai thác","Lng":106.808472,"Lat":10.824436,"Search":"N3LL 81A LL","Routes":"76"},{"StopId":3753,"Code":"Q9 112","Name":"Kho bạc nhà nước Quận 9","StopType":"Trụ dừng","Zone":"TP. Thủ Đức - KV2","Ward":null,"AddressNo":"Đối diện 77","Street":"Lò Lu","SupportDisability":"","Status":"Đang khai thác","Lng":106.812386,"Lat":10.825187,"Search":"KbnnQ9 Dd77 LL","Routes":"76"},{"StopId":3755,"Code":"Q9 113","Name":"Trường Mầm non","StopType":"Trụ dừng","Zone":"TP. Thủ Đức - KV2","Ward":null,"AddressNo":"Đối diện trường mầm non Trường Thạnh","Street":"Lò Lu","SupportDisability":"","Status":"Đang khai thác","Lng":106.815653,"Lat":10.825856,"Search":"TMn DdtmnTT LL","Routes":"76"},{"StopId":3756,"Code":"Q9 114","Name":"Chợ Trường Thạnh","StopType":"Trụ dừng","Zone":"TP. Thủ Đức - KV2","Ward":null,"AddressNo":"164","Street":"Lò Lu","SupportDisability":"","Status":"Đang khai thác","Lng":106.821104,"Lat":10.826298,"Search":"CTT 164 LL","Routes":"76"},{"StopId":3757,"Code":"Q9 115","Name":"Cầu Chùm Chụp","StopType":"Trụ dừng","Zone":"TP. Thủ Đức - KV2","Ward":null,"AddressNo":"Đối diện trạm Cầu Chùm Chụp","Street":"Lò Lu","SupportDisability":"","Status":"Đang khai thác","Lng":106.826152,"Lat":10.824112,"Search":"CCC DdtCCC LL","Routes":"76"},{"StopId":3754,"Code":"Q9 116","Name":"Lò Lu","StopType":"Trụ dừng","Zone":"TP. Thủ Đức - KV2","Ward":null,"AddressNo":"Đối diện cột điện PB 27","Street":"Lò Lu","SupportDisability":"","Status":"Đang khai thác","Lng":106.829032,"Lat":10.824923,"Search":"LL DdcdP27 LL","Routes":"76"},{"StopId":3758,"Code":"Q9 206","Name":"cây xăng Trường Thạnh","StopType":"Trụ dừng","Zone":"TP. Thủ Đức - KV2","Ward":null,"AddressNo":"195","Street":"Nguyễn Xiển","SupportDisability":"","Status":"Đang khai thác","Lng":106.830475,"Lat":10.823353,"Search":"cxTT 195 NX","Routes":"76"},{"StopId":3759,"Code":"Q9 205","Name":"Đường số 9","StopType":"Trụ dừng","Zone":"TP. Thủ Đức - KV2","Ward":null,"AddressNo":"Đối diện cột điện PD38","Street":"Nguyễn Xiển","SupportDisability":"","Status":"Đang khai thác","Lng":106.832213,"Lat":10.818943,"Search":"Ds9 DdcdP NX","Routes":"76"},{"StopId":3760,"Code":"Q9 204","Name":"Long Thuận-Nguyễn Xiển","StopType":"Trụ dừng","Zone":"TP. Thủ Đức - KV2","Ward":"Phường Long Thạnh Mỹ","AddressNo":"25","Street":"Nguyễn Xiển","SupportDisability":"","Status":"Đang khai thác","Lng":106.833732,"Lat":10.815107,"Search":"LTX 25 NX","Routes":"76"},{"StopId":3761,"Code":"Q9  123","Name":"Ngã ba Long Thuận","StopType":"Trụ dừng","Zone":"TP. Thủ Đức - KV2","Ward":"Phường Trường Thạnh","AddressNo":"14 (Cột điện 6)","Street":"Long Thuận","SupportDisability":"","Status":"Đang khai thác","Lng":106.834999,"Lat":10.814425,"Search":"NbLT 14(d6) LT","Routes":"76, 88"},{"StopId":3763,"Code":"Q9  124","Name":"Cầu Trường Phước","StopType":"Trụ dừng","Zone":"TP. Thủ Đức - KV2","Ward":"Phường Long Phước","AddressNo":"Cột điện T27C (116/A)","Street":"Long Thuận","SupportDisability":"","Status":"Đang khai thác","Lng":106.843163,"Lat":10.811874,"Search":"CTP CdT( LT","Routes":"76, 88"},{"StopId":3762,"Code":"Q9 125","Name":"phim trường","StopType":"Trụ dừng","Zone":"TP. Thủ Đức - KV2","Ward":"Phường Long Phước","AddressNo":"Cột điện T45C (CĐ PDA40)","Street":"Long Thuận","SupportDisability":"","Status":"Đang khai thác","Lng":106.84671,"Lat":10.811287,"Search":"pt CdT(P LT","Routes":"76, 88"},{"StopId":3764,"Code":"Q9 126","Name":"Trại nhím","StopType":"Trụ dừng","Zone":"TP. Thủ Đức - KV2","Ward":"Phường Long Phước","AddressNo":"216-218 (220)","Street":"Long Thuận","SupportDisability":"","Status":"Đang khai thác","Lng":106.853827,"Lat":10.811619,"Search":"Tn 216-218( LT","Routes":"76, 88"},{"StopId":3766,"Code":"Q9 127","Name":"Ngã ba Long Phước","StopType":"Trụ dừng","Zone":"TP. Thủ Đức - KV2","Ward":"Phường Long Phước","AddressNo":"322-324","Street":"Long Thuận","SupportDisability":"","Status":"Đang khai thác","Lng":106.859035,"Lat":10.811961,"Search":"NbLP 322-324 LT","Routes":"76, 88"},{"StopId":3765,"Code":"Q9 128","Name":"Trường tiểu học Long Phước","StopType":"Nhà chờ","Zone":"TP. Thủ Đức - KV2","Ward":"Phường Long Phước","AddressNo":"Trường MN Long Phước","Street":"Long Phước","SupportDisability":"","Status":"Đang khai thác","Lng":106.859474,"Lat":10.811131,"Search":"TthLP TMLP LP","Routes":"76, 88"},{"StopId":9497,"Code":"HCM 0007","Name":"Chợ Long Phước","StopType":"Ô sơn","Zone":"TP. Thủ Đức - KV2","Ward":"Phường Long Phước","AddressNo":"đối diện chợ Long Phước (đối diện trụ điện T96L)","Street":"Long Phước","SupportDisability":"","Status":"Đang khai thác","Lng":106.859537,"Lat":10.808235,"Search":"CLP ddcLP(dtdT LP","Routes":"76, 88"},{"StopId":8009,"Code":"TPTĐ 139","Name":"Trụ sở Khu phố Phước Hậu","StopType":"Trụ dừng","Zone":"TP. Thủ Đức - KV2","Ward":"Phường Long Phước","AddressNo":"đối diện Hẻm 401","Street":"Long Phước","SupportDisability":"","Status":"Đang khai thác","Lng":106.858621,"Lat":10.799512,"Search":"TsKpPH ddH401 LP","Routes":"76, 88"},{"StopId":9499,"Code":"HCM 0009","Name":"Trường ĐH Luật (cơ sở Long Phước)","StopType":"Ô sơn","Zone":"TP. Thủ Đức - KV2","Ward":"Phường Long Phước","AddressNo":"Trụ đèn số 9","Street":"Long Phước","SupportDisability":"","Status":"Đang khai thác","Lng":106.85952,"Lat":10.792961,"Search":"TDL(sLP Tds9 LP","Routes":"76"},{"StopId":3692,"Code":"BX26","Name":"Hẻm 813 Long Phước","StopType":"Bến xe","Zone":"TP. Thủ Đức - KV2","Ward":null,"AddressNo":"ĐẦU BẾN HẺM 813 LONG PHƯỚC","Street":"Long Thuận","SupportDisability":"","Status":"Đang khai thác","Lng":106.860107,"Lat":10.789044,"Search":"H813LP DBH813LP LT","Routes":"76"}]