[{"StopId":8,"Code":"BX14","Name":"Bến xe buýt Chợ Lớn","StopType":"Bến xe","Zone":"Quận 5","Ward":null,"AddressNo":"GA HKXB CHO LON","Street":"Lê Quang Sung","SupportDisability":"","Status":"Đang khai thác","Lng":106.652565,"Lat":10.751253,"Search":"BxbCL GHCL LQS","Routes":"01, 05, 06, 07, 09, 150, 23, 47, 56, 62-1, 62-10, 62-7, 62-8, 81, 94"},{"StopId":1,"Code":"Q6 095","Name":"Chu Văn An","StopType":"Trụ dừng","Zone":"Quận 6","Ward":null,"AddressNo":"27","Street":"Tháp Mười","SupportDisability":"","Status":"Đang khai thác","Lng":106.652554,"Lat":10.750232,"Search":"CVA 27 TM","Routes":"07, 10, 150, 25, 56, 91"},{"StopId":2,"Code":"Q5 016","Name":"Chợ Kim Biên","StopType":"Trụ dừng","Zone":"Quận 5","Ward":null,"AddressNo":"11-12","Street":"Hải Thượng Lãn Ông","SupportDisability":"","Status":"Đang khai thác","Lng":106.655075,"Lat":10.750732,"Search":"CKB 11-12 HTLO","Routes":"01, 07, 10, 25, 39, 47, 56"},{"StopId":3,"Code":"Q5 011","Name":"Bưu điện Quận 5","StopType":"Ô sơn","Zone":"Quận 5","Ward":null,"AddressNo":"14-16","Street":"Châu Văn Liêm","SupportDisability":"","Status":"Đang khai thác","Lng":106.659203,"Lat":10.751368,"Search":"BdQ5 14-16 CVL","Routes":"01, 07, 08, 10, 45, 56, 62"},{"StopId":5,"Code":"Q5 012","Name":"Rạp Đại Quang","StopType":"Nhà chờ","Zone":"Quận 5","Ward":null,"AddressNo":"68","Street":"Châu Văn Liêm","SupportDisability":"","Status":"Đang khai thác","Lng":106.658937,"Lat":10.752566,"Search":"RDQ 68 CVL","Routes":"01, 07, 08, 10, 45, 56, 62"},{"StopId":437,"Code":"Q5 025","Name":"Bệnh viện Chợ Rẫy","StopType":"Trụ dừng","Zone":"Quận 5","Ward":null,"AddressNo":"357-359","Street":"Hồng Bàng","SupportDisability":"","Status":"Đang khai thác","Lng":106.659232,"Lat":10.754553,"Search":"BvCR 357-359 HB","Routes":"06, 07, 08, 10, 139, 150, 56, 62, 63-1, 68"},{"StopId":439,"Code":"Q5 026","Name":"Đại học Y Dược","StopType":"Nhà chờ","Zone":"Quận 5","Ward":null,"AddressNo":"217","Street":"Hồng Bàng","SupportDisability":"","Status":"Đang khai thác","Lng":106.663191,"Lat":10.75536,"Search":"DhYD 217 HB","Routes":"06, 07, 10, 139, 150, 56, 68"},{"StopId":440,"Code":"Q5 027","Name":"Bệnh viện Đại học Y Dược","StopType":"Nhà chờ","Zone":"Quận 5","Ward":null,"AddressNo":"215","Street":"Hồng Bàng","SupportDisability":"","Status":"Đang khai thác","Lng":106.664683,"Lat":10.755671,"Search":"BvDhYD 215 HB","Routes":"06, 07, 10, 139, 150, 56, 68"},{"StopId":432,"Code":"Q5 068","Name":"Công viên Văn Lang","StopType":"Trụ dừng","Zone":"Quận 5","Ward":null,"AddressNo":"132A","Street":"Nguyễn Tri Phương","SupportDisability":"","Status":"Đang khai thác","Lng":106.669613,"Lat":10.757151,"Search":"CvVL 132A NTP","Routes":"06, 07, 10, 139, 150, 56, 59, 68"},{"StopId":441,"Code":"Q5 069","Name":"Trường Trần Khai Nguyên","StopType":"Ô sơn","Zone":"Quận 5","Ward":null,"AddressNo":"138G-138F","Street":"Nguyễn Tri Phương","SupportDisability":"","Status":"Đang khai thác","Lng":106.66928,"Lat":10.758706,"Search":"TTKN 138G-138F NTP","Routes":"07, 10, 150, 59"},{"StopId":442,"Code":"Q10 071","Name":"Đại học Kinh tế","StopType":"Trụ dừng","Zone":"Quận 10","Ward":null,"AddressNo":"234-236","Street":"Nguyễn Tri Phương","SupportDisability":"","Status":"Đang khai thác","Lng":106.668564,"Lat":10.761386,"Search":"DhKt 234-236 NTP","Routes":"07, 10, 59"},{"StopId":444,"Code":"Q10 072","Name":"Trường Hoàng Văn Thụ","StopType":"Nhà chờ","Zone":"Quận 10","Ward":null,"AddressNo":"336","Street":"Nguyễn Tri Phương","SupportDisability":"","Status":"Đang khai thác","Lng":106.668213,"Lat":10.763073,"Search":"THVT 336 NTP","Routes":"07, 10, 59"},{"StopId":443,"Code":"Q10 073","Name":"Chợ Nhật Tảo","StopType":"Trụ dừng","Zone":"Quận 10","Ward":null,"AddressNo":"426","Street":"Nguyễn Tri Phương","SupportDisability":"","Status":"Đang khai thác","Lng":106.667702,"Lat":10.765397,"Search":"CNT 426 NTP","Routes":"07, 10, 59"},{"StopId":446,"Code":"Q10 074","Name":"Học viện Quân y","StopType":"Trụ dừng","Zone":"Quận 10","Ward":null,"AddressNo":"476","Street":"Nguyễn Tri Phương","SupportDisability":"","Status":"Đang khai thác","Lng":106.667313,"Lat":10.767052,"Search":"HvQy 476 NTP","Routes":"07, 10, 59"},{"StopId":158,"Code":"Q10 011","Name":"Bệnh viện Nhi Đồng 1","StopType":"Nhà chờ","Zone":"Quận 10","Ward":null,"AddressNo":"Đối diện 350","Street":"Đường 3/2","SupportDisability":"","Status":"Đang khai thác","Lng":106.670609,"Lat":10.769518,"Search":"BvND1 Dd350 D3/2","Routes":"07"},{"StopId":160,"Code":"Q10 012","Name":"Nhà thờ Vinh Sơn","StopType":"Trụ dừng","Zone":"Quận 10","Ward":null,"AddressNo":"273-275","Street":"Đường 3/2","SupportDisability":"","Status":"Đang khai thác","Lng":106.672166,"Lat":10.770269,"Search":"NtVS 273-275 D3/2","Routes":"07"},{"StopId":159,"Code":"Q10 013","Name":"Nhà hát Hòa Bình","StopType":"Trụ dừng","Zone":"Quận 10","Ward":null,"AddressNo":"183A-183B","Street":"Đường 3/2","SupportDisability":"","Status":"Đang khai thác","Lng":106.674805,"Lat":10.771855,"Search":"NhHB 183A-183B D3/2","Routes":"07"},{"StopId":162,"Code":"Q10 014","Name":"Học viện Hành chính Quốc gia","StopType":"Trụ dừng","Zone":"Quận 10","Ward":null,"AddressNo":"113","Street":"Đường 3/2","SupportDisability":"","Status":"Đang khai thác","Lng":106.677015,"Lat":10.77323,"Search":"HvHcQg 113 D3/2","Routes":"07"},{"StopId":445,"Code":"Q10 015","Name":"Bệnh viện Bình Dân","StopType":"Trụ dừng","Zone":"Quận 10","Ward":null,"AddressNo":"51","Street":"Đường 3/2","SupportDisability":"","Status":"Đang khai thác","Lng":106.67885,"Lat":10.774421,"Search":"BvBD 51 D3/2","Routes":"07, 156D"},{"StopId":448,"Code":"Q10 016","Name":"Siêu thị Maximark","StopType":"Nhà chờ","Zone":"Quận 10","Ward":null,"AddressNo":"3","Street":"Đường 3/2","SupportDisability":"","Status":"Đang khai thác","Lng":106.68099,"Lat":10.776977,"Search":"StM 3 D3/2","Routes":"07, 156D"},{"StopId":8167,"Code":"Q3 123","Name":"Vòng xoay Dân chủ","StopType":"Ô sơn","Zone":"Quận 3","Ward":"Phường 09","AddressNo":"28-30","Street":"Nguyễn Phúc Nguyên","SupportDisability":"","Status":"Đang khai thác","Lng":106.681216,"Lat":10.778584,"Search":"VxDc 28-30 NPN","Routes":"07, 156D"},{"StopId":7175,"Code":"Q3 118","Name":"Ga Hòa Hưng","StopType":"Nhà chờ","Zone":"Quận 3","Ward":"Phường 09","AddressNo":"01","Street":"Nguyễn Thông","SupportDisability":"Có","Status":"Đang khai thác","Lng":106.677884,"Lat":10.782305,"Search":"GHH 01 NT","Routes":"07, 156D, 156V"},{"StopId":8168,"Code":"Q3 124","Name":"Nguyễn Thông","StopType":"Ô sơn","Zone":"Quận 3","Ward":"Phường 09","AddressNo":"137-139","Street":"Nguyễn Thông","SupportDisability":"","Status":"Đang khai thác","Lng":106.679446,"Lat":10.78134,"Search":"NT 137-139 NT","Routes":"07, 156D"},{"StopId":447,"Code":"Q3 033","Name":"Nhà thờ Dòng chúa Cứu thế","StopType":"Trụ dừng","Zone":"Quận 3","Ward":null,"AddressNo":"25","Street":"Kỳ Đồng","SupportDisability":"","Status":"Đang khai thác","Lng":106.681305,"Lat":10.780805,"Search":"NtDcCt 25 KD","Routes":"07"},{"StopId":451,"Code":"Q3 034","Name":"Trần Quốc Thảo","StopType":"Trụ dừng","Zone":"Quận 3","Ward":null,"AddressNo":"5","Street":"Kỳ Đồng","SupportDisability":"","Status":"Đang khai thác","Lng":106.683022,"Lat":10.784504,"Search":"TQT 5 KD","Routes":"07"},{"StopId":449,"Code":"Q3 042","Name":"Chợ Nguyễn Văn Trỗi","StopType":"Trụ dừng","Zone":"Quận 3","Ward":"Phường 14","AddressNo":"332 - 334","Street":"Lê Văn Sỹ","SupportDisability":"","Status":"Đang khai thác","Lng":106.679535,"Lat":10.787041,"Search":"CNVT 332-334 LVS","Routes":"07, 28"},{"StopId":453,"Code":"Q3 093","Name":"Trần Quang Diệu","StopType":"Trụ dừng","Zone":"Quận 3","Ward":"Phường 14","AddressNo":"24 - 26","Street":"Trần Quang Diệu","SupportDisability":"","Status":"Đang khai thác","Lng":106.678319,"Lat":10.788375,"Search":"TQD 24-26 TQD","Routes":"07"},{"StopId":450,"Code":"QPN 030","Name":"Bệnh viện An Sinh","StopType":"Trụ dừng","Zone":"Quận Phú Nhuận","Ward":null,"AddressNo":"8","Street":"Trần Huy Liệu","SupportDisability":"","Status":"Đang khai thác","Lng":106.678123,"Lat":10.791023,"Search":"BvAS 8 THL","Routes":"07"},{"StopId":452,"Code":"QPN 031","Name":"Ngã Tư Nguyễn Văn Trỗi","StopType":"Trụ dừng","Zone":"Quận Phú Nhuận","Ward":null,"AddressNo":"60","Street":"Trần Huy Liệu","SupportDisability":"","Status":"Đang khai thác","Lng":106.677992,"Lat":10.793028,"Search":"NTNVT 60 THL","Routes":"07"},{"StopId":252,"Code":"QPN 049","Name":"Trung tâm văn hóa Quận Phú Nhuận","StopType":"Trụ dừng","Zone":"Quận Phú Nhuận","Ward":null,"AddressNo":"68","Street":"Nguyễn Văn Trỗi","SupportDisability":"","Status":"Đang khai thác","Lng":106.676093,"Lat":10.795421,"Search":"TtvhQPN 68 NVT","Routes":"04, 07, 109, 152, 72-2B"},{"StopId":253,"Code":"QPN 050","Name":"Cổng xe lửa","StopType":"Trụ dừng","Zone":"Quận Phú Nhuận","Ward":null,"AddressNo":"104","Street":"Nguyễn Văn Trỗi","SupportDisability":"","Status":"Đang khai thác","Lng":106.673797,"Lat":10.79677,"Search":"Cxl 104 NVT","Routes":"04, 07, 109, 152, 72-2B"},{"StopId":254,"Code":"QPN 051","Name":"Bệnh viện Quận Phú Nhuận","StopType":"Trụ dừng","Zone":"Quận Phú Nhuận","Ward":null,"AddressNo":"142","Street":"Nguyễn Văn Trỗi","SupportDisability":"","Status":"Đang khai thác","Lng":106.670793,"Lat":10.798525,"Search":"BvQPN 142 NVT","Routes":"04, 07, 109, 152, 72-2B"},{"StopId":255,"Code":"QPN 052 ","Name":"Cây xăng Quân khu 7","StopType":"Nhà chờ","Zone":"Quận Phú Nhuận","Ward":null,"AddressNo":"180","Street":"Nguyễn Văn Trỗi","SupportDisability":"","Status":"Đang khai thác","Lng":106.66891,"Lat":10.799642,"Search":"CxQk7 180 NVT","Routes":"04, 07, 109, 152, 72-2B"},{"StopId":256,"Code":"QTB 099","Name":"Cổng trước SVĐ Quân Khu 7","StopType":"Nhà chờ","Zone":"Quận Tân Bình","Ward":null,"AddressNo":"A2 (Sân vận động Quân khu 7)","Street":"Phan Đình Giót","SupportDisability":"","Status":"Đang khai thác","Lng":106.66678,"Lat":10.800848,"Search":"CtSQK7 A(vdQk7) PDG","Routes":"04, 07, 08, 104, 109, 152, 63-1, 64, 72-2B"},{"StopId":455,"Code":"QTB 101","Name":"Rạp Tân Sơn Nhất","StopType":"Nhà chờ","Zone":"Quận Tân Bình","Ward":null,"AddressNo":"2B (Hông sân vận động Quân Khu 7)","Street":"Phổ Quang","SupportDisability":"","Status":"Đang khai thác","Lng":106.665924,"Lat":10.80244,"Search":"RTSN 2B(svdQK7) PQ","Routes":"07, 148, 50, 59"},{"StopId":457,"Code":"QTB 102","Name":"Bãi xe buýt Phổ Quang","StopType":"Trụ dừng","Zone":"Quận Tân Bình","Ward":null,"AddressNo":"66 (Công ty Xe khách Sài Gòn)","Street":"Phổ Quang","SupportDisability":"","Status":"Đang khai thác","Lng":106.6667,"Lat":10.805417,"Search":"BxbPQ 66(tXkSG PQ","Routes":"07, 148, 50, 59"},{"StopId":454,"Code":"QTB 103","Name":"Cây xăng Quân đội","StopType":"Trụ dừng","Zone":"Quận Tân Bình","Ward":null,"AddressNo":"96-100","Street":"Phổ Quang","SupportDisability":"","Status":"Đang khai thác","Lng":106.668495,"Lat":10.807221,"Search":"CxQd 96-100 PQ","Routes":"07, 148, 50, 59"},{"StopId":456,"Code":"QPN 033","Name":"Trường Đại học Kỹ thuật Công nghệ","StopType":"Trụ dừng","Zone":"Quận Phú Nhuận","Ward":null,"AddressNo":"140","Street":"Phổ Quang","SupportDisability":"","Status":"Đang khai thác","Lng":106.672236,"Lat":10.808204,"Search":"TDhKtCn 140 PQ","Routes":"07, 148, 50, 59"},{"StopId":459,"Code":"QPN 036","Name":"Cuối công viên Gia Định","StopType":"Nhà chờ","Zone":"Quận Phú Nhuận","Ward":null,"AddressNo":"7","Street":"Hoàng Minh Giám","SupportDisability":"","Status":"Đang khai thác","Lng":106.674929,"Lat":10.809727,"Search":"CcvGD 7 HMG","Routes":"07, 148, 50, 59"},{"StopId":458,"Code":"QPN 037","Name":"Ngã ba Đặng Văn Sâm","StopType":"Nhà chờ","Zone":"Quận Phú Nhuận","Ward":null,"AddressNo":"Ngã ba Đặng Văn Sâm","Street":"Hoàng Minh Giám","SupportDisability":"","Status":"Đang khai thác","Lng":106.676399,"Lat":10.811382,"Search":"NbDVS NbDVS HMG","Routes":"07, 148, 50, 59"},{"StopId":461,"Code":"QPN 038","Name":"Đầu công viên Gia Định","StopType":"Nhà chờ","Zone":"Quận Phú Nhuận","Ward":null,"AddressNo":"Đối diện Rạp xiếc","Street":"Hoàng Minh Giám","SupportDisability":"","Status":"Đang khai thác","Lng":106.677949,"Lat":10.813231,"Search":"DcvGD DdRx HMG","Routes":"07, 148, 50, 59"},{"StopId":56,"Code":"QGV 040","Name":"Cầu vượt Nguyễn Thái Sơn - Nguyễn Kiệm","StopType":"Trụ dừng","Zone":"Quận Gò Vấp","Ward":null,"AddressNo":"86 - 86C","Street":"Nguyễn Thái Sơn","SupportDisability":"","Status":"Đang khai thác","Lng":106.680443,"Lat":10.816282,"Search":"CvNTS-NK 86-86C NTS","Routes":"03, 07, 103, 148, 55, 59"},{"StopId":57,"Code":"QGV 042","Name":"Ngã ba Phạm Ngũ Lão","StopType":"Trụ dừng","Zone":"Quận Gò Vấp","Ward":null,"AddressNo":"182","Street":"Nguyễn Thái Sơn","SupportDisability":"","Status":"Đang khai thác","Lng":106.683147,"Lat":10.819712,"Search":"NbPNL 182 NTS","Routes":"03, 07, 103, 148, 55, 59"},{"StopId":460,"Code":"QGV 043","Name":"Ngã ba Phạm Ngũ Lão","StopType":"Trụ dừng","Zone":"Quận Gò Vấp","Ward":null,"AddressNo":"246 ","Street":"Nguyễn Thái Sơn","SupportDisability":"","Status":"Đang khai thác","Lng":106.68407,"Lat":10.820834,"Search":"NbPNL 246 NTS","Routes":"07, 148"},{"StopId":463,"Code":"QGV 044","Name":"Trường Đại học Công nghiệp","StopType":"Trụ dừng","Zone":"Quận Gò Vấp","Ward":null,"AddressNo":"320","Street":"Nguyễn Thái Sơn","SupportDisability":"","Status":"Đang khai thác","Lng":106.685636,"Lat":10.822789,"Search":"TDhCn 320 NTS","Routes":"07, 148"},{"StopId":462,"Code":"QGV 045","Name":"UBND Phường 5","StopType":"Trụ dừng","Zone":"Quận Gò Vấp","Ward":null,"AddressNo":"396","Street":"Nguyễn Thái Sơn","SupportDisability":"","Status":"Đang khai thác","Lng":106.687975,"Lat":10.825134,"Search":"UP5 396 NTS","Routes":"07, 146, 148"},{"StopId":468,"Code":"BX43","Name":"Bãi hậu cần số 1","StopType":"Bến xe","Zone":"Quận Gò Vấp","Ward":null,"AddressNo":"Bãi hậu cần số 1","Street":"Phan Văn Trị","SupportDisability":"","Status":"Đang khai thác","Lng":106.69188,"Lat":10.823601,"Search":"Bhcs1 Bhcs1 PVT","Routes":"07, 148"}]