[{"StopId":9324,"Code":"BD BX 0001","Name":"Bến xe Phú Chánh","StopType":"Bến xe","Zone":"Bình Dương","Ward":null,"AddressNo":"Bến xe Phú Chánh","Street":"Võ Nguyên Giáp","SupportDisability":"Có","Status":"Đang khai thác","Lng":106.69285,"Lat":11.07616,"Search":"BxPC BxPC VNG","Routes":"171"},{"StopId":8452,"Code":"BD-0141","Name":"Chợ Phú Chánh","StopType":"Trụ - hộp thông tin","Zone":"Bình Dương","Ward":null,"AddressNo":"Chợ Phú Chánh","Street":"Võ Nguyên Giáp","SupportDisability":"Có","Status":"Đang khai thác","Lng":106.692591,"Lat":11.075748,"Search":"CPC CPC VNG","Routes":"171"},{"StopId":8429,"Code":"BD-0118","Name":"Bảo hiểm xã hội tỉnh Bình Dương","StopType":"Nhà chờ","Zone":"Bình Dương","Ward":null,"AddressNo":"Bảo hiểm xã hội tỉnh Bình Dương","Street":"Lê Duẩn","SupportDisability":"Có","Status":"Đang khai thác","Lng":106.681325,"Lat":11.058946,"Search":"BhxhtBD BhxhtBD LD","Routes":"171"},{"StopId":8245,"Code":"BD TTHC","Name":"Trung tâm Hành chính Bình Dương","StopType":"Bến xe","Zone":"Bình Dương","Ward":null,"AddressNo":"Cổng 2","Street":"Lê Lợi","SupportDisability":"Có","Status":"Đang khai thác","Lng":106.682019,"Lat":11.056358,"Search":"TtHcBD C2 LL","Routes":"171"},{"StopId":8408,"Code":"BD-0097","Name":"Ngã tư Đại lộ Hùng Vương - Lê Lợi","StopType":"Nhà chờ","Zone":"Bình Dương","Ward":null,"AddressNo":"Ngã tư Đại lộ Hùng Vương - Lê Lợi","Street":"Đại Lộ Hùng Vương","SupportDisability":"Có","Status":"Đang khai thác","Lng":106.681825,"Lat":11.052003,"Search":"NtDlHV-LL NtDlHV-LL DLHV","Routes":"171"},{"StopId":8404,"Code":"BD-0093","Name":"SORA gardens","StopType":"Nhà chờ","Zone":"Bình Dương","Ward":null,"AddressNo":"SORA gardens","Street":"Đại Lộ Hùng Vương","SupportDisability":"Có","Status":"Tạm ngưng khai thác","Lng":106.677597,"Lat":11.046347,"Search":"Sg Sg DLHV","Routes":"171"},{"StopId":8402,"Code":"BD-0091","Name":"Ngã tư Đại lộ Hùng Vương - Võ Văn Kiệt","StopType":"Trụ - hộp thông tin","Zone":"Bình Dương","Ward":null,"AddressNo":"Ngã tư Đại lộ Hùng Vương - Võ Văn Kiệt","Street":"Đại Lộ Hùng Vương","SupportDisability":"Có","Status":"Đang khai thác","Lng":106.676088,"Lat":11.041776,"Search":"NtDlHV-VVK NtDlHV-VVK DLHV","Routes":"171"},{"StopId":8400,"Code":"BD-0089","Name":"Đại Lộ Hùng Vương Số 1","StopType":"Trụ - hộp thông tin","Zone":"Bình Dương","Ward":null,"AddressNo":"Đại Lộ Hùng Vương Số 1","Street":"Đại Lộ Hùng Vương","SupportDisability":"Có","Status":"Đang khai thác","Lng":106.678448,"Lat":11.035195,"Search":"DLHVS1 DLHVS1 DLHV","Routes":"171"},{"StopId":8398,"Code":"BD-0087","Name":"Ngã tư Đại Lộ Hùng Vương - Trần Ngọc Lên","StopType":"Trụ - hộp thông tin","Zone":"Bình Dương","Ward":null,"AddressNo":"Ngã tư Đại Lộ Hùng Vương - Trần Ngọc Lên","Street":"Đường Phạm Ngọc ThạchĐại Lộ Hùng Vương","SupportDisability":"Có","Status":"Đang khai thác","Lng":106.677957,"Lat":11.026164,"Search":"NtDLHV-TNL NtDLHV-TNL DPNTLHV","Routes":"171"},{"StopId":8360,"Code":"BD-0049","Name":"Trung tâm văn hoá thể thao Tp. Thủ Dầu Một","StopType":"Trụ - hộp thông tin","Zone":"Bình Dương","Ward":null,"AddressNo":"Trung tâm văn hoá thể thao Tp. Thủ Dầu Một","Street":"Đường Phạm Ngọc Thạch","SupportDisability":"Có","Status":"Đang khai thác","Lng":106.675199,"Lat":11.013749,"Search":"TtvhttTTDM TtvhttTTDM DPNT","Routes":"171"},{"StopId":8357,"Code":"BD047","Name":"Ngã tư Phạm Ngọc Thạch - Mỹ Phước Tân Vạn ","StopType":"Trụ - hộp thông tin","Zone":"Bình Dương","Ward":null,"AddressNo":"Ngã tư Phạm Ngọc Thạch - Mỹ Phước Tân Vạn ","Street":"Đường Phạm Ngọc Thạch","SupportDisability":"Có","Status":"Đang khai thác","Lng":106.669557,"Lat":11.009189,"Search":"NtPNT-MPTV NtPNT-MPTV DPNT","Routes":"171"},{"StopId":8355,"Code":"BD-0045","Name":"KDC Hiệp Thành III","StopType":"Trụ - hộp thông tin","Zone":"Bình Dương","Ward":null,"AddressNo":"KDC Hiệp Thành III","Street":"Đường Phạm Ngọc Thạch","SupportDisability":"Có","Status":"Chưa khai thác","Lng":106.666266,"Lat":11.005056,"Search":"KHTI KHTI DPNT","Routes":"171"},{"StopId":8353,"Code":"BD-0043","Name":"Ngã ba Phạm Ngọc Thạch - Nguyễn Đức Thuận","StopType":"Trụ - hộp thông tin","Zone":"Bình Dương","Ward":null,"AddressNo":"Ngã ba Phạm Ngọc Thạch - Nguyễn Đức Thuận","Street":"Đường Phạm Ngọc Thạch","SupportDisability":"Có","Status":"Đang khai thác","Lng":106.663989,"Lat":11.002726,"Search":"NbPNT-NDT NbPNT-NDT DPNT","Routes":"171"},{"StopId":8351,"Code":"BD-0041","Name":"Bệnh viện Đa khoa Tỉnh Bình Dương","StopType":"Nhà chờ","Zone":"Bình Dương","Ward":null,"AddressNo":"Bệnh viện Đa khoa Tỉnh Bình Dương","Street":"Đường Phạm Ngọc Thạch","SupportDisability":"Có","Status":"Đang khai thác","Lng":106.656434,"Lat":10.996669,"Search":"BvDkTBD BvDkTBD DPNT","Routes":"171"},{"StopId":8348,"Code":"BD-0039","Name":"Thư viện Tỉnh Bình Dương","StopType":"Trụ - hộp thông tin","Zone":"Bình Dương","Ward":null,"AddressNo":"Thư viện Tỉnh Bình Dương","Street":"Đường Phạm Ngọc Thạch","SupportDisability":"Có","Status":"Chưa khai thác","Lng":106.655764,"Lat":10.994269,"Search":"TvTBD TvTBD DPNT","Routes":"171"},{"StopId":9213,"Code":"BD-0923","Name":"Siêu thị Big C đối diện","StopType":"Ô sơn","Zone":"Bình Dương","Ward":null,"AddressNo":"Siêu thị Big C đối diện","Street":"Quốc lộ 13","SupportDisability":"","Status":"Đang khai thác","Lng":106.664914,"Lat":10.987208,"Search":"StBCdd StBCdd Ql13","Routes":"171"},{"StopId":8339,"Code":"BD-0035","Name":"Ngã 3 Đại Lộ Bình Dương - Huỳnh Văn Luỹ ","StopType":"Trụ - hộp thông tin","Zone":"Bình Dương","Ward":null,"AddressNo":"Ngã 3 Đại Lộ Bình Dương - Huỳnh Văn Luỹ ","Street":"Quốc Lộ 13","SupportDisability":"Có","Status":"Đang khai thác","Lng":106.665564,"Lat":10.985788,"Search":"N3DLBD-HVL N3DLBD-HVL QL13","Routes":"171"},{"StopId":9211,"Code":"BD-0921","Name":"liên đoàn lđ tỉnh","StopType":"Ô sơn","Zone":"Bình Dương","Ward":null,"AddressNo":"liên đoàn lđ tỉnh","Street":"Quốc lộ 13","SupportDisability":"","Status":"Đang khai thác","Lng":106.666211,"Lat":10.983513,"Search":"ldlt ldlt Ql13","Routes":"171"},{"StopId":9212,"Code":"BD-0922","Name":"Ngã tư tân lập 2 đối diện","StopType":"Ô sơn","Zone":"Bình Dương","Ward":null,"AddressNo":"Ngã tư tân lập 2 đối diện","Street":"Quốc lộ 13","SupportDisability":"","Status":"Đang khai thác","Lng":106.669477,"Lat":10.975728,"Search":"Nttl2dd Nttl2dd Ql13","Routes":"171"},{"StopId":8313,"Code":"BD-0013","Name":"Tòa nhà Becamex","StopType":"Trụ - hộp thông tin","Zone":"Bình Dương","Ward":null,"AddressNo":"Tòa nhà Becamex","Street":"Đường nội bộ trước Toà Nhà Becamex","SupportDisability":"Có","Status":"Đang khai thác","Lng":106.670291,"Lat":10.97563,"Search":"TnB TnB DnbtTNB","Routes":"171"},{"StopId":8246,"Code":"BD DRCB02 001","Name":"LOTTE Mart Bình Dương","StopType":"Ô sơn","Zone":"Bình Dương","Ward":null,"AddressNo":"LOTTE Mart","Street":"Đại lộ Bình Dương","SupportDisability":"Có","Status":"Đang khai thác","Lng":106.712531,"Lat":10.904745,"Search":"LMBD LM DlBD","Routes":"171"},{"StopId":9263,"Code":"BD-0968","Name":"Đối diện khu phố Vĩnh Phú - Cổng chào Bình Dương -> Gò Đậu","StopType":"Trụ dừng","Zone":"Bình Dương","Ward":null,"AddressNo":"Đối diện khu phố Vĩnh Phú - Cổng chào Bình Dương -> Gò Đậu","Street":"Quốc lộ 13","SupportDisability":"","Status":"Đang khai thác","Lng":106.70685,"Lat":10.870298,"Search":"DdkpVP-CcBD-&gt;GD DdkpVP-CcBD-&gt;GD Ql13","Routes":"171"},{"StopId":3362,"Code":"QTD 212","Name":"Cầu Vĩnh Bình","StopType":"Trụ dừng","Zone":"TP. Thủ Đức - KV3","Ward":"Phường Hiệp Bình Phước","AddressNo":"875","Street":"Quốc lộ 13","SupportDisability":"","Status":"Đang khai thác","Lng":106.718254,"Lat":10.867865,"Search":"CVB 875 Ql13","Routes":"171, 61-3, 61-8"},{"StopId":3360,"Code":"QTD 213","Name":"Xây dựng Ngọc Đào","StopType":"Trụ dừng","Zone":"TP. Thủ Đức - KV3","Ward":"Phường Hiệp Bình Phước","AddressNo":"Kế 801","Street":"Quốc lộ 13","SupportDisability":"","Status":"Đang khai thác","Lng":106.722581,"Lat":10.867065,"Search":"XdND K801 Ql13","Routes":"171, 61-3, 61-8"},{"StopId":349,"Code":"QTD 214","Name":"Ngã 4 Bình Phước","StopType":"Trụ dừng","Zone":"TP. Thủ Đức - KV3","Ward":"Phường Hiệp Bình Phước","AddressNo":"779","Street":"Quốc lộ 13","SupportDisability":"","Status":"Đang khai thác","Lng":106.72451,"Lat":10.863809,"Search":"N4BP 779 Ql13","Routes":"05, 171, 19, 61-8, 91"},{"StopId":350,"Code":"QTD 215","Name":"Hồ bơi Mèo Mun","StopType":"Trụ dừng","Zone":"TP. Thủ Đức - KV3","Ward":"Phường Hiệp Bình Phước","AddressNo":"797 (Đối diện 782)","Street":"Quốc lộ 13","SupportDisability":"","Status":"Đang khai thác","Lng":106.724396,"Lat":10.861345,"Search":"HbMM 797(d782) Ql13","Routes":"05, 171, 19, 61-8, 91"},{"StopId":353,"Code":"QTD 216","Name":"UBND P.Hiệp Bình Phước","StopType":"Trụ dừng","Zone":"TP. Thủ Đức - KV3","Ward":null,"AddressNo":"715","Street":"Quốc lộ 13","SupportDisability":"","Status":"Đang khai thác","Lng":106.723782,"Lat":10.859791,"Search":"UPBP 715 Ql13","Routes":"05, 171, 19, 61-8, 91"},{"StopId":351,"Code":"QTD 217","Name":"Trạm y tế P. Hiệp Bình Phước","StopType":"Trụ dừng","Zone":"TP. Thủ Đức - KV3","Ward":null,"AddressNo":"645","Street":"Quốc lộ 13","SupportDisability":"","Status":"Đang khai thác","Lng":106.722343,"Lat":10.856024,"Search":"TytPHBP 645 Ql13","Routes":"05, 171, 19, 61-8, 91"},{"StopId":355,"Code":"QTD 218","Name":"Ngã 3 Đường Hiệp Bình","StopType":"Trụ dừng","Zone":"TP. Thủ Đức - KV3","Ward":null,"AddressNo":"607","Street":"Quốc lộ 13","SupportDisability":"","Status":"Đang khai thác","Lng":106.720719,"Lat":10.852579,"Search":"N3DHB 607 Ql13","Routes":"05, 171, 19, 61-8, 91"},{"StopId":352,"Code":"QTD 219","Name":"Ngã 3 Hiệp Bình","StopType":"Trụ dừng","Zone":"TP. Thủ Đức - KV3","Ward":"Phường Hiệp Bình Phước","AddressNo":"Đối diện 566 (557A)","Street":"Quốc lộ 13","SupportDisability":"","Status":"Đang khai thác","Lng":106.718346,"Lat":10.848727,"Search":"N3HB Dd566( Ql13","Routes":"05, 171, 19, 61-8, 91"},{"StopId":358,"Code":"QTD 220","Name":"Cân Nhơn Hòa","StopType":"Trụ dừng","Zone":"TP. Thủ Đức - KV3","Ward":"Phường Hiệp Bình Phước","AddressNo":"445 - 447","Street":"Quốc lộ 13","SupportDisability":"","Status":"Đang khai thác","Lng":106.718086,"Lat":10.844473,"Search":"CNH 445-447 Ql13","Routes":"05, 171, 19, 61-8, 91"},{"StopId":354,"Code":"QTD 221","Name":"Đường số 4","StopType":"Trụ dừng","Zone":"TP. Thủ Đức - KV3","Ward":"Phường Hiệp Bình Phước","AddressNo":"385-387","Street":"Quốc lộ 13","SupportDisability":"","Status":"Đang khai thác","Lng":106.716858,"Lat":10.84109,"Search":"Ds4 385-387 Ql13","Routes":"05, 171, 19, 61-8, 91"},{"StopId":359,"Code":"QTD 222","Name":"Đường số 3","StopType":"Trụ dừng","Zone":"TP. Thủ Đức - KV3","Ward":"Phường Hiệp Bình Phước","AddressNo":"327-329","Street":"Quốc lộ 13","SupportDisability":"","Status":"Đang khai thác","Lng":106.714915,"Lat":10.83877,"Search":"Ds3 327-329 Ql13","Routes":"05, 171, 19, 61-8, 91"},{"StopId":356,"Code":"QTD 223","Name":"Cầu Ông Dầu","StopType":"Trụ dừng","Zone":"TP. Thủ Đức - KV3","Ward":"Phường Hiệp Bình Phước","AddressNo":"261","Street":"Quốc lộ 13","SupportDisability":"","Status":"Đang khai thác","Lng":106.713745,"Lat":10.835822,"Search":"COD 261 Ql13","Routes":"05, 171, 19, 61-8, 91"},{"StopId":357,"Code":"QTD 224","Name":"Trạm xăng dầu","StopType":"Trụ dừng","Zone":"TP. Thủ Đức - KV3","Ward":"Phường Hiệp Bình Chánh","AddressNo":"173-175","Street":"Quốc lộ 13","SupportDisability":"","Status":"Đang khai thác","Lng":106.71389,"Lat":10.83294,"Search":"Txd 173-175 Ql13","Routes":"05, 171, 19, 61-8, 91"},{"StopId":360,"Code":"QTD 225","Name":"UBND P.Hiệp Bình Chánh","StopType":"Nhà chờ","Zone":"TP. Thủ Đức - KV3","Ward":"Phường Hiệp Bình Chánh","AddressNo":"328/5 (Đại học Luật)","Street":"Quốc lộ 13","SupportDisability":"","Status":"Đang khai thác","Lng":106.714027,"Lat":10.830039,"Search":"UPBC 328/5(hL Ql13","Routes":"05, 171, 19, 61-8, 91"},{"StopId":361,"Code":"QBTH 038","Name":"Cổng vào-Bến xe Miền Đông","StopType":"Nhà chờ","Zone":"Quận Bình Thạnh","Ward":null,"AddressNo":"78/3","Street":"Đinh Bộ Lĩnh","SupportDisability":"","Status":"Đang khai thác","Lng":106.711257,"Lat":10.816661,"Search":"CvxMD 78/3 DBL","Routes":"05, 08, 14, 146, 161, 171, 19, 24, 43, 45, 60-3, 64, 67, 91, 93"},{"StopId":362,"Code":"QBTH 039","Name":"Ngã Tư Nguyễn Xí","StopType":"Trụ dừng","Zone":"Quận Bình Thạnh","Ward":null,"AddressNo":"291-293","Street":"Đinh Bộ Lĩnh","SupportDisability":"","Status":"Đang khai thác","Lng":106.709223,"Lat":10.812625,"Search":"NTNX 291-293 DBL","Routes":"05, 08, 146, 161, 171, 24, 60-3, 67, 91, 93"},{"StopId":363,"Code":"QBTH 040","Name":"Ngã Tư Chu Văn An","StopType":"Trụ dừng","Zone":"Quận Bình Thạnh","Ward":null,"AddressNo":"183","Street":"Đinh Bộ Lĩnh","SupportDisability":"","Status":"Đang khai thác","Lng":106.709143,"Lat":10.809759,"Search":"NTCVA 183 DBL","Routes":"05, 08, 146, 161, 171, 24, 60-3, 67, 91, 93"},{"StopId":364,"Code":"QBTH 041","Name":"Cầu Đinh Bộ Lĩnh","StopType":"Trụ dừng","Zone":"Quận Bình Thạnh","Ward":null,"AddressNo":"85","Street":"Đinh Bộ Lĩnh","SupportDisability":"","Status":"Đang khai thác","Lng":106.709341,"Lat":10.806908,"Search":"CDBL 85 DBL","Routes":"05, 08, 146, 161, 171, 24, 60-3, 67, 91, 93"},{"StopId":365,"Code":"QBTH 042","Name":"Trạm xăng dầu","StopType":"Trụ dừng","Zone":"Quận Bình Thạnh","Ward":null,"AddressNo":"17","Street":"Đinh Bộ Lĩnh","SupportDisability":"","Status":"Đang khai thác","Lng":106.709395,"Lat":10.804421,"Search":"Txd 17 DBL","Routes":"05, 08, 146, 161, 171, 24, 60-3, 67, 91, 93"},{"StopId":1872,"Code":"QBTH 051","Name":"Đại học Hồng Bàng","StopType":"Nhà chờ","Zone":"Quận Bình Thạnh","Ward":null,"AddressNo":"205","Street":"Điện Biên Phủ","SupportDisability":"","Status":"Đang khai thác","Lng":106.706268,"Lat":10.799747,"Search":"DhHB 205 DBP","Routes":"10, 150, 171, 45, 93"},{"StopId":1875,"Code":"QBTH 050","Name":"Trạm Điện Nguyễn Cửu Vân","StopType":"Nhà chờ","Zone":"Quận Bình Thạnh","Ward":null,"AddressNo":"119","Street":"Điện Biên Phủ","SupportDisability":"","Status":"Đang khai thác","Lng":106.703247,"Lat":10.796775,"Search":"TDNCV 119 DBP","Routes":"10, 150, 171, 45, 93"},{"StopId":1874,"Code":"QBTH 049","Name":"Cầu Điện Biên Phủ","StopType":"Nhà chờ","Zone":"Quận Bình Thạnh","Ward":"Phường 15","AddressNo":"47","Street":"Điện Biên Phủ","SupportDisability":"","Status":"Đang khai thác","Lng":106.701654,"Lat":10.795089,"Search":"CDBP 47 DBP","Routes":"10, 150, 171, 45, 72-1, 93"},{"StopId":1877,"Code":"Q1 087","Name":"Nguyễn Văn Thủ","StopType":"Biển treo","Zone":"Quận 1","Ward":null,"AddressNo":"75","Street":"Nguyễn Bỉnh Khiêm","SupportDisability":"","Status":"Đang khai thác","Lng":106.700569,"Lat":10.791216,"Search":"NVT 75 NBK","Routes":"150, 171, 45, 93"},{"StopId":7134,"Code":"Q1 177","Name":"Nguyễn Đình Chiểu","StopType":"Trụ dừng","Zone":"Quận 1","Ward":"Phường Đa Kao","AddressNo":"35","Street":"Nguyễn Bỉnh Khiêm","SupportDisability":"Có","Status":"Đang khai thác","Lng":106.702137,"Lat":10.789782,"Search":"NDC 35 NBK","Routes":"171, 45"},{"StopId":7615,"Code":"Q1 202","Name":"Bảo tàng Lịch sử Việt Nam","StopType":"Trụ dừng","Zone":"Quận 1","Ward":"Phường Bến Nghé","AddressNo":"Cây xanh số 16","Street":"Lê Duẩn","SupportDisability":"","Status":"Đang khai thác","Lng":106.704352,"Lat":10.786658,"Search":"BtLsVN Cxs16 LD","Routes":"171, 19, DL01, DL02"},{"StopId":2146,"Code":"Q1 085","Name":"Khách sạn Sofitel","StopType":"Trụ dừng","Zone":"Quận 1","Ward":null,"AddressNo":"Đối diện Central Plaza","Street":"Lê Duẩn","SupportDisability":"","Status":"Đang khai thác","Lng":106.702118,"Lat":10.78428,"Search":"KsS DdCP LD","Routes":"171, 19, 30"},{"StopId":2696,"Code":"Q1 086","Name":"Diamond Plaza","StopType":"Trụ dừng","Zone":"Quận 1","Ward":null,"AddressNo":"34","Street":"Lê Duẩn","SupportDisability":"","Status":"Đang khai thác","Lng":106.698704,"Lat":10.780914,"Search":"DP 34 LD","Routes":"155, 171, 18, 30"},{"StopId":7616,"Code":"Q1 203","Name":"Dinh Độc Lập","StopType":"Ô sơn","Zone":"Quận 1","Ward":"Phường Bến Nghé","AddressNo":"Cây xanh số 10","Street":"Lê Duẩn","SupportDisability":"","Status":"Đang khai thác","Lng":106.696499,"Lat":10.778405,"Search":"DDL Cxs10 LD","Routes":"155, 171, 52, DL01"},{"StopId":200,"Code":"Q1 075","Name":"Tòa án Nhân dân Thành Phố","StopType":"Nhà chờ","Zone":"Quận 1","Ward":null,"AddressNo":"131","Street":"Nam Kỳ Khởi Nghĩa","SupportDisability":"","Status":"Đang khai thác","Lng":106.698647,"Lat":10.776052,"Search":"TaNdTP 131 NKKN","Routes":"04, 109, 152, 155, 171, 18, 31, 36, 52, 72-2B, 93"},{"StopId":199,"Code":"Q1 076","Name":"Chùa Ông","StopType":"Trụ dừng","Zone":"Quận 1","Ward":null,"AddressNo":"Đối diện 96A","Street":"Nam Kỳ Khởi Nghĩa","SupportDisability":"","Status":"Đang khai thác","Lng":106.699722,"Lat":10.773957,"Search":"CO Dd96A NKKN","Routes":"04, 109, 152, 155, 156D, 171, 18, 31, 36, 44, 52, 93"},{"StopId":201,"Code":"Q1 077","Name":"Trường CĐKT Cao Thắng","StopType":"Trụ dừng","Zone":"Quận 1","Ward":null,"AddressNo":"Đối diện 86","Street":"Nam Kỳ Khởi Nghĩa","SupportDisability":"","Status":"Đang khai thác","Lng":106.700851,"Lat":10.771416,"Search":"TCCT Dd86 NKKN","Routes":"04, 109, 152, 171, 18, 31, 36, 44, 52, 93"},{"StopId":7269,"Code":"Q1 183","Name":"Trạm Trung chuyển trên đường Hàm Nghi","StopType":"Nhà chờ","Zone":"Quận 1","Ward":"Phường Bến Thành","AddressNo":"Hàm Nghi 8","Street":"Hàm Nghi","SupportDisability":"Có","Status":"Đang khai thác","Lng":106.699514,"Lat":10.771117,"Search":"TTctdHN HN8 HN","Routes":"171, 19, 56, 88"},{"StopId":7273,"Code":"Q1 187","Name":"Khách sạn New World","StopType":"Nhà chờ","Zone":"Quận 1","Ward":"Phường Bến Thành","AddressNo":"Số 76","Street":"Lê Lai","SupportDisability":"Có","Status":"Đang khai thác","Lng":106.695946,"Lat":10.770964,"Search":"KsNW S76 LL","Routes":"03, 04, 102, 109, 171, 172, 18, 19, 20, 34, 36, 39, 52, 53, 72-2B, 86, 88, 93, D4"},{"StopId":7274,"Code":"Q1 188","Name":"Nguyễn Thị Nghĩa","StopType":"Trụ dừng","Zone":"Quận 1","Ward":"Phường Bến Thành","AddressNo":"94-96","Street":"Lê Lai","SupportDisability":"Có","Status":"Đang khai thác","Lng":106.693495,"Lat":10.769952,"Search":"NTN 94-96 LL","Routes":"03, 04, 102, 109, 13, 140, 156D, 171, 172, 18, 19, 20, 34, 36, 39, 52, 53, 69, 72, 72-2B, 75, 86, 88, 93, D4"},{"StopId":7275,"Code":"Q1 189","Name":"Tôn Thất Tùng","StopType":"Trụ dừng","Zone":"Quận 1","Ward":"Phường Bến Thành","AddressNo":"202-204","Street":"Lê Lai","SupportDisability":"Có","Status":"Đang khai thác","Lng":106.690469,"Lat":10.768761,"Search":"TTT 202-204 LL","Routes":"03, 04, 102, 109, 13, 140, 156D, 171, 172, 18, 19, 20, 34, 36, 39, 52, 53, 69, 72, 72-2B, 75, 86, 88, 93, D4"},{"StopId":35,"Code":"BX 01","Name":"Bến xe buýt Sài Gòn","StopType":"Bến xe","Zone":"Quận 1","Ward":"Phường Phạm Ngũ Lão","AddressNo":"BẾN XE BUÝT SÀI GÒN","Street":"Lê Lai","SupportDisability":"Có","Status":"Đang khai thác","Lng":106.689362,"Lat":10.767676,"Search":"BxbSG BXBSG LL","Routes":"03, 04, 102, 109, 13, 140, 171, 172, 18, 19, 20, 27, 28, 34, 36, 39, 52, 65, 69, 72, 75, 86, 88, 93, D4, DL03, DL04, DL05"}]