[{"StopId":8,"Code":"BX14","Name":"Bến xe buýt Chợ Lớn","StopType":"Bến xe","Zone":"Quận 5","Ward":null,"AddressNo":"GA HKXB CHO LON","Street":"Lê Quang Sung","SupportDisability":"","Status":"Đang khai thác","Lng":106.652565,"Lat":10.751253,"Search":"BxbCL GHCL LQS","Routes":"01, 05, 06, 07, 09, 150, 23, 47, 56, 62-1, 62-10, 62-7, 62-8, 81, 94"},{"StopId":2393,"Code":"Q6 096","Name":"Tháp Mười","StopType":"Trụ dừng","Zone":"Quận 6","Ward":null,"AddressNo":"13C-13D","Street":"Tháp Mười","SupportDisability":"","Status":"Đang khai thác","Lng":106.653036,"Lat":10.750326,"Search":"TM 13C-13D TM","Routes":"01, 05, 10, 25, 39, 47, 91"},{"StopId":2,"Code":"Q5 016","Name":"Chợ Kim Biên","StopType":"Trụ dừng","Zone":"Quận 5","Ward":null,"AddressNo":"11-12","Street":"Hải Thượng Lãn Ông","SupportDisability":"","Status":"Đang khai thác","Lng":106.655075,"Lat":10.750732,"Search":"CKB 11-12 HTLO","Routes":"01, 07, 10, 25, 39, 47, 56"},{"StopId":3,"Code":"Q5 011","Name":"Bưu điện Quận 5","StopType":"Ô sơn","Zone":"Quận 5","Ward":null,"AddressNo":"14-16","Street":"Châu Văn Liêm","SupportDisability":"","Status":"Đang khai thác","Lng":106.659203,"Lat":10.751368,"Search":"BdQ5 14-16 CVL","Routes":"01, 07, 08, 10, 45, 56, 62"},{"StopId":5,"Code":"Q5 012","Name":"Rạp Đại Quang","StopType":"Nhà chờ","Zone":"Quận 5","Ward":null,"AddressNo":"68","Street":"Châu Văn Liêm","SupportDisability":"","Status":"Đang khai thác","Lng":106.658937,"Lat":10.752566,"Search":"RDQ 68 CVL","Routes":"01, 07, 08, 10, 45, 56, 62"},{"StopId":4,"Code":"Q5 055","Name":"Lương Nhữ Học","StopType":"Trụ dừng","Zone":"Quận 5","Ward":null,"AddressNo":"727","Street":"Nguyễn Trãi","SupportDisability":"","Status":"Đang khai thác","Lng":106.660418,"Lat":10.752962,"Search":"LNH 727 NT","Routes":"01, 91"},{"StopId":7,"Code":"Q5 056","Name":"Triệu Quang Phục","StopType":"Trụ dừng","Zone":"Quận 5","Ward":null,"AddressNo":"695","Street":"Nguyễn Trãi","SupportDisability":"","Status":"Đang khai thác","Lng":106.662081,"Lat":10.753088,"Search":"TQP 695 NT","Routes":"01, 91"},{"StopId":9,"Code":"Q5 057","Name":"Đại học Sư phạm Thể dục thể thao","StopType":"Nhà chờ","Zone":"Quận 5","Ward":null,"AddressNo":"639","Street":"Nguyễn Trãi","SupportDisability":"","Status":"Đang khai thác","Lng":106.663486,"Lat":10.753341,"Search":"DhSpTdtt 639 NT","Routes":"01, 91"},{"StopId":12,"Code":"Q5 058","Name":"Siêu thị Điện máy Chợ Lớn","StopType":"Trụ dừng","Zone":"Quận 5","Ward":null,"AddressNo":"635B","Street":"Nguyễn Trãi","SupportDisability":"","Status":"Đang khai thác","Lng":106.664913,"Lat":10.753626,"Search":"StDmCL 635B NT","Routes":"01, 91"},{"StopId":6,"Code":"Q5 059","Name":"Ngô Quyền","StopType":"Trụ dừng","Zone":"Quận 5","Ward":null,"AddressNo":"593","Street":"Nguyễn Trãi","SupportDisability":"","Status":"Đang khai thác","Lng":106.666882,"Lat":10.754,"Search":"NQ 593 NT","Routes":"01, 91"},{"StopId":10,"Code":"Q5 060","Name":"Chung cư Nguyễn Trãi","StopType":"Trụ dừng","Zone":"Quận 5","Ward":null,"AddressNo":"549","Street":"Nguyễn Trãi","SupportDisability":"","Status":"Đang khai thác","Lng":106.668572,"Lat":10.754337,"Search":"CcNT 549 NT","Routes":"01, 91"},{"StopId":3166,"Code":"Q5 061","Name":"Bệnh viện Nguyễn Tri Phương","StopType":"Nhà chờ","Zone":"Quận 5","Ward":null,"AddressNo":"493","Street":"Nguyễn Trãi","SupportDisability":"","Status":"Đang khai thác","Lng":106.670149,"Lat":10.754638,"Search":"BvNTP 493 NT","Routes":"01, 68, 91"},{"StopId":3519,"Code":"Q5 062","Name":"Trần Phú","StopType":"Ô sơn","Zone":"Quận 5","Ward":null,"AddressNo":"467-469","Street":"Nguyễn Trãi","SupportDisability":"","Status":"Đang khai thác","Lng":106.673014,"Lat":10.755212,"Search":"TP 467-469 NT","Routes":"01, 68"},{"StopId":3521,"Code":"Q5 063","Name":"Bệnh viện Nguyễn Trãi","StopType":"Trụ dừng","Zone":"Quận 5","Ward":null,"AddressNo":"331-333","Street":"Nguyễn Trãi","SupportDisability":"","Status":"Đang khai thác","Lng":106.675084,"Lat":10.755839,"Search":"BvNT 331-333 NT","Routes":"01, 68"},{"StopId":15,"Code":"Q5 096","Name":"Bệnh viện Chấn Thương Chỉnh hình","StopType":"Nhà chờ","Zone":"Quận 5","Ward":null,"AddressNo":"929","Street":"Trần Hưng Đạo","SupportDisability":"","Status":"Đang khai thác","Lng":106.678271,"Lat":10.754421,"Search":"BvCTCh 929 THD","Routes":"01"},{"StopId":19,"Code":"Q5 097","Name":"Trần Bình Trọng","StopType":"Trụ dừng","Zone":"Quận 5","Ward":null,"AddressNo":"813","Street":"Trần Hưng Đạo","SupportDisability":"","Status":"Đang khai thác","Lng":106.680041,"Lat":10.754912,"Search":"TBT 813 THD","Routes":"01"},{"StopId":20,"Code":"Q5 098","Name":"Nguyễn Biểu","StopType":"Trụ dừng","Zone":"Quận 5","Ward":null,"AddressNo":"651","Street":"Trần Hưng Đạo","SupportDisability":"","Status":"Đang khai thác","Lng":106.68437,"Lat":10.756066,"Search":"NB 651 THD","Routes":"01"},{"StopId":18,"Code":"Q1 131","Name":"Chợ Nanci","StopType":"Trụ dừng","Zone":"Quận 1","Ward":null,"AddressNo":"559-561","Street":"Trần Hưng Đạo","SupportDisability":"","Status":"Đang khai thác","Lng":106.685883,"Lat":10.75699,"Search":"CN 559-561 THD","Routes":"01, 139, 152"},{"StopId":22,"Code":"Q1 132","Name":"Tổng Cty Samco","StopType":"Nhà chờ","Zone":"Quận 1","Ward":null,"AddressNo":"393 bis","Street":"Trần Hưng Đạo","SupportDisability":"","Status":"Đang khai thác","Lng":106.688254,"Lat":10.759734,"Search":"TCS 393b THD","Routes":"01, 139, 152"},{"StopId":21,"Code":"Q1 133","Name":"Sở PCCC","StopType":"Nhà chờ","Zone":"Quận 1","Ward":null,"AddressNo":"359","Street":"Trần Hưng Đạo","SupportDisability":"","Status":"Đang khai thác","Lng":106.689096,"Lat":10.760656,"Search":"SP 359 THD","Routes":"01, 139, 152"},{"StopId":23,"Code":"Q1 134","Name":"Hồ Hảo Hớn","StopType":"Trụ dừng","Zone":"Quận 1","Ward":null,"AddressNo":"301F","Street":"Trần Hưng Đạo","SupportDisability":"","Status":"Đang khai thác","Lng":106.690636,"Lat":10.762395,"Search":"HHH 301F THD","Routes":"01, 139, 152"},{"StopId":24,"Code":"Q1 135","Name":"Bệnh Viện Răng Hàm Mặt","StopType":"Nhà chờ","Zone":"Quận 1","Ward":"Phường Cô Giang","AddressNo":"263","Street":"Trần Hưng Đạo","SupportDisability":"","Status":"Đang khai thác","Lng":106.691612,"Lat":10.763567,"Search":"BVRHM 263 THD","Routes":"01, 139, 152"},{"StopId":25,"Code":"Q1 136","Name":"Rạp Trần Hưng Đạo","StopType":"Nhà chờ","Zone":"Quận 1","Ward":"Phường Cô Giang","AddressNo":"227 - 229 (255)","Street":"Trần Hưng Đạo","SupportDisability":"","Status":"Đang khai thác","Lng":106.692722,"Lat":10.76483,"Search":"RTHD 227-229( THD","Routes":"01, 139, 152"},{"StopId":26,"Code":"Q1 137","Name":"KTX Trần Hưng Đạo","StopType":"Nhà chờ","Zone":"Quận 1","Ward":"Phường Cầu Ông Lãnh","AddressNo":"135","Street":"Trần Hưng Đạo","SupportDisability":"","Status":"Đang khai thác","Lng":106.694824,"Lat":10.767064,"Search":"KTHD 135 THD","Routes":"01, 139, 152, 45, 53, 56, 75, 86, 88"},{"StopId":27,"Code":"Q1 138","Name":"Nguyễn Kim","StopType":"Nhà chờ","Zone":"Quận 1","Ward":null,"AddressNo":"71C","Street":"Trần Hưng Đạo","SupportDisability":"","Status":"Đang khai thác","Lng":106.695847,"Lat":10.768327,"Search":"NK 71C THD","Routes":"01, 102, 152, 31, 38, 45, 53, 56, 75, 86, 88"},{"StopId":7266,"Code":"Q1 180","Name":"Trạm Trung chuyển trên đường Hàm Nghi","StopType":"Nhà chờ","Zone":"Quận 1","Ward":"Phường Nguyễn Thái Bình","AddressNo":"Hàm Nghi 7","Street":"Hàm Nghi","SupportDisability":"Có","Status":"Đang khai thác","Lng":106.700807,"Lat":10.770896,"Search":"TTctdHN HN7 HN","Routes":"01, 04, 19, 56, 88"},{"StopId":7693,"Code":"Q1 1950","Name":"Nam Kỳ Khởi Nghĩa","StopType":"Nhà chờ","Zone":"Quận 1","Ward":"Phường Nguyễn Thái Bình","AddressNo":"93-95","Street":"Hàm Nghi","SupportDisability":"Có","Status":"Đang khai thác","Lng":106.701354,"Lat":10.770875,"Search":"NKKN 93-95 HN","Routes":"01, 03, 04, 109, 152, 18, 19, 20, 31, 36, 45, 52, 53, 56, 75, 88, 93"},{"StopId":1256,"Code":"Q1 195","Name":"Chợ Cũ","StopType":"Nhà chờ","Zone":"Quận 1","Ward":"Phường Nguyễn Thái Bình","AddressNo":"89A","Street":"Hàm Nghi","SupportDisability":"","Status":"Đang khai thác","Lng":106.701998,"Lat":10.770811,"Search":"CC 89A HN","Routes":"01, 03, 04, 109, 152, 18, 19, 20, 31, 36, 45, 52, 53, 56, 75, 86, 88, 93"},{"StopId":7588,"Code":"Q1 200","Name":"Giao lộ Hàm Nghi - Tôn Thất Đạm","StopType":"Nhà chờ","Zone":"Quận 1","Ward":"Phường Nguyễn Thái Bình","AddressNo":"81-83-83B","Street":"Hàm Nghi","SupportDisability":"","Status":"Đang khai thác","Lng":106.703038,"Lat":10.77078,"Search":"GlHN-TTD 81-83-83B HN","Routes":"01, 03, 19, 20, 45, 53, 56, 75, 88"},{"StopId":32,"Code":"Q1 017","Name":"Hồ Tùng Mậu","StopType":"Nhà chờ","Zone":"Quận 1","Ward":"Phường Nguyễn Thái Bình","AddressNo":"67","Street":"Hàm Nghi","SupportDisability":"","Status":"Đang khai thác","Lng":106.704074,"Lat":10.770722,"Search":"HTM 67 HN","Routes":"01, 03, 19, 20, 45, 53, 56, 75, 88, DL01"},{"StopId":31,"Code":"Q1 024","Name":"Bến Bạch Đằng","StopType":"Nhà chờ","Zone":"Quận 1","Ward":null,"AddressNo":"Bến thủy nội địa Thủ Thiêm","Street":"Tôn Đức Thắng","SupportDisability":"","Status":"Đang khai thác","Lng":106.706654,"Lat":10.774094,"Search":"BBD BtndTT TDT","Routes":"01, 03, 19, 45, 53, 56, 88, DL01, DL02, DL05"},{"StopId":34,"Code":"Q1 057","Name":"Công Trường Mê Linh","StopType":"Nhà chờ","Zone":"Quận 1","Ward":null,"AddressNo":"2","Street":"Hai Bà Trưng","SupportDisability":"","Status":"Đang khai thác","Lng":106.705822,"Lat":10.775997,"Search":"CTML 2 HBT","Routes":"01, 03, 19, 45"},{"StopId":33,"Code":"BX 06","Name":"Công Trường Mê Linh","StopType":"Bến xe","Zone":"Quận 1","Ward":"Phường Bến Nghé","AddressNo":"Công trường Mê Linh","Street":"Thi Sách","SupportDisability":"","Status":"Đang khai thác","Lng":106.705856,"Lat":10.77679,"Search":"CTML CtML TS","Routes":"01"}]