[{"StopId":7696,"Code":"BX 34","Name":"Vinhomes Grandpark","StopType":"Bến xe","Zone":"TP. Thủ Đức - KV2","Ward":"Phường Long Thạnh Mỹ","AddressNo":"KDC Vinhome Grandpark Quận 9","Street":"Nội khu Vinhomes","SupportDisability":"Có","Status":"Đang khai thác","Lng":106.842998,"Lat":10.846214,"Search":"VG KVGQ9 NkV","Routes":"D4"},{"StopId":7783,"Code":"Q9 294","Name":"Phân khu Masteri","StopType":"Trụ dừng","Zone":"TP. Thủ Đức - KV2","Ward":"Phường Long Thạnh Mỹ","AddressNo":"Phân khu Masteri","Street":"Nội khu Vinhomes","SupportDisability":"Có","Status":"Đang khai thác","Lng":106.84137,"Lat":10.843262,"Search":"PkM PkM NkV","Routes":"D4"},{"StopId":7784,"Code":"Q9 296","Name":"Tòa nhà S6.01","StopType":"Trụ dừng","Zone":"TP. Thủ Đức - KV2","Ward":"Phường Long Thạnh Mỹ","AddressNo":"Tòa nhà S6.01","Street":"Nội khu Vinhomes","SupportDisability":"Có","Status":"Đang khai thác","Lng":106.838833,"Lat":10.842962,"Search":"TnS TnS NkV","Routes":"D4"},{"StopId":7785,"Code":"Q9 298","Name":"Tòa nhà S5.03","StopType":"Trụ dừng","Zone":"TP. Thủ Đức - KV2","Ward":"Phường Long Thạnh Mỹ","AddressNo":"Tòa nhà S5.03","Street":"Nội khu Vinhomes","SupportDisability":"Có","Status":"Đang khai thác","Lng":106.837897,"Lat":10.840912,"Search":"TnS TnS NkV","Routes":"D4"},{"StopId":7786,"Code":"Q9 300","Name":"Tòa nhà S3.03","StopType":"Trụ dừng","Zone":"TP. Thủ Đức - KV2","Ward":"Phường Long Thạnh Mỹ","AddressNo":"Tòa nhà S3.03","Street":"Nội khu Vinhomes","SupportDisability":"Có","Status":"Đang khai thác","Lng":106.835002,"Lat":10.838327,"Search":"TnS TnS NkV","Routes":"D4"},{"StopId":7787,"Code":"Q9 302","Name":"Tòa nhà S2.05","StopType":"Trụ dừng","Zone":"TP. Thủ Đức - KV2","Ward":"Phường Long Thạnh Mỹ","AddressNo":"Tòa nhà S2.05","Street":"Nội khu Vinhomes","SupportDisability":"Có","Status":"Đang khai thác","Lng":106.833042,"Lat":10.837612,"Search":"TnS TnS NkV","Routes":"D4"},{"StopId":7788,"Code":"Q9 304","Name":"Tòa nhà S2.01","StopType":"Trụ dừng","Zone":"TP. Thủ Đức - KV2","Ward":"Phường Long Thạnh Mỹ","AddressNo":"Tòa nhà S2.01","Street":"Nội khu Vinhomes","SupportDisability":"Có","Status":"Đang khai thác","Lng":106.832135,"Lat":10.837241,"Search":"TnS TnS NkV","Routes":"D4"},{"StopId":7789,"Code":"Q9 306","Name":"Tòa nhà S1.01","StopType":"Trụ dừng","Zone":"TP. Thủ Đức - KV2","Ward":"Phường Long Thạnh Mỹ","AddressNo":"Toà nhà S1.01","Street":"Nội khu Vinhomes","SupportDisability":"Có","Status":"Đang khai thác","Lng":106.830621,"Lat":10.836804,"Search":"TnS TnS NkV","Routes":"D4"},{"StopId":3372,"Code":"Q9T175","Name":"Chợ Gò Công","StopType":"Trụ dừng","Zone":"TP. Thủ Đức - KV2","Ward":"Phường Long Thạnh Mỹ","AddressNo":"445 - 447","Street":"Nguyễn Văn Tăng","SupportDisability":"","Status":"Đang khai thác","Lng":106.827632,"Lat":10.842052,"Search":"CGC 445-447 NVT","Routes":"D4"},{"StopId":3373,"Code":"Q9 188","Name":"UBND phường Long Thạnh Mỹ","StopType":"Trụ dừng","Zone":"TP. Thủ Đức - KV2","Ward":"Phường Long Thạnh Mỹ","AddressNo":"367A","Street":"Nguyễn Văn Tăng","SupportDisability":"","Status":"Đang khai thác","Lng":106.825433,"Lat":10.841209,"Search":"UpLTM 367A NVT","Routes":"D4"},{"StopId":4259,"Code":"Q9 065","Name":"Cao đẳng Cảnh sát nhân dân 2","StopType":"Trụ dừng","Zone":"TP. Thủ Đức - KV2","Ward":null,"AddressNo":"225-221","Street":"Nguyễn Văn Tăng","SupportDisability":"","Status":"Đang khai thác","Lng":106.820444,"Lat":10.842463,"Search":"CdCsnd2 225-221 NVT","Routes":"D4"},{"StopId":3375,"Code":"Q9T177","Name":"Trường Nguyễn Huệ","StopType":"Trụ dừng","Zone":"TP. Thủ Đức - KV2","Ward":"Phường Long Thạnh Mỹ","AddressNo":"161-163 (159)","Street":"Nguyễn Văn Tăng","SupportDisability":"","Status":"Đang khai thác","Lng":106.818352,"Lat":10.844096,"Search":"TNH 161-163( NVT","Routes":"D4"},{"StopId":4132,"Code":"Q9 264","Name":"Trạm y tế Phường Long Thạnh Mỹ","StopType":"Trụ dừng","Zone":"TP. Thủ Đức - KV2","Ward":"Phường Long Thạnh Mỹ","AddressNo":"69 - 71","Street":"Nguyễn Văn Tăng","SupportDisability":"","Status":"Đang khai thác","Lng":106.816571,"Lat":10.846646,"Search":"TytPLTM 69-71 NVT","Routes":"D4"},{"StopId":4131,"Code":"Q9T179","Name":"Ngã ba Mỹ Thành","StopType":"Trụ dừng","Zone":"TP. Thủ Đức - KV2","Ward":"Phường Long Thạnh Mỹ","AddressNo":"9 - 11","Street":"Nguyễn Văn Tăng","SupportDisability":"","Status":"Đang khai thác","Lng":106.814682,"Lat":10.849007,"Search":"NbMT 9-11 NVT","Routes":"D4"},{"StopId":3374,"Code":"Q9 100","Name":"Ngã ba Mỹ Thành","StopType":"Ô sơn","Zone":"TP. Thủ Đức - KV2","Ward":"Phường Long Thạnh Mỹ","AddressNo":"687-689","Street":"Lê Văn Việt","SupportDisability":"","Status":"Đang khai thác","Lng":106.812958,"Lat":10.850071,"Search":"NbMT 687-689 LVV","Routes":"56, 99, D4"},{"StopId":7774,"Code":"Q9 287","Name":"Saigon Hi-tech Park","StopType":"Trụ dừng","Zone":"TP. Thủ Đức - KV2","Ward":"Phường Long Thạnh Mỹ","AddressNo":"Cổng Saigon Hi-tech Park","Street":"D2B","SupportDisability":"Có","Status":"Đang khai thác","Lng":106.81246,"Lat":10.84008,"Search":"SHP CSHP D","Routes":"D4"},{"StopId":7776,"Code":"Q9 289","Name":"Trường ĐH Nguyễn Tất Thành","StopType":"Trụ dừng","Zone":"TP. Thủ Đức - KV2","Ward":"Phường Long Thạnh Mỹ","AddressNo":"Trường ĐH Nguyễn Tất Thành","Street":"D2 ","SupportDisability":"Có","Status":"Đang khai thác","Lng":106.80867,"Lat":10.836209,"Search":"TDNTT TDNTT D","Routes":"165, D4"},{"StopId":7778,"Code":"Q9 291","Name":"Công ty Platel Vina","StopType":"Trụ dừng","Zone":"TP. Thủ Đức - KV2","Ward":"Phường Long Thạnh Mỹ","AddressNo":"Công ty Platel Vina","Street":"D2 ","SupportDisability":"Có","Status":"Đang khai thác","Lng":106.804883,"Lat":10.830773,"Search":"CtPV CtPV D","Routes":"165, D4"},{"StopId":7811,"Code":"Q9 310","Name":"Công ty SAMSUNG","StopType":"Trụ dừng","Zone":"TP. Thủ Đức - KV2","Ward":"Phường Tăng Nhơn Phú B","AddressNo":"Trụ chiếu sáng 211 (đ/d Công ty Phước Nguyên)","Street":"D2","SupportDisability":"","Status":"Đang khai thác","Lng":106.796844,"Lat":10.82469,"Search":"CtS Tcs211(CtPN D","Routes":"D4"},{"StopId":7808,"Code":"Q9 307","Name":"Vòng xoay Liên Phường","StopType":"Trụ dừng","Zone":"TP. Thủ Đức - KV2","Ward":"Phường Phước Long B","AddressNo":"107","Street":"Liên Phường","SupportDisability":"Có","Status":"Đang khai thác","Lng":106.788604,"Lat":10.806922,"Search":"VxLP 107 LP","Routes":"153, D4"},{"StopId":7810,"Code":"Q9 309","Name":"Trường CĐ Sư phạm Trung ương 2 (CS2)","StopType":"Trụ dừng","Zone":"TP. Thủ Đức - KV2","Ward":"Phường Phước Long B","AddressNo":"117-119","Street":"Liên Phường","SupportDisability":"Có","Status":"Đang khai thác","Lng":106.783458,"Lat":10.806888,"Search":"TCSpTu2( 117-119 LP","Routes":"153, 29, D4"},{"StopId":4184,"Code":"Q9 019","Name":"Đường 655","StopType":"Trụ dừng","Zone":"TP. Thủ Đức - KV2","Ward":null,"AddressNo":"Đối diện 665","Street":"Đỗ Xuân Hợp","SupportDisability":"","Status":"Đang khai thác","Lng":106.779162,"Lat":10.800692,"Search":"D655 Dd665 DXH","Routes":"153, 29, D4"},{"StopId":7813,"Code":"Q2 112","Name":"Đường Đồng Văn Cống","StopType":"Trụ dừng","Zone":"TP. Thủ Đức - KV1","Ward":"Phường An Phú","AddressNo":"Cây xanh 821","Street":"Mai Chí Thọ","SupportDisability":"","Status":"Đang khai thác","Lng":106.750784,"Lat":10.789643,"Search":"DDVC Cx821 MCT","Routes":"154, 172, 72-2B, 99, D4"},{"StopId":7781,"Code":"Q2 106","Name":"Tòa nhà Somerset","StopType":"Trụ dừng","Zone":"TP. Thủ Đức - KV1","Ward":"Phường Thạnh Mỹ Lợi","AddressNo":"Tòa nhà Somerset","Street":"Phan Văn Đáng","SupportDisability":"Có","Status":"Đang khai thác","Lng":106.75644,"Lat":10.777765,"Search":"TnS TnS PVD","Routes":"D4"},{"StopId":7827,"Code":"Q2 116","Name":"Tòa nhà One Verandah","StopType":"Ô sơn","Zone":"TP. Thủ Đức - KV1","Ward":"Phường Thạnh Mỹ Lợi","AddressNo":"84-86 (Đối diện cổng bảo vệ Tòa nhà)","Street":"Bát Nàn","SupportDisability":"","Status":"Đang khai thác","Lng":106.750398,"Lat":10.776758,"Search":"TnOV 84-86(dcbvTn BN","Routes":"157, D4"},{"StopId":7801,"Code":"Q2 108","Name":"Diamond Island","StopType":"Trụ dừng","Zone":"TP. Thủ Đức - KV1","Ward":"Phường Bình Trưng Tây","AddressNo":"Cổng Diamond Island","Street":"Trần Quý Kiên","SupportDisability":"","Status":"Đang khai thác","Lng":106.746522,"Lat":10.777515,"Search":"DI CDI TQK","Routes":"157, D4"},{"StopId":7815,"Code":"Q2 114","Name":"Chung cư NEWCITY","StopType":"Trụ dừng","Zone":"TP. Thủ Đức - KV1","Ward":"Phường Bình Khánh","AddressNo":"Cây xanh 379","Street":"Mai Chí Thọ","SupportDisability":"","Status":"Đang khai thác","Lng":106.736367,"Lat":10.780682,"Search":"CcN Cx379 MCT","Routes":"157, 172, 72-2B, D4"},{"StopId":3989,"Code":"Q2 084","Name":"Khu đô thị Sala","StopType":"Nhà chờ","Zone":"TP. Thủ Đức - KV1","Ward":null,"AddressNo":"Đối diện Khu đô thị Sala","Street":"Mai Chí Thọ","SupportDisability":"","Status":"Đang khai thác","Lng":106.721642,"Lat":10.773183,"Search":"KdtS DdKdtS MCT","Routes":"172, 72-2B, D4"},{"StopId":7805,"Code":"Q2 111","Name":"Trung tâm Quản lý điều hành giao thông đô thị","StopType":"Nhà chờ","Zone":"TP. Thủ Đức - KV1","Ward":"Phường Thủ Thiêm","AddressNo":"Cây xanh 17-19","Street":"Mai Chí Thọ","SupportDisability":"Có","Status":"Đang khai thác","Lng":106.71777,"Lat":10.7718,"Search":"TtQldhgtdt Cx17-19 MCT","Routes":"172, 72-2B, D4"},{"StopId":2888,"Code":"Q1 168","Name":"Chợ Dân Sinh","StopType":"Trụ dừng","Zone":"Quận 1","Ward":null,"AddressNo":"48 - 50","Street":"Ký Con","SupportDisability":"","Status":"Đang khai thác","Lng":106.699466,"Lat":10.766237,"Search":"CDS 48-50 KC","Routes":"172, 72-2B, D4"},{"StopId":7567,"Code":"Q1 199","Name":"Sở Giao dịch chứng khoáng","StopType":"Trụ dừng","Zone":"Quận 1","Ward":"Phường Bến Nghé","AddressNo":"đối diện 162-164","Street":"Nguyễn Công Trứ","SupportDisability":"Có","Status":"Đang khai thác","Lng":106.701504,"Lat":10.76873,"Search":"SGdck dd162-164 NCT","Routes":"172, D4"},{"StopId":2028,"Code":"Q1 194","Name":"Trường Cao Thắng","StopType":"Nhà chờ","Zone":"Quận 1","Ward":"Phường Bến Nghé","AddressNo":"Trường Cao Thắng","Street":"Hàm Nghi","SupportDisability":"","Status":"Đang khai thác","Lng":106.701853,"Lat":10.771043,"Search":"TCT TCT HN","Routes":"01, 03, 102, 172, 19, 20, 34, 38, 39, 45, 56, 72-2B, 75, 86, 88, D4"},{"StopId":7270,"Code":"Q1 184","Name":"Trạm Trung chuyển trên đường Hàm Nghi","StopType":"Nhà chờ","Zone":"Quận 1","Ward":"Phường Bến Thành","AddressNo":"Hàm Nghi 6","Street":"Hàm Nghi","SupportDisability":"Có","Status":"Đang khai thác","Lng":106.699948,"Lat":10.771096,"Search":"TTctdHN HN6 HN","Routes":"03, 172, 53, 72-2B, D4"},{"StopId":7273,"Code":"Q1 187","Name":"Khách sạn New World","StopType":"Nhà chờ","Zone":"Quận 1","Ward":"Phường Bến Thành","AddressNo":"Số 76","Street":"Lê Lai","SupportDisability":"Có","Status":"Đang khai thác","Lng":106.695946,"Lat":10.770964,"Search":"KsNW S76 LL","Routes":"03, 04, 102, 109, 171, 172, 18, 19, 20, 34, 36, 39, 52, 53, 72-2B, 86, 88, 93, D4"},{"StopId":7274,"Code":"Q1 188","Name":"Nguyễn Thị Nghĩa","StopType":"Trụ dừng","Zone":"Quận 1","Ward":"Phường Bến Thành","AddressNo":"94-96","Street":"Lê Lai","SupportDisability":"Có","Status":"Đang khai thác","Lng":106.693495,"Lat":10.769952,"Search":"NTN 94-96 LL","Routes":"03, 04, 102, 109, 13, 140, 156D, 171, 172, 18, 19, 20, 34, 36, 39, 52, 53, 69, 72, 72-2B, 75, 86, 88, 93, D4"},{"StopId":7275,"Code":"Q1 189","Name":"Tôn Thất Tùng","StopType":"Trụ dừng","Zone":"Quận 1","Ward":"Phường Bến Thành","AddressNo":"202-204","Street":"Lê Lai","SupportDisability":"Có","Status":"Đang khai thác","Lng":106.690469,"Lat":10.768761,"Search":"TTT 202-204 LL","Routes":"03, 04, 102, 109, 13, 140, 156D, 171, 172, 18, 19, 20, 34, 36, 39, 52, 53, 69, 72, 72-2B, 75, 86, 88, 93, D4"},{"StopId":35,"Code":"BX 01","Name":"Bến xe buýt Sài Gòn","StopType":"Bến xe","Zone":"Quận 1","Ward":"Phường Phạm Ngũ Lão","AddressNo":"BẾN XE BUÝT SÀI GÒN","Street":"Lê Lai","SupportDisability":"Có","Status":"Đang khai thác","Lng":106.689362,"Lat":10.767676,"Search":"BxbSG BXBSG LL","Routes":"03, 04, 102, 109, 13, 140, 171, 172, 18, 19, 20, 27, 28, 34, 36, 39, 52, 65, 69, 72, 75, 86, 88, 93, D4, DL03, DL04, DL05"}]