[{"StopId":2479,"Code":"BX77","Name":"Chợ nông sản Thủ Đức","StopType":"Bến xe","Zone":"TP. Thủ Đức - KV3","Ward":null,"AddressNo":"ĐẦU BẾN CHỢ NÔNG SẢN THỦ ĐỨC","Street":"Quốc lộ 1","SupportDisability":"","Status":"Đang khai thác","Lng":106.72943115234375,"Lat":10.868857383728027,"Search":"CnsTD DBCNSTD Ql1","Routes":"29, 91"},{"StopId":347,"Code":"QTD 195","Name":"Chợ đầu mối nông sản Thủ Đức","StopType":"Nhà chờ","Zone":"TP. Thủ Đức - KV3","Ward":"Phường Tam Bình","AddressNo":"Chợ đầu mối nông sản Thủ Đức","Street":"Quốc lộ 1","SupportDisability":"","Status":"Đang khai thác","Lng":106.729158,"Lat":10.86812,"Search":"CdmnsTD CdmnsTD Ql1","Routes":"05, 19, 29, 33, 60-1"},{"StopId":315,"Code":"QTD 159","Name":"Ngã ba mũi tàu đường Gò Dưa ","StopType":"Trụ dừng","Zone":"TP. Thủ Đức - KV3","Ward":"Phường Tam Bình","AddressNo":"120","Street":"Quốc lộ 1","SupportDisability":"","Status":"Đang khai thác","Lng":106.727425,"Lat":10.86689,"Search":"NbmtdGD 120 Ql1","Routes":"05, 19, 29, 33, 60-1, 91"},{"StopId":320,"Code":"QTD 160","Name":"Chợ Đầu Mối","StopType":"Trụ dừng","Zone":"TP. Thủ Đức - KV3","Ward":"Phường Tam Bình","AddressNo":"160","Street":"Quốc lộ 1","SupportDisability":"","Status":"Đang khai thác","Lng":106.730198,"Lat":10.86831,"Search":"CDM 160 Ql1","Routes":"05, 19, 29, 33, 60-1, 91"},{"StopId":4378,"Code":"QTD 242","Name":"Đường 12","StopType":"Trụ dừng","Zone":"TP. Thủ Đức - KV3","Ward":null,"AddressNo":"Trụ chiếu sáng T2.9","Street":"Đường nhánh N8 nút giao Gò Dưa","SupportDisability":"","Status":"Đang khai thác","Lng":106.733465,"Lat":10.867209,"Search":"D12 TcsT DnNngGD","Routes":"29"},{"StopId":1485,"Code":"QTD 043","Name":"Phường Tam Bình","StopType":"Trụ dừng","Zone":"TP. Thủ Đức - KV3","Ward":"Phường Tam Bình","AddressNo":"691","Street":"Tô Ngọc Vân","SupportDisability":"","Status":"Đang khai thác","Lng":106.735611,"Lat":10.868147,"Search":"PTB 691 TNV","Routes":"141, 29, 89"},{"StopId":1492,"Code":"QTD 044","Name":"Điện lực Thủ Đức","StopType":"Trụ dừng","Zone":"TP. Thủ Đức - KV3","Ward":"Phường Tam Bình","AddressNo":"Điện lực Thủ Đức","Street":"Tô Ngọc Vân","SupportDisability":"","Status":"Đang khai thác","Lng":106.738144,"Lat":10.866876,"Search":"DlTD DlTD TNV","Routes":"141, 29, 89"},{"StopId":1488,"Code":"QTD 045","Name":"Công ty Minh Nghệ","StopType":"Trụ dừng","Zone":"TP. Thủ Đức - KV3","Ward":null,"AddressNo":"601","Street":"Tô Ngọc Vân","SupportDisability":"","Status":"Đang khai thác","Lng":106.740358,"Lat":10.865981,"Search":"CtMN 601 TNV","Routes":"141, 29, 89"},{"StopId":1494,"Code":"QTD 046","Name":"Chùa Vạn Hạnh","StopType":"Trụ dừng","Zone":"TP. Thủ Đức - KV3","Ward":"Phường Tam Phú","AddressNo":"571-573 (583)","Street":"Tô Ngọc Vân","SupportDisability":"","Status":"Đang khai thác","Lng":106.741839,"Lat":10.864554,"Search":"CVH 571-573( TNV","Routes":"141, 29, 89"},{"StopId":1490,"Code":"QTD 047","Name":"Chùa Vạn Đức","StopType":"Trụ dừng","Zone":"TP. Thủ Đức - KV3","Ward":null,"AddressNo":"521","Street":"Tô Ngọc Vân","SupportDisability":"","Status":"Đang khai thác","Lng":106.742713,"Lat":10.862968,"Search":"CVD 521 TNV","Routes":"141, 29"},{"StopId":2530,"Code":"QTD 015","Name":"Đường Phú Châu","StopType":"Trụ dừng","Zone":"TP. Thủ Đức - KV3","Ward":"Phường Tam Phú","AddressNo":"Đối diện 21","Street":"Phú Châu","SupportDisability":"","Status":"Đang khai thác","Lng":106.745079,"Lat":10.862947,"Search":"DPC Dd21 PC","Routes":"29"},{"StopId":2509,"Code":"QTD 016","Name":"Bệnh viện Thủ Đức","StopType":"Trụ dừng","Zone":"TP. Thủ Đức - KV3","Ward":"Phường Tam Phú","AddressNo":"108","Street":"Tam Hà","SupportDisability":"","Status":"Đang khai thác","Lng":106.745682,"Lat":10.863108,"Search":"BvTD 108 TH","Routes":"29, 89"},{"StopId":2540,"Code":"QTD 017","Name":"Ngã  Ba Tam Hà - Tô Ngọc Vân","StopType":"Trụ dừng","Zone":"TP. Thủ Đức - KV3","Ward":"Phường Tam Phú","AddressNo":"28","Street":"Tam Hà","SupportDisability":"","Status":"Đang khai thác","Lng":106.747833,"Lat":10.860026,"Search":"NBTH-TNV 28 TH","Routes":"29, 89"},{"StopId":1498,"Code":"QTD 050","Name":"Ngã Ba Linh Đông","StopType":"Trụ dừng","Zone":"TP. Thủ Đức - KV3","Ward":null,"AddressNo":"219","Street":"Tô Ngọc Vân","SupportDisability":"","Status":"Đang khai thác","Lng":106.75045,"Lat":10.855843,"Search":"NBLD 219 TNV","Routes":"141, 29, 89"},{"StopId":1493,"Code":"QTD 051","Name":"Bồn nước","StopType":"Trụ dừng","Zone":"TP. Thủ Đức - KV3","Ward":null,"AddressNo":"111","Street":"Tô Ngọc Vân","SupportDisability":"","Status":"Đang khai thác","Lng":106.752037,"Lat":10.852854,"Search":"Bn 111 TNV","Routes":"08, 141, 29, 57, 89, 93"},{"StopId":1500,"Code":"QTD 052","Name":"Chợ Thủ Đức","StopType":"Trụ dừng","Zone":"TP. Thủ Đức - KV3","Ward":null,"AddressNo":"13","Street":"Tô Ngọc Vân","SupportDisability":"","Status":"Đang khai thác","Lng":106.75428,"Lat":10.851198,"Search":"CTD 13 TNV","Routes":"08, 141, 29, 57, 89, 93"},{"StopId":406,"Code":"QTD 059","Name":"Làng Thiếu Niên Thủ Đức","StopType":"Trụ dừng","Zone":"TP. Thủ Đức - KV3","Ward":null,"AddressNo":"249","Street":"Đặng Văn Bi","SupportDisability":"","Status":"Đang khai thác","Lng":106.758698,"Lat":10.849723,"Search":"LTNTD 249 DVB","Routes":"06, 169D, 29, 56"},{"StopId":408,"Code":"QTD 060","Name":"Trường THPT Quận Thủ Đức","StopType":"Trụ dừng","Zone":"TP. Thủ Đức - KV3","Ward":null,"AddressNo":"231-233","Street":"Đặng Văn Bi","SupportDisability":"","Status":"Đang khai thác","Lng":106.759613,"Lat":10.848207,"Search":"TTQTD 231-233 DVB","Routes":"06, 29, 56"},{"StopId":407,"Code":"QTD 061","Name":"Công ty may Sài Gòn","StopType":"Trụ dừng","Zone":"TP. Thủ Đức - KV3","Ward":"Phường Bình Thọ","AddressNo":"Kế 145B","Street":"Đặng Văn Bi","SupportDisability":"","Status":"Đang khai thác","Lng":106.762133,"Lat":10.844107,"Search":"CtmSG K145B DVB","Routes":"06, 29, 56"},{"StopId":411,"Code":"QTD 062","Name":"Công ty Sanofi Aventis","StopType":"Trụ dừng","Zone":"TP. Thủ Đức - KV3","Ward":"Phường Bình Thọ","AddressNo":"15/6C","Street":"Đặng Văn Bi","SupportDisability":"","Status":"Đang khai thác","Lng":106.764354,"Lat":10.84132,"Search":"CtSA 15/6C DVB","Routes":"06, 169V, 29, 56"},{"StopId":409,"Code":"QTD 063","Name":"Tu viện Quảng Đức","StopType":"Trụ dừng","Zone":"TP. Thủ Đức - KV3","Ward":"Phường Bình Thọ","AddressNo":"Tu viện Quảng Đức","Street":"Đặng Văn Bi","SupportDisability":"","Status":"Đang khai thác","Lng":106.766338,"Lat":10.839349,"Search":"TvQD TvQD DVB","Routes":"06, 169V, 29, 56"},{"StopId":8195,"Code":"TPTĐ 271","Name":"Trạm biến áp Bình Thái","StopType":"Ô sơn","Zone":"TP. Thủ Đức - KV3","Ward":"Phường Trường Thọ","AddressNo":"Kế 463","Street":"Nguyễn Văn Bá","SupportDisability":"Có","Status":"Đang khai thác","Lng":106.76639,"Lat":10.83744,"Search":"TbaBT K463 NVB","Routes":"06, 169V, 29, 56"},{"StopId":4175,"Code":"Q9 008","Name":"Đường 98","StopType":"Trụ dừng","Zone":"TP. Thủ Đức - KV2","Ward":null,"AddressNo":"42","Street":"Đỗ Xuân Hợp","SupportDisability":"","Status":"Đang khai thác","Lng":106.767801,"Lat":10.830946,"Search":"D98 42 DXH","Routes":"163V, 29"},{"StopId":4176,"Code":"Q9 009","Name":"Chợ Phước Long B","StopType":"Trụ dừng","Zone":"TP. Thủ Đức - KV2","Ward":null,"AddressNo":"178","Street":"Đỗ Xuân Hợp","SupportDisability":"","Status":"Đang khai thác","Lng":106.76842,"Lat":10.829033,"Search":"CPLB 178 DXH","Routes":"163V, 29"},{"StopId":4114,"Code":"Q9 010","Name":"UBND Phường Phước Long B","StopType":"Trụ dừng","Zone":"TP. Thủ Đức - KV2","Ward":null,"AddressNo":"Đối diện UBND phường Phước Long B","Street":"Đỗ Xuân Hợp","SupportDisability":"","Status":"Đang khai thác","Lng":106.768768,"Lat":10.826657,"Search":"UPPLB DdUpPLB DXH","Routes":"29, 99"},{"StopId":4177,"Code":"Q9 011","Name":"Đại học văn Hoá cơ sở 2","StopType":"Trụ dừng","Zone":"TP. Thủ Đức - KV2","Ward":null,"AddressNo":"332","Street":"Đỗ Xuân Hợp","SupportDisability":"","Status":"Đang khai thác","Lng":106.770447,"Lat":10.822942,"Search":"DhvHcs2 332 DXH","Routes":"29"},{"StopId":4178,"Code":"Q9 012","Name":"Trường Cao đẳng Kỹ thuật Công nghệ Tp.HCM","StopType":"Trụ dừng","Zone":"TP. Thủ Đức - KV2","Ward":"Phường Phước Long B","AddressNo":"502","Street":"Đỗ Xuân Hợp","SupportDisability":"","Status":"Đang khai thác","Lng":106.771934,"Lat":10.82138,"Search":"TCdKtCnT 502 DXH","Routes":"29"},{"StopId":4179,"Code":"Q9 013","Name":"Đại lộ 2","StopType":"Trụ dừng","Zone":"TP. Thủ Đức - KV2","Ward":null,"AddressNo":"1B","Street":"Đỗ Xuân Hợp","SupportDisability":"","Status":"Đang khai thác","Lng":106.773167,"Lat":10.818131,"Search":"Dl2 1B DXH","Routes":"29"},{"StopId":3199,"Code":"Q9 014","Name":"Chùa Thiên Minh","StopType":"Trụ dừng","Zone":"TP. Thủ Đức - KV2","Ward":null,"AddressNo":"616","Street":"Đỗ Xuân Hợp","SupportDisability":"","Status":"Đang khai thác","Lng":106.774406,"Lat":10.816072,"Search":"CTM 616 DXH","Routes":"163V, 29"},{"StopId":4180,"Code":"Q9 015","Name":"Đình Bình Thái","StopType":"Trụ dừng","Zone":"TP. Thủ Đức - KV2","Ward":null,"AddressNo":"Đối diện 141","Street":"Đỗ Xuân Hợp","SupportDisability":"","Status":"Đang khai thác","Lng":106.775401,"Lat":10.813323,"Search":"DBT Dd141 DXH","Routes":"29"},{"StopId":4181,"Code":"Q9 016","Name":"Cầu Nam Lý","StopType":"Trụ dừng","Zone":"TP. Thủ Đức - KV2","Ward":null,"AddressNo":"91B","Street":"Đỗ Xuân Hợp","SupportDisability":"","Status":"Đang khai thác","Lng":106.776019,"Lat":10.810981,"Search":"CNL 91B DXH","Routes":"29"},{"StopId":8120,"Code":"TPTĐ 231","Name":"Chung cư Flora Anh Đào","StopType":"Trụ dừng","Zone":"TP. Thủ Đức - KV2","Ward":"Phường Phước Long B","AddressNo":"8-10","Street":"Đường D3","SupportDisability":"","Status":"Đang khai thác","Lng":106.778285,"Lat":10.806026,"Search":"CcFAD 8-10 DD","Routes":"29"},{"StopId":7947,"Code":"TPTĐ 079","Name":"Đường 49","StopType":"Trụ dừng","Zone":"TP. Thủ Đức - KV2","Ward":"Phường Phước Long B","AddressNo":"Đối diện 55","Street":"Đường D3","SupportDisability":"Có","Status":"Đang khai thác","Lng":106.780557,"Lat":10.807415,"Search":"D49 Dd55 DD","Routes":"29"},{"StopId":7945,"Code":"TPTĐ 077","Name":"Chung cư Phố Đông","StopType":"Trụ dừng","Zone":"TP. Thủ Đức - KV2","Ward":"Phường Phước Long B","AddressNo":"38","Street":"Đường D6","SupportDisability":"Có","Status":"Đang khai thác","Lng":106.783916,"Lat":10.809406,"Search":"CcPD 38 DD","Routes":"29"},{"StopId":7810,"Code":"Q9 309","Name":"Trường CĐ Sư phạm Trung ương 2 (CS2)","StopType":"Trụ dừng","Zone":"TP. Thủ Đức - KV2","Ward":"Phường Phước Long B","AddressNo":"117-119","Street":"Liên Phường","SupportDisability":"Có","Status":"Đang khai thác","Lng":106.783458,"Lat":10.806888,"Search":"TCSpTu2( 117-119 LP","Routes":"153, 29, D4"},{"StopId":4184,"Code":"Q9 019","Name":"Đường 655","StopType":"Trụ dừng","Zone":"TP. Thủ Đức - KV2","Ward":null,"AddressNo":"Đối diện 665","Street":"Đỗ Xuân Hợp","SupportDisability":"","Status":"Đang khai thác","Lng":106.779162,"Lat":10.800692,"Search":"D655 Dd665 DXH","Routes":"153, 29, D4"},{"StopId":4185,"Code":"Q9 020","Name":"Khu dân cư Sông Giồng","StopType":"Trụ dừng","Zone":"TP. Thủ Đức - KV2","Ward":null,"AddressNo":"đối diện 705A","Street":"Đỗ Xuân Hợp","SupportDisability":"","Status":"Đang khai thác","Lng":106.781241,"Lat":10.793608,"Search":"KdcSG dd705A DXH","Routes":"153, 29"},{"StopId":4186,"Code":"Q9 021","Name":"Cầu Ông Kỳ 2","StopType":"Trụ dừng","Zone":"TP. Thủ Đức - KV2","Ward":null,"AddressNo":"15","Street":"Đỗ Xuân Hợp","SupportDisability":"","Status":"Đang khai thác","Lng":106.781541,"Lat":10.791063,"Search":"COK2 15 DXH","Routes":"29"},{"StopId":4062,"Code":"Q2 055","Name":"Đỗ Xuân Hợp","StopType":"Ô sơn","Zone":"TP. Thủ Đức - KV1","Ward":null,"AddressNo":"953-955","Street":"Nguyễn Duy Trinh","SupportDisability":"","Status":"Đang khai thác","Lng":106.779674,"Lat":10.789751,"Search":"DXH 953-955 NDT","Routes":"29, 88"},{"StopId":4058,"Code":"Q2 056","Name":"Trường Nguyễn Văn Trỗi","StopType":"Trụ dừng","Zone":"TP. Thủ Đức - KV1","Ward":null,"AddressNo":"885/15 (Đối diện 618)","Street":"Nguyễn Duy Trinh","SupportDisability":"","Status":"Đang khai thác","Lng":106.777557,"Lat":10.788671,"Search":"TNVT 885/15(d618) NDT","Routes":"153, 29, 88"},{"StopId":4064,"Code":"Q2 057","Name":"Đường số 6","StopType":"Trụ dừng","Zone":"TP. Thủ Đức - KV1","Ward":null,"AddressNo":"671-673","Street":"Nguyễn Duy Trinh","SupportDisability":"","Status":"Đang khai thác","Lng":106.775613,"Lat":10.78818,"Search":"Ds6 671-673 NDT","Routes":"153, 29, 88"},{"StopId":4066,"Code":"Q2 058","Name":"Nhà Sách Nguyễn Văn Cừ","StopType":"Trụ dừng","Zone":"TP. Thủ Đức - KV1","Ward":null,"AddressNo":"587-589","Street":"Nguyễn Duy Trinh","SupportDisability":"","Status":"Đang khai thác","Lng":106.773167,"Lat":10.788402,"Search":"NSNVC 587-589 NDT","Routes":"153, 29, 88"},{"StopId":4068,"Code":"Q2 059","Name":"Lê Văn Thịnh","StopType":"Trụ dừng","Zone":"TP. Thủ Đức - KV1","Ward":null,"AddressNo":"537-537D","Street":"Nguyễn Duy Trinh","SupportDisability":"","Status":"Đang khai thác","Lng":106.770764,"Lat":10.788639,"Search":"LVT 537-537D NDT","Routes":"153, 29, 88"},{"StopId":4166,"Code":"Q2 063","Name":"36, Lê Văn Thịnh","StopType":"Trụ dừng","Zone":"TP. Thủ Đức - KV1","Ward":null,"AddressNo":"36","Street":"Lê Văn Thịnh","SupportDisability":"","Status":"Đang khai thác","Lng":106.76907,"Lat":10.787043,"Search":"36,LVT 36 LVT","Routes":"154, 29"},{"StopId":4167,"Code":"Q2 064","Name":"Bệnh viện Quận 2, Lê Văn Thịnh","StopType":"Trụ dừng","Zone":"TP. Thủ Đức - KV1","Ward":null,"AddressNo":"Bệnh viện Quận 2","Street":"Lê Văn Thịnh","SupportDisability":"","Status":"Đang khai thác","Lng":106.769279,"Lat":10.78237,"Search":"BvQ2,LVT BvQ2 LVT","Routes":"154, 29"},{"StopId":4168,"Code":"Q2 065","Name":"176, Lê Văn Thịnh","StopType":"Trụ dừng","Zone":"TP. Thủ Đức - KV1","Ward":null,"AddressNo":"176","Street":"Lê Văn Thịnh","SupportDisability":"","Status":"Đang khai thác","Lng":106.768747,"Lat":10.778574,"Search":"176,LVT 176 LVT","Routes":"154, 29"},{"StopId":4169,"Code":"Q2 066","Name":"Chợ Cây Xoài","StopType":"Trụ dừng","Zone":"TP. Thủ Đức - KV1","Ward":null,"AddressNo":"238A","Street":"Đường số 22","SupportDisability":"","Status":"Đang khai thác","Lng":106.766815,"Lat":10.777373,"Search":"CCX 238A Ds22","Routes":"154, 29"},{"StopId":2531,"Code":"Q2 030","Name":"Chợ Cây Xoài","StopType":"Trụ dừng","Zone":"TP. Thủ Đức - KV1","Ward":null,"AddressNo":"676","Street":"Nguyễn Thị Định","SupportDisability":"","Status":"Đang khai thác","Lng":106.766617,"Lat":10.775916,"Search":"CCX 676 NTD","Routes":"154, 29, 43"},{"StopId":2528,"Code":"Q2 031","Name":"UBND Phường Cát Lái","StopType":"Trụ dừng","Zone":"TP. Thủ Đức - KV1","Ward":null,"AddressNo":"Đối diện trường mầm non Cát Lái","Street":"Nguyễn Thị Định","SupportDisability":"","Status":"Đang khai thác","Lng":106.769348,"Lat":10.774142,"Search":"UPCL DdtmnCL NTD","Routes":"154, 29, 43"},{"StopId":2532,"Code":"Q2 032","Name":"Khu Dân Cư Phố Đông","StopType":"Trụ dừng","Zone":"TP. Thủ Đức - KV1","Ward":null,"AddressNo":"918","Street":"Nguyễn Thị Định","SupportDisability":"","Status":"Đang khai thác","Lng":106.778081,"Lat":10.767412,"Search":"KDCPD 918 NTD","Routes":"154, 29, 43"},{"StopId":2533,"Code":"Q2 034","Name":"Trường Hải Quân","StopType":"Trụ dừng","Zone":"TP. Thủ Đức - KV1","Ward":null,"AddressNo":"940","Street":"Nguyễn Thị Định","SupportDisability":"","Status":"Đang khai thác","Lng":106.782909,"Lat":10.763244,"Search":"THQ 940 NTD","Routes":"29, 43"},{"StopId":2542,"Code":"Q2ĐB 001","Name":"Phà Cát Lái","StopType":"Nhà chờ","Zone":"TP. Thủ Đức - KV1","Ward":null,"AddressNo":"1349","Street":"Nguyễn Thị Định","SupportDisability":"","Status":"Đang khai thác","Lng":106.788239,"Lat":10.758901,"Search":"PCL 1349 NTD","Routes":"29, 43"},{"StopId":2469,"Code":"Q2 035","Name":"Trường Hải Quân","StopType":"Nhà chờ","Zone":"TP. Thủ Đức - KV1","Ward":null,"AddressNo":"Đối diện 944","Street":"Nguyễn Thị Định","SupportDisability":"","Status":"Đang khai thác","Lng":106.784019,"Lat":10.762559,"Search":"THQ Dd944 NTD","Routes":"29, 43"},{"StopId":2467,"Code":"BX 10","Name":"Đường A1 (Phà Cát Lái)","StopType":"Bến xe","Zone":"TP. Thủ Đức - KV1","Ward":null,"AddressNo":"PHÀ CÁT LÁI","Street":"Đường A","SupportDisability":"","Status":"Đang khai thác","Lng":106.782669,"Lat":10.762,"Search":"DA(CL PCL DA","Routes":"29, 43"}]