[{"StopId":955,"Code":"BX 65","Name":"Bố Heo","StopType":"Bến xe","Zone":"Huyện Củ Chi","Ward":null,"AddressNo":"ĐẦU BẾN BỐ HEO","Street":"Hương lộ 2","SupportDisability":"","Status":"Đang khai thác","Lng":106.421696,"Lat":11.061848,"Search":"BH DBBH Hl2","Routes":"107"},{"StopId":959,"Code":"HCC 328","Name":"Bố Heo","StopType":"Trụ dừng","Zone":"Huyện Củ Chi","Ward":null,"AddressNo":"đối diện 1010","Street":"Tỉnh lộ 2","SupportDisability":"Có","Status":"Đang khai thác","Lng":106.421599,"Lat":11.061632,"Search":"BH dd1010 Tl2","Routes":"107"},{"StopId":960,"Code":"HCC 329","Name":"cây xăng Sông Châu","StopType":"Trụ dừng","Zone":"Huyện Củ Chi","Ward":null,"AddressNo":"1021 (1029)","Street":"Tỉnh lộ 2","SupportDisability":"Có","Status":"Đang khai thác","Lng":106.424625,"Lat":11.058347,"Search":"cxSC 1021( Tl2","Routes":"107"},{"StopId":962,"Code":"HCC 330","Name":"văn phòng Ấp Trung Hưng","StopType":"Trụ dừng","Zone":"Huyện Củ Chi","Ward":null,"AddressNo":"971A (đối diện 938)","Street":"Tỉnh lộ 2","SupportDisability":"Có","Status":"Đang khai thác","Lng":106.426309,"Lat":11.056704,"Search":"vpATH 971A(d938) Tl2","Routes":"107"},{"StopId":5791,"Code":"HCC 331","Name":"Nhà may Bích Liễu","StopType":"Trụ dừng","Zone":"Huyện Củ Chi","Ward":"Thị trấn Củ Chi","AddressNo":"893","Street":"Tỉnh lộ 2","SupportDisability":"Có","Status":"Đang khai thác","Lng":106.432242,"Lat":11.050281,"Search":"NmBL 893 Tl2","Routes":"107"},{"StopId":5792,"Code":"HCC 332","Name":"Kênh Đông","StopType":"Trụ dừng","Zone":"Huyện Củ Chi","Ward":"Thị trấn Củ Chi","AddressNo":"791A","Street":"Tỉnh lộ 2","SupportDisability":"Có","Status":"Đang khai thác","Lng":106.435804,"Lat":11.046616,"Search":"KD 791A Tl2","Routes":"107"},{"StopId":5793,"Code":"HCC 333","Name":"Trường tiểu học Liên Trung","StopType":"Trụ dừng","Zone":"Huyện Củ Chi","Ward":"Thị trấn Củ Chi","AddressNo":"715-717A","Street":"Tỉnh lộ 2","SupportDisability":"Có","Status":"Đang khai thác","Lng":106.439688,"Lat":11.042425,"Search":"TthLT 715-717A Tl2","Routes":"107"},{"StopId":5794,"Code":"HCC 334","Name":"Tỉnh lộ 7","StopType":"Trụ dừng","Zone":"Huyện Củ Chi","Ward":"Thị trấn Củ Chi","AddressNo":"641","Street":"Tỉnh lộ 2","SupportDisability":"Có","Status":"Đang khai thác","Lng":106.446598,"Lat":11.034949,"Search":"Tl7 641 Tl2","Routes":"107"},{"StopId":968,"Code":"QCCT186","Name":"Tỉnh lộ 2","StopType":"Trụ dừng","Zone":"Huyện Củ Chi","Ward":"Xã Trung Lập Thượng","AddressNo":"Đối diện 178","Street":"Tỉnh lộ 7","SupportDisability":"","Status":"Đang khai thác","Lng":106.446367,"Lat":11.033801,"Search":"Tl2 Dd178 Tl7","Routes":"107"},{"StopId":970,"Code":"HCC 139","Name":"đường 703","StopType":"Trụ dừng","Zone":"Huyện Củ Chi","Ward":"Xã Trung Lập Thượng","AddressNo":"57 (Đối diện 44)","Street":"Tỉnh lộ 7","SupportDisability":"Có","Status":"Đang khai thác","Lng":106.44215,"Lat":11.027372,"Search":"d703 57(d44) Tl7","Routes":"107"},{"StopId":957,"Code":"HCC 140","Name":"Bàu điều","StopType":"Trụ dừng","Zone":"Huyện Củ Chi","Ward":null,"AddressNo":"977","Street":"Tỉnh lộ 7","SupportDisability":"Có","Status":"Đang khai thác","Lng":106.436427,"Lat":11.017505,"Search":"Bd 977 Tl7","Routes":"107"},{"StopId":971,"Code":"HCC 141","Name":"Miếu thờ họ Ngô","StopType":"Trụ dừng","Zone":"Huyện Củ Chi","Ward":null,"AddressNo":"917","Street":"Tỉnh lộ 7","SupportDisability":"Có","Status":"Đang khai thác","Lng":106.434147,"Lat":11.013787,"Search":"MthN 917 Tl7","Routes":"107"},{"StopId":961,"Code":"HCC 142","Name":"Ấp Phước Hưng","StopType":"Trụ dừng","Zone":"Huyện Củ Chi","Ward":null,"AddressNo":"Đối diện 878","Street":"Tỉnh lộ 7","SupportDisability":"Có","Status":"Đang khai thác","Lng":106.430617,"Lat":11.009196,"Search":"APH Dd878 Tl7","Routes":"107"},{"StopId":975,"Code":"HCC 143","Name":"trường tiểu học An Phước","StopType":"Trụ dừng","Zone":"Huyện Củ Chi","Ward":null,"AddressNo":"829","Street":"Tỉnh lộ 7","SupportDisability":"Có","Status":"Đang khai thác","Lng":106.428337,"Lat":11.007131,"Search":"tthAP 829 Tl7","Routes":"107"},{"StopId":790,"Code":"HCC 028","Name":"Ngã tư Phước Thạnh","StopType":"Nhà chờ","Zone":"Huyện Củ Chi","Ward":"Xã Phước Thạnh","AddressNo":"863","Street":"Quốc lộ 22","SupportDisability":"Có","Status":"Đang khai thác","Lng":106.428069,"Lat":11.005567,"Search":"NtPT 863 Ql22","Routes":"100, 107, 70-1, 70-2"},{"StopId":783,"Code":"HCC 029","Name":"Ủy Ban nhân dân Xã Phước Thạnh","StopType":"Trụ dừng","Zone":"Huyện Củ Chi","Ward":"Xã Phước Thạnh","AddressNo":"755","Street":"Quốc lộ 22","SupportDisability":"","Status":"Đang khai thác","Lng":106.431647,"Lat":11.004504,"Search":"?BndXPT 755 Ql22","Routes":"100, 107, 70-1, 70-2"},{"StopId":7844,"Code":"HCC 348","Name":"Đường 622","StopType":"Ô sơn","Zone":"Huyện Củ Chi","Ward":"Xã Phước Thạnh","AddressNo":"cạnh 685 (cạnh đường 622)","Street":"Quốc lộ 22","SupportDisability":"","Status":"Đang khai thác","Lng":106.435756,"Lat":11.002966,"Search":"D622 c685(d622) Ql22","Routes":"100, 107, 70-1, 70-2"},{"StopId":7843,"Code":"HCC 353","Name":"Cây xăng Phước Thạnh 2","StopType":"Ô sơn","Zone":"Huyện Củ Chi","Ward":"Xã Phước Hiệp","AddressNo":"613 (cạnh hẻm 53)","Street":"Quốc lộ 22","SupportDisability":"","Status":"Đang khai thác","Lng":106.443239,"Lat":10.998359,"Search":"CxPT2 613(h53) Ql22","Routes":"100, 107, 70-1, 70-2"},{"StopId":784,"Code":"HCC 030","Name":"ấp cây trôm","StopType":"Trụ dừng","Zone":"Huyện Củ Chi","Ward":"Xã Phước Hiệp","AddressNo":"585","Street":"Quốc lộ 22","SupportDisability":"","Status":"Đang khai thác","Lng":106.44487,"Lat":10.996617,"Search":"act 585 Ql22","Routes":"100, 107, 70-1, 70-2"},{"StopId":792,"Code":"HCC 031","Name":"Trường Tiểu học Phước Hiệp","StopType":"Nhà chờ","Zone":"Huyện Củ Chi","Ward":"Xã Phước Hiệp","AddressNo":"499","Street":"Quốc lộ 22","SupportDisability":"Có","Status":"Đang khai thác","Lng":106.448362,"Lat":10.992698,"Search":"TThPH 499 Ql22","Routes":"100, 107, 70-1, 70-2"},{"StopId":794,"Code":"HCC 032","Name":"UBND xã Phước Hiệp","StopType":"Nhà chờ","Zone":"Huyện Củ Chi","Ward":null,"AddressNo":"UBND xã Phước Hiệp","Street":"Quốc lộ 22","SupportDisability":"Có","Status":"Đang khai thác","Lng":106.451263,"Lat":10.989567,"Search":"UxPH UxPH Ql22","Routes":"100, 107, 70-1, 70-2"},{"StopId":7836,"Code":"HCC 347","Name":"Cây xăng Phước Thạnh 3","StopType":"Ô sơn","Zone":"Huyện Củ Chi","Ward":"Xã Phước Hiệp","AddressNo":"351","Street":"Quốc lộ 22","SupportDisability":"","Status":"Đang khai thác","Lng":106.455658,"Lat":10.986336,"Search":"CxPT3 351 Ql22","Routes":"100, 107, 70-1, 70-2"},{"StopId":7834,"Code":"HCC 345","Name":"Đường số 606","StopType":"Ô sơn","Zone":"Huyện Củ Chi","Ward":"Xã Phước Hiệp","AddressNo":"Đối diện đường số 606","Street":"Quốc lộ 22","SupportDisability":"","Status":"Đang khai thác","Lng":106.458238,"Lat":10.984662,"Search":"Ds606 Ddds606 Ql22","Routes":"100, 107, 70-1, 70-2"},{"StopId":785,"Code":"HCC 033","Name":"Cây xăng Tài Lộc 3","StopType":"Nhà chờ","Zone":"Huyện Củ Chi","Ward":"Xã Phước Hiệp","AddressNo":"281","Street":"Quốc lộ 22","SupportDisability":"Có","Status":"Đang khai thác","Lng":106.461033,"Lat":10.982855,"Search":"CxTL3 281 Ql22","Routes":"100, 107, 70-1, 70-2"},{"StopId":7680,"Code":"HCC 298","Name":"Quán cơm 5 Hoàng","StopType":"Trụ dừng","Zone":"Huyện Củ Chi","Ward":"Xã Phước Hiệp","AddressNo":"227 (đối diện Quán cơm 5 Hoàng)","Street":"Quốc lộ 22","SupportDisability":"","Status":"Đang khai thác","Lng":106.463742,"Lat":10.981049,"Search":"Qc5H 227(dQc5H Ql22","Routes":"100, 107, 70-1, 70-2"},{"StopId":796,"Code":"HCC 034","Name":"Công ty phân bón sinh hóa Củ Chi","StopType":"Nhà chờ","Zone":"Huyện Củ Chi","Ward":null,"AddressNo":"121","Street":"Quốc lộ 22","SupportDisability":"Có","Status":"Đang khai thác","Lng":106.469632,"Lat":10.977784,"Search":"CtpbshCC 121 Ql22","Routes":"100, 107, 70-1, 70-2"},{"StopId":787,"Code":"HCC 035","Name":"Ngã 3 Nguyễn Thị Rành","StopType":"Trụ dừng","Zone":"Huyện Củ Chi","Ward":null,"AddressNo":"55","Street":"Quốc lộ 22","SupportDisability":"","Status":"Đang khai thác","Lng":106.472717,"Lat":10.976109,"Search":"N3NTR 55 Ql22","Routes":"100, 107, 70-1, 70-2, 79"},{"StopId":788,"Code":"HCC 036","Name":"Bệnh viện Củ Chi","StopType":"Trụ dừng","Zone":"Huyện Củ Chi","Ward":"Xã Tân An Hội","AddressNo":"991 (số 5-7 xe máy Quang Phương)","Street":"Quốc lộ 22","SupportDisability":"","Status":"Đang khai thác","Lng":106.477443,"Lat":10.973655,"Search":"BvCC 991(5-7xmQP Ql22","Routes":"100, 107, 70-1, 70-2, 79"},{"StopId":963,"Code":"HCC 037","Name":"Bến xe Củ Chi","StopType":"Trụ dừng","Zone":"Huyện Củ Chi","Ward":"Thị trấn Củ Chi","AddressNo":"907 (Chợ Củ Chi)","Street":"Quốc lộ 22","SupportDisability":"","Status":"Đang khai thác","Lng":106.48049,"Lat":10.972091,"Search":"BxCC 907(CC Ql22","Routes":"100, 107, 70-1, 70-2, 79"},{"StopId":7617,"Code":"HCC 279","Name":"chợ Củ Chi","StopType":"Nhà chờ","Zone":"Huyện Củ Chi","Ward":"Thị trấn Củ Chi","AddressNo":"chợ Củ Chi","Street":"Quốc lộ 22","SupportDisability":"Có","Status":"Đang khai thác","Lng":106.482453,"Lat":10.970495,"Search":"cCC cCC Ql22","Routes":"100, 107, 126, 13, 62-3, 70-1, 70-2, 74, 87, 94"},{"StopId":732,"Code":"BX 63","Name":"Bến xe Củ Chi","StopType":"Bến xe","Zone":"Huyện Củ Chi","Ward":null,"AddressNo":"Bến xe Củ Chi","Street":"Quốc lộ 22","SupportDisability":"","Status":"Đang khai thác","Lng":106.482099,"Lat":10.971617,"Search":"BxCC BxCC Ql22","Routes":"100, 107, 126, 13, 62-3, 70-1, 70-2, 74, 79, 87, 94"}]