[{"StopId":7257,"Code":"BXLT Thu Dau Mot","Name":"Bến xe Thủ Dầu Một","StopType":"Bến xe","Zone":"Ngoại thành","Ward":null,"AddressNo":"Bến xe Thủ Dầu Một","Street":"Đường 30 tháng 4","SupportDisability":"Có","Status":"Đang khai thác","Lng":106.668524,"Lat":10.96564,"Search":"BxTDM BxTDM D30t4","Routes":"61-3, 61-37, 61-38, 61-8, 61-9"},{"StopId":3362,"Code":"QTD 212","Name":"Cầu Vĩnh Bình","StopType":"Trụ dừng","Zone":"TP. Thủ Đức - KV3","Ward":"Phường Hiệp Bình Phước","AddressNo":"875","Street":"Quốc lộ 13","SupportDisability":"","Status":"Đang khai thác","Lng":106.718254,"Lat":10.867865,"Search":"CVB 875 Ql13","Routes":"171, 61-3, 61-8"},{"StopId":3360,"Code":"QTD 213","Name":"Xây dựng Ngọc Đào","StopType":"Trụ dừng","Zone":"TP. Thủ Đức - KV3","Ward":"Phường Hiệp Bình Phước","AddressNo":"Kế 801","Street":"Quốc lộ 13","SupportDisability":"","Status":"Đang khai thác","Lng":106.722581,"Lat":10.867065,"Search":"XdND K801 Ql13","Routes":"171, 61-3, 61-8"},{"StopId":2348,"Code":"QTD 196","Name":"Cầu Bình Phước","StopType":"Trụ dừng","Zone":"TP. Thủ Đức - KV3","Ward":null,"AddressNo":"39A","Street":"Quốc lộ 1","SupportDisability":"","Status":"Đang khai thác","Lng":106.719894,"Lat":10.863451,"Search":"CBP 39A Ql1","Routes":"33, 60-1, 61-3"},{"StopId":2345,"Code":"Q12 061","Name":"Aone","StopType":"Ô sơn","Zone":"Quận 12","Ward":null,"AddressNo":"Đối diện Aone","Street":"Quốc lộ 1A","SupportDisability":"","Status":"Đang khai thác","Lng":106.713096,"Lat":10.85997,"Search":"A DdA Ql1A","Routes":"33, 60-1, 61-3"},{"StopId":2349,"Code":"Q12 062","Name":"Công ty EUROPA","StopType":"Nhà chờ","Zone":"Quận 12","Ward":null,"AddressNo":"Công ty EUROPA","Street":"Quốc lộ 1A","SupportDisability":"","Status":"Đang khai thác","Lng":106.707727,"Lat":10.859148,"Search":"CtE CtE Ql1A","Routes":"33, 60-1, 61-3"},{"StopId":2347,"Code":"Q12 063","Name":"Tu viện Khánh An","StopType":"Trụ dừng","Zone":"Quận 12","Ward":null,"AddressNo":"1048/3B","Street":"Quốc lộ 1A","SupportDisability":"","Status":"Đang khai thác","Lng":106.704948,"Lat":10.859496,"Search":"TvKA 1048/3B Ql1A","Routes":"33, 61-3"},{"StopId":2350,"Code":"Q12 064","Name":"Công ty Mai Linh","StopType":"Trụ dừng","Zone":"Quận 12","Ward":null,"AddressNo":"1691/3N","Street":"Quốc lộ 1A","SupportDisability":"","Status":"Đang khai thác","Lng":106.701086,"Lat":10.860007,"Search":"CtML 1691/3N Ql1A","Routes":"33, 60-1, 61-3"},{"StopId":2351,"Code":"Q12 065","Name":"Đình An Phú Đông","StopType":"Biển treo","Zone":"Quận 12","Ward":null,"AddressNo":"Đối diện Đình An Phú Đông","Street":"Quốc lộ 1A","SupportDisability":"","Status":"Đang khai thác","Lng":106.695453,"Lat":10.86065,"Search":"DAPD DdDAPD Ql1A","Routes":"33, 60-1, 61-3"},{"StopId":2353,"Code":"Q12 066","Name":"Đài Liệt sĩ An Phú Đông","StopType":"Nhà chờ","Zone":"Quận 12","Ward":null,"AddressNo":"Đài Liệt sĩ An Phú Đông","Street":"Quốc lộ 1A","SupportDisability":"","Status":"Đang khai thác","Lng":106.69224,"Lat":10.860876,"Search":"DLsAPD DLsAPD Ql1A","Routes":"33, 61-3"},{"StopId":2352,"Code":"Q12 067","Name":"Công ty Hồng Mã","StopType":"Trụ dừng","Zone":"Quận 12","Ward":null,"AddressNo":"Công ty Hồng Mã","Street":"Quốc lộ 1A","SupportDisability":"","Status":"Đang khai thác","Lng":106.689413,"Lat":10.86104,"Search":"CtHM CtHM Ql1A","Routes":"33, 60-1, 61-3"},{"StopId":2355,"Code":"Q12 068","Name":"Phường An Phú Đông","StopType":"Trụ dừng","Zone":"Quận 12","Ward":null,"AddressNo":"616 - 618","Street":"Quốc lộ 1A","SupportDisability":"","Status":"Đang khai thác","Lng":106.685175,"Lat":10.861324,"Search":"PAPD 616-618 Ql1A","Routes":"33, 60-1, 61-3"},{"StopId":2357,"Code":"Q12 069","Name":"Cầu Ga Nhỏ","StopType":"Trụ dừng","Zone":"Quận 12","Ward":null,"AddressNo":"161","Street":"Quốc lộ 1A","SupportDisability":"","Status":"Đang khai thác","Lng":106.682321,"Lat":10.861503,"Search":"CGN 161 Ql1A","Routes":"33, 61-3"},{"StopId":2354,"Code":"Q12 070","Name":"Bến xe Ngã tư Ga","StopType":"Nhà chờ","Zone":"Quận 12","Ward":null,"AddressNo":"Bến xe Ngã tư ga","Street":"Quốc lộ 1A","SupportDisability":"","Status":"Đang khai thác","Lng":106.679354,"Lat":10.861725,"Search":"BxNtG BxNtg Ql1A","Routes":"33, 58, 60-1, 61-3"},{"StopId":976,"Code":"Q12 071","Name":"Khu QLGTĐT số 3","StopType":"Trụ dừng","Zone":"Quận 12","Ward":null,"AddressNo":"96/2","Street":"Quốc lộ 1A","SupportDisability":"","Status":"Đang khai thác","Lng":106.674564,"Lat":10.861967,"Search":"KQs3 96/2 Ql1A","Routes":"103, 161, 32, 33, 59, 60-1, 61-3"},{"StopId":964,"Code":"Q12 072","Name":"Tô Ngọc Vân","StopType":"Trụ dừng","Zone":"Quận 12","Ward":null,"AddressNo":"972","Street":"Quốc lộ 1A","SupportDisability":"","Status":"Đang khai thác","Lng":106.671935,"Lat":10.861904,"Search":"TNV 972 Ql1A","Routes":"103, 161, 32, 33, 59, 61-3"},{"StopId":965,"Code":"Q12 073","Name":"Trường Mầm non Ngôi Nhà Trẻ Thơ","StopType":"Trụ dừng","Zone":"Quận 12","Ward":null,"AddressNo":"990","Street":"Quốc lộ 1A","SupportDisability":"","Status":"Đang khai thác","Lng":106.667461,"Lat":10.861877,"Search":"TMnNNTT 990 Ql1A","Routes":"103, 146, 33, 60-1, 61-3"},{"StopId":977,"Code":"Q12 074","Name":"Cơ khí Minh Huy","StopType":"Trụ dừng","Zone":"Quận 12","Ward":null,"AddressNo":"1218/11","Street":"Quốc lộ 1A","SupportDisability":"","Status":"Đang khai thác","Lng":106.661389,"Lat":10.861819,"Search":"CkMH 1218/11 Ql1A","Routes":"103, 146, 33, 60-1, 61-3"},{"StopId":966,"Code":"Q12 075","Name":"Đá hoa cương Chí Thành","StopType":"Nhà chờ","Zone":"Quận 12","Ward":null,"AddressNo":"1360","Street":"Quốc lộ 1A","SupportDisability":"","Status":"Đang khai thác","Lng":106.657183,"Lat":10.861988,"Search":"DhcCT 1360 Ql1A","Routes":"103, 146, 33, 60-1, 61-3"},{"StopId":969,"Code":"Q12 076","Name":"Quận ủy Quận 12","StopType":"Trụ dừng","Zone":"Quận 12","Ward":null,"AddressNo":"1456 (Quận Ủy quận 12)","Street":"Quốc lộ 1A","SupportDisability":"","Status":"Đang khai thác","Lng":106.653428,"Lat":10.862114,"Search":"QuQ12 1456(Uq12) Ql1A","Routes":"103, 33, 60-1, 61-3"},{"StopId":972,"Code":"Q12 077","Name":"Ngã tư Tân Thới Hiệp","StopType":"Trụ dừng","Zone":"Quận 12","Ward":null,"AddressNo":"1680","Street":"Quốc lộ 1A","SupportDisability":"","Status":"Đang khai thác","Lng":106.650757,"Lat":10.862273,"Search":"NtTTH 1680 Ql1A","Routes":"103, 33, 61-3"},{"StopId":2775,"Code":"Q12 078","Name":"Cao su Vina","StopType":"Trụ dừng","Zone":"Quận 12","Ward":null,"AddressNo":"67/3A","Street":"Quốc lộ 1A","SupportDisability":"","Status":"Đang khai thác","Lng":106.648536,"Lat":10.861767,"Search":"CsV 67/3A Ql1A","Routes":"33, 60-1, 61-3, 62"},{"StopId":2776,"Code":"Q12 079","Name":"Cây xăng Trung Tín","StopType":"Trụ dừng","Zone":"Quận 12","Ward":null,"AddressNo":"1828","Street":"Quốc lộ 1A","SupportDisability":"","Status":"Đang khai thác","Lng":106.645682,"Lat":10.860302,"Search":"CxTT 1828 Ql1A","Routes":"33, 60-1, 61-3, 62"},{"StopId":2777,"Code":"Q12 080","Name":"Trạm điện Hóc Môn","StopType":"Trụ dừng","Zone":"Quận 12","Ward":null,"AddressNo":"1956","Street":"Quốc lộ 1A","SupportDisability":"","Status":"Đang khai thác","Lng":106.640918,"Lat":10.857668,"Search":"TdHM 1956 Ql1A","Routes":"33, 60-1, 61-3, 62"},{"StopId":2778,"Code":"Q12 081","Name":"Ngã tư Đình","StopType":"Trụ dừng","Zone":"Quận 12","Ward":null,"AddressNo":"44D","Street":"Quốc lộ 1A","SupportDisability":"","Status":"Đang khai thác","Lng":106.638172,"Lat":10.856256,"Search":"NtD 44D Ql1A","Routes":"33, 60-1, 61-3, 62"},{"StopId":2781,"Code":"Q12 083","Name":"Trường Nguyễn Du","StopType":"Nhà chờ","Zone":"Quận 12","Ward":null,"AddressNo":"Đối diện Trường Nguyễn Du","Street":"Quốc lộ 1A","SupportDisability":"","Status":"Đang khai thác","Lng":106.632469,"Lat":10.853048,"Search":"TND DdTND Ql1A","Routes":"33, 60-1, 61-3, 62"},{"StopId":2780,"Code":"Q12 084","Name":"Công viên Phần mềm Quang Trung","StopType":"Nhà chờ","Zone":"Quận 12","Ward":null,"AddressNo":"Công viên phần mềm Quang Trung","Street":"Quốc lộ 1A","SupportDisability":"","Status":"Đang khai thác","Lng":106.630935,"Lat":10.852242,"Search":"CvPmQT CvpmQT Ql1A","Routes":"33, 61-3, 62"},{"StopId":2254,"Code":"Q12 085","Name":"Chung cư Thái An","StopType":"Trụ dừng","Zone":"Quận 12","Ward":null,"AddressNo":"Chung cư Thái An","Street":"Quốc lộ 1A","SupportDisability":"","Status":"Đang khai thác","Lng":106.624348,"Lat":10.84907,"Search":"CcTA CcTA Ql1A","Routes":"33, 60-1, 61-3"},{"StopId":2250,"Code":"Q12 086","Name":"Trạm đăng kiểm","StopType":"Trụ dừng","Zone":"Quận 12","Ward":null,"AddressNo":"Trạm đăng kiểm","Street":"Quốc lộ 1A","SupportDisability":"","Status":"Đang khai thác","Lng":106.621059,"Lat":10.8475,"Search":"Tdk Tdk Ql1A","Routes":"33, 60-1, 61-3"},{"StopId":2251,"Code":"Q12 087","Name":"Bãi xe Tây Nam","StopType":"Nhà chờ","Zone":"Quận 12","Ward":null,"AddressNo":"Đối diện Bãi xe Tây Nam","Street":"Quốc lộ 1A","SupportDisability":"","Status":"Đang khai thác","Lng":106.618758,"Lat":10.845935,"Search":"BxTN DdBxTN Ql1A","Routes":"33, 61-3"},{"StopId":2252,"Code":"Q12 088","Name":"Cầu vượt An Sương","StopType":"Nhà chờ","Zone":"Quận 12","Ward":null,"AddressNo":"Xưởng Z735","Street":"Quốc lộ 1A","SupportDisability":"","Status":"Đang khai thác","Lng":106.616081,"Lat":10.843623,"Search":"CvAS XZ Ql1A","Routes":"33, 60-1, 61-3"},{"StopId":166,"Code":"BX41","Name":"Bến xe An Sương","StopType":"Bến xe","Zone":"Quận 12","Ward":null,"AddressNo":"Bến xe An Sương","Street":"Quốc lộ 22","SupportDisability":"","Status":"Đang khai thác","Lng":106.61337280273438,"Lat":10.843737602233887,"Search":"BxAS BxAS Ql22","Routes":"04, 104, 122, 151, 27, 33, 41, 61-3, 62-5, 65, 71, 74, 85"}]