[{"StopId":7282,"Code":"BX101","Name":"Bến xe buýt Chợ Lớn - A","StopType":"Bến xe","Zone":"Quận 6","Ward":"Phường 01","AddressNo":"BẾN XE BUÝT CHỢ LỚN A","Street":"Lê Quang Sung","SupportDisability":"Có","Status":"Đang khai thác","Lng":106.652607,"Lat":10.751259,"Search":"BxbCL-A BXBCLA LQS","Routes":"103, 16"},{"StopId":620,"Code":"Q11 094","Name":"Cây Mai","StopType":"Biển treo","Zone":"Quận 11","Ward":null,"AddressNo":"384","Street":"Hồng Bàng","SupportDisability":"","Status":"Đang khai thác","Lng":106.64926,"Lat":10.753689,"Search":"CM 384 HB","Routes":"09, 139, 145, 16, 62-1, 62-10, 62-2, 62-6, 62-7, 62-8, 63-1, 81"},{"StopId":622,"Code":"Q11 095","Name":"Lò Siêu","StopType":"Trụ dừng","Zone":"Quận 11","Ward":null,"AddressNo":"508","Street":"Hồng Bàng","SupportDisability":"","Status":"Đang khai thác","Lng":106.646787,"Lat":10.753952,"Search":"LS 508 HB","Routes":"09, 139, 145, 16, 62-1, 62-10, 62-2, 62-6, 62-7, 62-8, 63-1, 81, 84"},{"StopId":624,"Code":"Q11 096","Name":"Cây Gõ","StopType":"Biển treo","Zone":"Quận 11","Ward":null,"AddressNo":"638-640","Street":"Hồng Bàng","SupportDisability":"","Status":"Đang khai thác","Lng":106.64403,"Lat":10.754269,"Search":"CG 638-640 HB","Routes":"09, 139, 145, 16, 62-1, 62-10, 62-2, 62-6, 62-7, 62-8, 63-1, 81, 84"},{"StopId":623,"Code":"Q11 098","Name":"Tân Hóa","StopType":"Trụ dừng","Zone":"Quận 11","Ward":null,"AddressNo":"732","Street":"Hồng Bàng","SupportDisability":"","Status":"Đang khai thác","Lng":106.639572,"Lat":10.754717,"Search":"TH 732 HB","Routes":"09, 139, 14, 16, 62-1, 62-10, 62-2, 62-6, 62-7, 62-8, 63-1, 81, 84"},{"StopId":626,"Code":"Q6 038","Name":"Cầu Ông Buông","StopType":"Biển treo","Zone":"Quận 6","Ward":null,"AddressNo":"832-834","Street":"Hồng Bàng","SupportDisability":"","Status":"Đang khai thác","Lng":106.635574,"Lat":10.754732,"Search":"COB 832-834 HB","Routes":"09, 139, 14, 16, 32, 62-1, 62-10, 62-2, 62-7, 62-8, 63-1, 84"},{"StopId":4219,"Code":"Q6 087","Name":"CoopMart Phú Lâm","StopType":"Trụ dừng","Zone":"Quận 6","Ward":null,"AddressNo":"6","Street":"Tân Hòa Đông","SupportDisability":"","Status":"Đang khai thác","Lng":106.633971,"Lat":10.754664,"Search":"CPL 6 THD","Routes":"16"},{"StopId":1948,"Code":"Q6 088","Name":"Chợ Phú Lâm","StopType":"Trụ dừng","Zone":"Quận 6","Ward":null,"AddressNo":"78","Street":"Tân Hòa Đông","SupportDisability":"","Status":"Đang khai thác","Lng":106.631649,"Lat":10.757215,"Search":"CPL 78 THD","Routes":"16"},{"StopId":1955,"Code":"Q6 089","Name":"Trường Tiểu học Trương Công Định","StopType":"Trụ dừng","Zone":"Quận 6","Ward":null,"AddressNo":"142A-146A","Street":"Tân Hòa Đông","SupportDisability":"","Status":"Đang khai thác","Lng":106.628956,"Lat":10.759628,"Search":"TThTCD 142A-146A THD","Routes":"16"},{"StopId":1949,"Code":"Q6 090","Name":"Chợ Tân Hòa Đông","StopType":"Biển treo","Zone":"Quận 6","Ward":null,"AddressNo":"172B","Street":"Tân Hòa Đông","SupportDisability":"","Status":"Đang khai thác","Lng":106.626611,"Lat":10.75985,"Search":"CTHD 172B THD","Routes":"16"},{"StopId":1956,"Code":"QBT 118","Name":"Ấp Chiến Lược","StopType":"Ô sơn","Zone":"Quận Bình Tân","Ward":null,"AddressNo":"224","Street":"Tân Hòa Đông","SupportDisability":"","Status":"Đang khai thác","Lng":106.622792,"Lat":10.761136,"Search":"ACL 224 THD","Routes":"16"},{"StopId":1950,"Code":"QBT 119","Name":"Phường Bình Trị Đông","StopType":"Ô sơn","Zone":"Quận Bình Tân","Ward":null,"AddressNo":"284-D18/36","Street":"Tân Hòa Đông","SupportDisability":"","Status":"Đang khai thác","Lng":106.620499,"Lat":10.763223,"Search":"PBTD 284-D18/36 THD","Routes":"16"},{"StopId":1958,"Code":"QBT 120","Name":"Ao cá Cây Bàng","StopType":"Ô sơn","Zone":"Quận Bình Tân","Ward":null,"AddressNo":"334","Street":"Tân Hòa Đông","SupportDisability":"","Status":"Đang khai thác","Lng":106.618546,"Lat":10.76497,"Search":"AcCB 334 THD","Routes":"16"},{"StopId":1952,"Code":"QBT 121","Name":"Mỹ Hảo","StopType":"Ô sơn","Zone":"Quận Bình Tân","Ward":null,"AddressNo":"378","Street":"Tân Hòa Đông","SupportDisability":"","Status":"Đang khai thác","Lng":106.616918,"Lat":10.766564,"Search":"MH 378 THD","Routes":"16"},{"StopId":2022,"Code":"QBT 310","Name":"Mỹ Hảo","StopType":"Ô sơn","Zone":"Quận Bình Tân","Ward":null,"AddressNo":"423","Street":"Tân Hòa Đông","SupportDisability":"","Status":"Đang khai thác","Lng":106.616274,"Lat":10.767049,"Search":"MH 423 THD","Routes":"16"},{"StopId":1954,"Code":"QBT 122","Name":"Tân Khai","StopType":"Ô sơn","Zone":"Quận Bình Tân","Ward":null,"AddressNo":"470","Street":"Tân Hòa Đông","SupportDisability":"","Status":"Đang khai thác","Lng":106.614504,"Lat":10.768761,"Search":"TK 470 THD","Routes":"16"},{"StopId":1960,"Code":"QBT 199","Name":"Lê Thái","StopType":"Ô sơn","Zone":"Quận Bình Tân","Ward":null,"AddressNo":"9","Street":"Trương Phước Phan","SupportDisability":"","Status":"Đang khai thác","Lng":106.613487,"Lat":10.767929,"Search":"LT 9 TPP","Routes":"16"},{"StopId":1957,"Code":"QBT 198","Name":"Làng nướng Tây Nguyên","StopType":"Ô sơn","Zone":"Quận Bình Tân","Ward":null,"AddressNo":"83","Street":"Trương Phước Phan","SupportDisability":"","Status":"Đang khai thác","Lng":106.613136,"Lat":10.765879,"Search":"LnTN 83 TPP","Routes":"16"},{"StopId":1959,"Code":"QBT 200","Name":"Chợ Bình Trị Đông cũ","StopType":"Ô sơn","Zone":"Quận Bình Tân","Ward":null,"AddressNo":"Đối diện 95","Street":"Đất Mới","SupportDisability":"","Status":"Đang khai thác","Lng":106.610107,"Lat":10.762324,"Search":"CBTDc Dd95 DM","Routes":"16"},{"StopId":1961,"Code":"QBT 201","Name":"Quán Cau Xanh","StopType":"Ô sơn","Zone":"Quận Bình Tân","Ward":null,"AddressNo":"132","Street":"Đất Mới","SupportDisability":"","Status":"Đang khai thác","Lng":106.609901,"Lat":10.765223,"Search":"QCX 132 DM","Routes":"16"},{"StopId":1964,"Code":"QBT 202","Name":"Đất Mới","StopType":"Ô sơn","Zone":"Quận Bình Tân","Ward":null,"AddressNo":"192","Street":"Đất Mới","SupportDisability":"","Status":"Đang khai thác","Lng":106.609825,"Lat":10.76687,"Search":"DM 192 DM","Routes":"16"},{"StopId":1783,"Code":"QBT 245","Name":"Trường tiểu học Bình Trị 1","StopType":"Trụ dừng","Zone":"Quận Bình Tân","Ward":"Phường Bình Trị Đông","AddressNo":"620","Street":"Hương lộ 2","SupportDisability":"","Status":"Đang khai thác","Lng":106.609231,"Lat":10.767813,"Search":"TthBT1 620 Hl2","Routes":"15, 16"},{"StopId":1784,"Code":"QBT 244","Name":"Hương lộ 2","StopType":"Ô sơn","Zone":"Quận Bình Tân","Ward":"Phường Bình Trị Đông","AddressNo":"694","Street":"Hương lộ 2","SupportDisability":"","Status":"Đang khai thác","Lng":106.606607,"Lat":10.766664,"Search":"Hl2 694 Hl2","Routes":"15, 16"},{"StopId":1963,"Code":"QBT 267","Name":"Phòng tiếp dân","StopType":"Trụ dừng","Zone":"Quận Bình Tân","Ward":"Phường Bình Trị Đông A","AddressNo":"160 (Mầm non Cẩm Tú)","Street":"Mã Lò","SupportDisability":"","Status":"Đang khai thác","Lng":106.603239,"Lat":10.768097,"Search":"Ptd 160(nCT ML","Routes":"16, 41"},{"StopId":1966,"Code":"QBT 265","Name":"Công ty Đại Càng Phát","StopType":"Trụ dừng","Zone":"Quận Bình Tân","Ward":"Phường Bình Trị Đông B","AddressNo":"290","Street":"Mã Lò","SupportDisability":"","Status":"Đang khai thác","Lng":106.602053,"Lat":10.771929,"Search":"CtDCP 290 ML","Routes":"16, 41"},{"StopId":1968,"Code":"QBT 243","Name":"Ngã 3 Áo Đôi","StopType":"Trụ dừng","Zone":"Quận Bình Tân","Ward":"Phường Bình Trị Đông B","AddressNo":"330","Street":"Mã Lò","SupportDisability":"","Status":"Đang khai thác","Lng":106.601313,"Lat":10.77479,"Search":"N3AD 330 ML","Routes":"16, 41"},{"StopId":1739,"Code":"QBT 134","Name":"Mã Lò","StopType":"Ô sơn","Zone":"Quận Bình Tân","Ward":null,"AddressNo":"973","Street":"Tân Kỳ Tân Quý","SupportDisability":"","Status":"Đang khai thác","Lng":106.599548,"Lat":10.78817,"Search":"ML 973 TKTQ","Routes":"16"},{"StopId":1742,"Code":"QBT 133","Name":"Cầu Kinh mới","StopType":"Ô sơn","Zone":"Quận Bình Tân","Ward":null,"AddressNo":"753-755","Street":"Tân Kỳ Tân Quý","SupportDisability":"","Status":"Đang khai thác","Lng":106.605995,"Lat":10.791951,"Search":"CKm 753-755 TKTQ","Routes":"16"},{"StopId":1741,"Code":"QBT 132","Name":"Ủy ban phường Bình Hưng Hòa","StopType":"Ô sơn","Zone":"Quận Bình Tân","Ward":null,"AddressNo":"Ủy ban phường Bình Hưng Hòa","Street":"Tân Kỳ Tân Quý","SupportDisability":"","Status":"Đang khai thác","Lng":106.6101,"Lat":10.794422,"Search":"?bpBHH ?bpBHH TKTQ","Routes":"16"},{"StopId":1965,"Code":"QBT 131","Name":"Nghĩa trang Bình Hưng Hòa","StopType":"Ô sơn","Zone":"Quận Bình Tân","Ward":null,"AddressNo":"Đối diện văn phòng nghĩa trang","Street":"Tân Kỳ Tân Quý","SupportDisability":"","Status":"Đang khai thác","Lng":106.612541,"Lat":10.795908,"Search":"NtBHH Ddvpnt TKTQ","Routes":"16"},{"StopId":1967,"Code":"QTP 085","Name":"Trạm Bình Long","StopType":"Trụ dừng","Zone":"Quận Tân Phú","Ward":"Phường Tân Qúy","AddressNo":"595-597","Street":"Tân Kỳ Tân Quý","SupportDisability":"","Status":"Đang khai thác","Lng":106.614241,"Lat":10.796944,"Search":"TBL 595-597 TKTQ","Routes":"16, 69"},{"StopId":1970,"Code":"QTP 086","Name":"Trường Tiểu Học Tân Quý","StopType":"Trụ dừng","Zone":"Quận Tân Phú","Ward":"Phường Tân Qúy","AddressNo":"545","Street":"Tân Kỳ Tân Quý","SupportDisability":"","Status":"Đang khai thác","Lng":106.61688,"Lat":10.79844,"Search":"TTHTQ 545 TKTQ","Routes":"16, 69"},{"StopId":1969,"Code":"QTP 211","Name":"Siêu thị Aeon","StopType":"Trụ dừng","Zone":"Quận Tân Phú","Ward":"Phường Sơn Kỳ","AddressNo":"Đối diện siêu thị Aeon","Street":"Bờ Bao tân Thắng","SupportDisability":"","Status":"Đang khai thác","Lng":106.618731,"Lat":10.801196,"Search":"StA DdstA BBtT","Routes":"16"},{"StopId":1971,"Code":"QTP 212","Name":"Ủy ban phường Sơn Kỳ","StopType":"Trụ dừng","Zone":"Quận Tân Phú","Ward":"Phường Sơn Kỳ","AddressNo":"Ủy ban phường Sơn Kỳ (93B)","Street":"Bờ Bao tân Thắng","SupportDisability":"","Status":"Đang khai thác","Lng":106.621875,"Lat":10.803061,"Search":"UbpSK UbpSK( BBtT","Routes":"16"},{"StopId":1972,"Code":"QTP 213","Name":"Chợ Sơn Kỳ","StopType":"Trụ dừng","Zone":"Quận Tân Phú","Ward":"Phường Sơn Kỳ","AddressNo":"Chợ Sơn kỳ","Street":"Bờ Bao tân Thắng","SupportDisability":"","Status":"Đang khai thác","Lng":106.621896,"Lat":10.805907,"Search":"CSK CSk BBtT","Routes":"16"},{"StopId":1974,"Code":"QTP 072","Name":"Trạm Bờ Bao Tân Thắng","StopType":"Trụ dừng","Zone":"Quận Tân Phú","Ward":"Phường Sơn Kỳ","AddressNo":"271","Street":"Lê Trọng Tấn","SupportDisability":"","Status":"Đang khai thác","Lng":106.622368,"Lat":10.80731,"Search":"TBBTT 271 LTT","Routes":"16, 41, 48, 69"},{"StopId":1975,"Code":"QTP 073","Name":"Nguyễn Hữu Tiến","StopType":"Trụ dừng","Zone":"Quận Tân Phú","Ward":"Phường Sơn Kỳ","AddressNo":"Đối diện 220 (số 213)","Street":"Lê Trọng Tấn","SupportDisability":"","Status":"Đang khai thác","Lng":106.624886,"Lat":10.806767,"Search":"NHT Dd220(213) LTT","Routes":"16, 41, 48, 69"},{"StopId":2604,"Code":"QTP 177","Name":"Lê Trọng Tấn","StopType":"Ô sơn","Zone":"Quận Tân Phú","Ward":"Phường Tây Thạnh","AddressNo":"Kế 16","Street":"Dương Đức Hiền","SupportDisability":"","Status":"Đang khai thác","Lng":106.627341,"Lat":10.807414,"Search":"LTT K16 DDH","Routes":"16, 32, 48"},{"StopId":2599,"Code":"QTP 178","Name":"Trung tâm Văn Hóa Quận Tân Phú","StopType":"Trụ dừng","Zone":"Quận Tân Phú","Ward":"Phường Tây Thạnh","AddressNo":"72","Street":"Dương Đức Hiền","SupportDisability":"","Status":"Đang khai thác","Lng":106.627078,"Lat":10.810438,"Search":"TtVHQTP 72 DDH","Routes":"16, 32, 48"},{"StopId":1998,"Code":"QTP 250","Name":"Lưu Chí Hiếu","StopType":"Trụ dừng","Zone":"Quận Tân Phú","Ward":"Phường Tây Thạnh","AddressNo":"kế 75/2","Street":"Chế Lan Viên","SupportDisability":"","Status":"Đang khai thác","Lng":106.628162,"Lat":10.811777,"Search":"LCH k75/2 CLV","Routes":"16, 48"},{"StopId":7130,"Code":"QTP 247","Name":"Trường Chinh","StopType":"Trụ dừng","Zone":"Quận Tân Phú","Ward":"Phường Tây Thạnh","AddressNo":"31-33","Street":"Chế Lan Viên","SupportDisability":"","Status":"Đang khai thác","Lng":106.632442,"Lat":10.812483,"Search":"TC 31-33 CLV","Routes":"16, 48"},{"StopId":1979,"Code":"BX49","Name":"Bến xe buýt Tân Phú","StopType":"Bến xe","Zone":"Quận Tân Phú","Ward":"Phường Tây Thạnh","AddressNo":"BẾN XE BUÝT TÂN PHÚ","Street":"Trường Chinh","SupportDisability":"","Status":"Đang khai thác","Lng":106.633537,"Lat":10.809163,"Search":"BxbTP BXBTP TC","Routes":"16, 48, 63-1"}]