[{"StopId":8206,"Code":"BX95","Name":"Ga Bến Thành","StopType":"Bến xe","Zone":"Quận 1","Ward":"Phường Bến Thành","AddressNo":"Cây xanh 2-4","Street":"Phạm Ngũ Lão","SupportDisability":"Có","Status":"Đang khai thác","Lng":106.696622,"Lat":10.770021,"Search":"GBT Cx2-4 PNL","Routes":"155, 156D, 156V"},{"StopId":1451,"Code":"Q1 118","Name":"Trần Hưng Đạo","StopType":"Trụ dừng","Zone":"Quận 1","Ward":null,"AddressNo":"197","Street":"Nguyễn Thái Học","SupportDisability":"","Status":"Đang khai thác","Lng":106.694984,"Lat":10.768461,"Search":"THD 197 NTH","Routes":"102, 140, 152, 155, 31, 38, 46, 56, 72"},{"StopId":1344,"Code":"Q1 119","Name":"Cầu Ông Lãnh","StopType":"Nhà chờ","Zone":"Quận 1","Ward":"Phường Cầu Ông Lãnh","AddressNo":"65G (75)","Street":"Nguyễn Thái Học","SupportDisability":"Có","Status":"Đang khai thác","Lng":106.696011,"Lat":10.766785,"Search":"COL 65G( NTH","Routes":"139, 140, 155, 31, 46, 72"},{"StopId":1196,"Code":"Q4 010","Name":"Hoàng Diệu","StopType":"Trụ dừng","Zone":"Quận 4","Ward":null,"AddressNo":"K48-K50","Street":"Hoàng Diệu","SupportDisability":"","Status":"Đang khai thác","Lng":106.699836,"Lat":10.760735,"Search":"HD K HD","Routes":"139, 140, 155, 38, 46, 72, 86"},{"StopId":3011,"Code":"Q4 017","Name":"Chùa Long Bửu","StopType":"Trụ dừng","Zone":"Quận 4","Ward":null,"AddressNo":"Hông Chùa Long Bửu","Street":"Khánh Hội","SupportDisability":"","Status":"Đang khai thác","Lng":106.697942,"Lat":10.760487,"Search":"CLB HCLB KH","Routes":"155, 46"},{"StopId":9579,"Code":"Q4 060","Name":"Chùa Long Bửu","StopType":"Ô sơn","Zone":"Quận 4","Ward":"Phường 01","AddressNo":"132","Street":"Bến Văn Đồn","SupportDisability":"Có","Status":"Đang khai thác","Lng":106.69954,"Lat":10.763678,"Search":"CLB 132 BVD","Routes":"155"},{"StopId":9580,"Code":"Q4 063","Name":"Chùa Long Bửu","StopType":"Ô sơn","Zone":"Quận 4","Ward":"Phường 04","AddressNo":"56","Street":"Bến Văn Đồn","SupportDisability":"Có","Status":"Đang khai thác","Lng":106.702607,"Lat":10.766223,"Search":"CLB 56 BVD","Routes":"155"},{"StopId":9550,"Code":"Q4 059","Name":"Đại học Luật","StopType":"Ô sơn","Zone":"Quận 4","Ward":"Phường 08","AddressNo":"02","Street":"Bến Vân Đồn","SupportDisability":"Có","Status":"Chưa khai thác","Lng":106.704769,"Lat":10.767899,"Search":"DhL 02 BVD","Routes":"155"},{"StopId":2116,"Code":"Q4 026","Name":"Đại học Luật","StopType":"Trụ dừng","Zone":"Quận 4","Ward":null,"AddressNo":"8A","Street":"Nguyễn Tất Thành","SupportDisability":"","Status":"Đang khai thác","Lng":106.706032,"Lat":10.767288,"Search":"DhL 8A NTT","Routes":"155, 20, 75"},{"StopId":9553,"Code":"Q4 061","Name":"Đại học Luật","StopType":"Ô sơn","Zone":"Quận 4","Ward":"Phường 01","AddressNo":"Cây xanh số 24 ","Street":"Đoàn Như Hải","SupportDisability":"Có","Status":"Đang khai thác","Lng":106.705404,"Lat":10.766367,"Search":"DhL Cxs24 DNH","Routes":"155"},{"StopId":9552,"Code":"Q4 062","Name":"Đoàn Văn Bơ","StopType":"Ô sơn","Zone":"Quận 4","Ward":"Phường 13","AddressNo":"52 ","Street":"Nguyễn Trường Tộ","SupportDisability":"Có","Status":"Đang khai thác","Lng":106.70485,"Lat":10.765296,"Search":"DVB 52 NTT","Routes":"155"},{"StopId":851,"Code":"Q4 007","Name":"Đoàn Văn Bơ","StopType":"Trụ dừng","Zone":"Quận 4","Ward":null,"AddressNo":"106-108","Street":"Hoàng Diệu","SupportDisability":"","Status":"Đang khai thác","Lng":106.704031,"Lat":10.763744,"Search":"DVB 106-108 HD","Routes":"102, 155, 20, 31, 34, 75"},{"StopId":7265,"Code":"Q1 179","Name":"Trạm Trung chuyển trên đường Hàm Nghi","StopType":"Nhà chờ","Zone":"Quận 1","Ward":"Phường Nguyễn Thái Bình","AddressNo":"Hàm nghi 5","Street":"Hàm Nghi","SupportDisability":"Có","Status":"Đang khai thác","Lng":106.700259,"Lat":10.770911,"Search":"TTctdHN Hn5 HN","Routes":"03, 155, 45, 53"},{"StopId":7693,"Code":"Q1 1950","Name":"Nam Kỳ Khởi Nghĩa","StopType":"Nhà chờ","Zone":"Quận 1","Ward":"Phường Nguyễn Thái Bình","AddressNo":"93-95","Street":"Hàm Nghi","SupportDisability":"Có","Status":"Đang khai thác","Lng":106.701354,"Lat":10.770875,"Search":"NKKN 93-95 HN","Routes":"01, 03, 04, 109, 152, 155, 18, 19, 20, 31, 36, 45, 52, 53, 56, 75, 88, 93"},{"StopId":1256,"Code":"Q1 195","Name":"Chợ Cũ","StopType":"Nhà chờ","Zone":"Quận 1","Ward":"Phường Nguyễn Thái Bình","AddressNo":"89A","Street":"Hàm Nghi","SupportDisability":"","Status":"Đang khai thác","Lng":106.701998,"Lat":10.770811,"Search":"CC 89A HN","Routes":"01, 03, 04, 109, 152, 155, 18, 19, 20, 31, 36, 45, 52, 53, 56, 75, 86, 88, 93"},{"StopId":4271,"Code":"Q1 078","Name":"Đền Thờ Ấn Giáo, Pasteur","StopType":"Nhà chờ","Zone":"Quận 1","Ward":null,"AddressNo":"Đền Thờ Ấn Giáo","Street":"Pasteur","SupportDisability":"","Status":"Đang khai thác","Lng":106.70139,"Lat":10.773595,"Search":"DTAGP DTAG P","Routes":"04, 109, 152, 155, 171, 18, 31, 36, 52, 93"},{"StopId":2773,"Code":"Q1 049","Name":"Chợ Bến Thành","StopType":"Nhà chờ","Zone":"Quận 1","Ward":"Phường Bến Thành","AddressNo":"106","Street":"Lê Lợi","SupportDisability":"","Status":"Đang khai thác","Lng":106.699337,"Lat":10.772661,"Search":"CBT 106 LL","Routes":"155, 156D"},{"StopId":8206,"Code":"BX95","Name":"Ga Bến Thành","StopType":"Bến xe","Zone":"Quận 1","Ward":"Phường Bến Thành","AddressNo":"Cây xanh 2-4","Street":"Phạm Ngũ Lão","SupportDisability":"Có","Status":"Đang khai thác","Lng":106.696622,"Lat":10.770021,"Search":"GBT Cx2-4 PNL","Routes":"155, 156D, 156V"}]