[{"StopId":7697,"Code":"Q1 204","Name":"Nhà hát Thành phố","StopType":"Trụ dừng","Zone":"Quận 1","Ward":"Phường Bến Nghé","AddressNo":"Cây xanh số 8","Street":"Công trường Lam Sơn","SupportDisability":"","Status":"Đang khai thác","Lng":106.702926,"Lat":10.776909,"Search":"NhTp Cxs8 CtLS","Routes":"DL02"},{"StopId":7004,"Code":"OPH","Name":"Ga Nhà hát Thành phố","StopType":"Ga Metro Số 1","Zone":"Quận 1","Ward":"Phường Bến Nghé","AddressNo":"Nhà hát Thành phố","Street":"Đồng Khởi","SupportDisability":"Có","Status":"Đang khai thác","Lng":106.701976,"Lat":10.775275,"Search":"GNhTp NhTp DK","Routes":"DL02, MRT1"},{"StopId":7699,"Code":"Q4 057","Name":"Bến nhà Rồng","StopType":"Trụ dừng","Zone":"Quận 4","Ward":"Phường 12","AddressNo":"Cột đèn thứ 2 (Cty cảng Sg)","Street":"Nguyễn Tất Thành","SupportDisability":"","Status":"Đang khai thác","Lng":106.705951,"Lat":10.767855,"Search":"BnR Cdt2(cS NTT","Routes":"DL02, DL05"},{"StopId":31,"Code":"Q1 024","Name":"Bến Bạch Đằng","StopType":"Nhà chờ","Zone":"Quận 1","Ward":null,"AddressNo":"Bến thủy nội địa Thủ Thiêm","Street":"Tôn Đức Thắng","SupportDisability":"","Status":"Đang khai thác","Lng":106.706654,"Lat":10.774094,"Search":"BBD BtndTT TDT","Routes":"01, 03, 19, 45, 53, 56, 88, DL01, DL02, DL05"},{"StopId":7615,"Code":"Q1 202","Name":"Bảo tàng Lịch sử Việt Nam","StopType":"Trụ dừng","Zone":"Quận 1","Ward":"Phường Bến Nghé","AddressNo":"Cây xanh số 16","Street":"Lê Duẩn","SupportDisability":"","Status":"Đang khai thác","Lng":106.704352,"Lat":10.786658,"Search":"BtLsVN Cxs16 LD","Routes":"171, 19, DL01, DL02"},{"StopId":377,"Code":"Q3 106","Name":"Bảo tàng chứng tích chiến tranh","StopType":"Nhà chờ","Zone":"Quận 3","Ward":null,"AddressNo":"28","Street":"Võ Văn Tần","SupportDisability":"Có","Status":"Đang khai thác","Lng":106.69254,"Lat":10.779143,"Search":"Btctct 28 VVT","Routes":"05, 06, 14, DL01, DL02, DL05"},{"StopId":7277,"Code":"Q1 191","Name":"Nguyễn Thị Nghĩa","StopType":"Trụ dừng","Zone":"Quận 1","Ward":"Phường Phạm Ngũ Lão","AddressNo":"187","Street":"Phạm Ngũ Lão","SupportDisability":"Có","Status":"Đang khai thác","Lng":106.693699,"Lat":10.768788,"Search":"NTN 187 PNL","Routes":"03, 04, 102, 109, 13, 140, 156V, 171, 172, 18, 19, 20, 28, 34, 36, 39, 46, 52, 65, 69, 72, 72-2B, 93, D4, DL01, DL02, DL05"},{"StopId":241,"Code":"Q1 105","Name":"Chùa Bà Ấn","StopType":"Trụ dừng","Zone":"Quận 1","Ward":null,"AddressNo":"42","Street":"Trương Định","SupportDisability":"","Status":"Đang khai thác","Lng":106.695839,"Lat":10.772419,"Search":"CBA 42 TD","Routes":"156V, 44, DL02"},{"StopId":7698,"Code":"Q1 206","Name":"Dinh Độc Lập","StopType":"Trụ dừng","Zone":"Quận 1","Ward":"Phường Bến Nghé","AddressNo":"Cây xanh số 191","Street":"Lê Duẩn","SupportDisability":"","Status":"Đang khai thác","Lng":106.69688,"Lat":10.778579,"Search":"DDL Cxs191 LD","Routes":"DL02, DL05"},{"StopId":2568,"Code":"Q1 005","Name":"Nhà Thờ Đức Bà","StopType":"Trụ dừng","Zone":"Quận 1","Ward":null,"AddressNo":"1","Street":"Công xã Paris","SupportDisability":"","Status":"Đang khai thác","Lng":106.699154,"Lat":10.779233,"Search":"NTDB 1 CxP","Routes":"36, DL02, DL05"},{"StopId":7697,"Code":"Q1 204","Name":"Nhà hát Thành phố","StopType":"Trụ dừng","Zone":"Quận 1","Ward":"Phường Bến Nghé","AddressNo":"Cây xanh số 8","Street":"Công trường Lam Sơn","SupportDisability":"","Status":"Đang khai thác","Lng":106.702926,"Lat":10.776909,"Search":"NhTp Cxs8 CtLS","Routes":"DL02"}]