[{"StopId":8108,"Code":"BX 108","Name":"BẾN XE BUÝT GA BÌNH THÁI","StopType":"Bến xe","Zone":"TP. Thủ Đức - KV2","Ward":"Phường Phước Long A","AddressNo":"360","Street":"Võ Nguyên Giáp","SupportDisability":"Có","Status":"Chưa khai thác","Lng":106.764215,"Lat":10.831168,"Search":"BXBGBT 360 VNG","Routes":"162, 162V, 163D, 163V, 169D, 169V"},{"StopId":8093,"Code":"TPTĐ 223","Name":"Ga Metro Bình Thái","StopType":"Nhà chờ","Zone":"TP. Thủ Đức - KV2","Ward":"Phường Phước Long A","AddressNo":"Công ty TNHH Đầu tư Metro Star (360)","Street":"Song Hành phải Xa Lộ Hà Nội","SupportDisability":"Có","Status":"Đang khai thác","Lng":106.76485,"Lat":10.832103,"Search":"GMBT CtTDtMS( SHpXLHN","Routes":"162, 162V, 163V, 169D, 169V"},{"StopId":8191,"Code":"TPTĐ 267","Name":"Ngã tư Bình Thái","StopType":"Trụ dừng","Zone":"TP. Thủ Đức - KV2","Ward":"Phường Phước Long B","AddressNo":"Trụ chiếu sáng 43","Street":"Song Hành phải XLHN","SupportDisability":"Có","Status":"Đang khai thác","Lng":106.767282,"Lat":10.837115,"Search":"NtBT Tcs43 SHpX","Routes":"162, 162V"},{"StopId":7967,"Code":"TPTĐ 099","Name":"Trung tâm Xúc tiến Thương mại và Đầu tư Thành phố Thủ Đức","StopType":"Trụ dừng","Zone":"TP. Thủ Đức - KV2","Ward":"Phường Phước Long B","AddressNo":"Công ty TNHH Thương mại XNK Lê Phượng","Street":"Song Hành phải Xa Lộ Hà Nội","SupportDisability":"Có","Status":"Đang khai thác","Lng":106.768775,"Lat":10.839664,"Search":"TtXtTmvDtTpTD CtTTmXLP SHpXLHN","Routes":"162, 162V"},{"StopId":9555,"Code":"HCM 0011","Name":"Ban Quản lý Đường sắt đô thị TP. HCM","StopType":"Ô sơn","Zone":"TP. Thủ Đức - KV2","Ward":"Phường Hiệp Phú","AddressNo":"Đối diện Công ty CP Địa ốc 9","Street":"Hẻm 674","SupportDisability":"Có","Status":"Đang khai thác","Lng":106.77015,"Lat":10.84027,"Search":"BQlDsdtTH DdCtCDo9 H674","Routes":"162"},{"StopId":7969,"Code":"TPTĐ 101","Name":"Chung cư Centum Weath Complex","StopType":"Trụ dừng","Zone":"TP. Thủ Đức - KV2","Ward":"Phường Hiệp Phú","AddressNo":"Chung cư Centum Weath Complex","Street":"Phan Chu Trinh","SupportDisability":"Có","Status":"Đang khai thác","Lng":106.770777,"Lat":10.841847,"Search":"CcCWC CcCWC PCT","Routes":"162, 162V"},{"StopId":8175,"Code":"TPTĐ 251","Name":"Công ty May Việt Thắng","StopType":"Trụ dừng","Zone":"TP. Thủ Đức - KV2","Ward":"Phường Hiệp Phú","AddressNo":"đối diện xưởng thực nghiệm (số 36)","Street":"Quang Trung","SupportDisability":"Có","Status":"Đang khai thác","Lng":106.77269,"Lat":10.83986,"Search":"CtMVT ddxtn(36) QT","Routes":"162, 162V"},{"StopId":7971,"Code":"TPTĐ 103","Name":"Trường THPT Hoa Lư","StopType":"Nhà chờ","Zone":"TP. Thủ Đức - KV2","Ward":"Phường Tăng Nhơn Phú B","AddressNo":"151","Street":"Trương Văn Hải","SupportDisability":"Có","Status":"Đang khai thác","Lng":106.773727,"Lat":10.838825,"Search":"TTHL 151 TVH","Routes":"162, 162V"},{"StopId":7973,"Code":"TPTĐ 105","Name":"Kho SAM – Công ty Gilimex","StopType":"Trụ dừng","Zone":"TP. Thủ Đức - KV2","Ward":"Phường Tăng Nhơn Phú B","AddressNo":"97-99","Street":"Trương Văn Hải","SupportDisability":"Có","Status":"Đang khai thác","Lng":106.777129,"Lat":10.839981,"Search":"KS–CtG 97-99 TVH","Routes":"162, 162V"},{"StopId":7975,"Code":"TPTĐ 107","Name":"Đường sách TP. Thủ Đức","StopType":"Ô sơn","Zone":"TP. Thủ Đức - KV2","Ward":"Phường Hiệp Phú","AddressNo":"Trường Trung Cấp Đông Sài Gòn","Street":"Hồ Thị Tư","SupportDisability":"Có","Status":"Đang khai thác","Lng":106.77917,"Lat":10.843881,"Search":"DsTTD TTCDSG HTT","Routes":"162, 162V"},{"StopId":1495,"Code":"Q9 091","Name":"Nhà sách Thành Nghĩa","StopType":"Trụ dừng","Zone":"TP. Thủ Đức - KV2","Ward":null,"AddressNo":"142-144","Street":"Lê Văn Việt","SupportDisability":"","Status":"Đang khai thác","Lng":106.780563,"Lat":10.84486,"Search":"NsTN 142-144 LVV","Routes":"141, 162, 162V, 56, 57, 76"},{"StopId":1497,"Code":"Q9 092","Name":"Trạm y tế Phường Hiệp Phú","StopType":"Trụ dừng","Zone":"TP. Thủ Đức - KV2","Ward":"Phường Tăng Nhơn Phú B","AddressNo":"192-194 (188)","Street":"Lê Văn Việt","SupportDisability":"","Status":"Đang khai thác","Lng":106.782028,"Lat":10.844114,"Search":"TytPHP 192-194( LVV","Routes":"141, 162, 162V, 56, 76, 99"},{"StopId":1499,"Code":"Q9 093","Name":"Chợ Hiệp Phú","StopType":"Trụ dừng","Zone":"TP. Thủ Đức - KV2","Ward":"Phường Tăng Nhơn Phú B","AddressNo":"(278) 284","Street":"Lê Văn Việt","SupportDisability":"","Status":"Đang khai thác","Lng":106.784261,"Lat":10.844128,"Search":"CHP (284 LVV","Routes":"141, 162, 162V, 56, 76, 99"},{"StopId":3748,"Code":"Q9 144","Name":"Ngã 3 Lê Văn Việt","StopType":"Trụ dừng","Zone":"TP. Thủ Đức - KV2","Ward":"Phường Tăng Nhơn Phú A","AddressNo":"28A","Street":"Man Thiện","SupportDisability":"","Status":"Đang khai thác","Lng":106.786761,"Lat":10.846004,"Search":"N3LVV 28A MT","Routes":"162, 162V, 76"},{"StopId":3746,"Code":"Q9 143","Name":"Học Viện Bưu chính","StopType":"Trụ dừng","Zone":"TP. Thủ Đức - KV2","Ward":null,"AddressNo":"A1/3 (số 3)","Street":"Man Thiện","SupportDisability":"","Status":"Đang khai thác","Lng":106.787383,"Lat":10.84859,"Search":"HVBc A(3) MT","Routes":"162, 162V, 76"},{"StopId":3747,"Code":"Q9 142","Name":"Học viện Chính trị - Hành chính","StopType":"Trụ dừng","Zone":"TP. Thủ Đức - KV2","Ward":null,"AddressNo":"Đối diện học viện Chính trị - Hành chính","Street":"Man Thiện","SupportDisability":"","Status":"Đang khai thác","Lng":106.787764,"Lat":10.850245,"Search":"HvCt-Hc DdhvCt-Hc MT","Routes":"162, 162V, 76"},{"StopId":3749,"Code":"Q9 141","Name":"Chung Cư C3","StopType":"Ô sơn","Zone":"TP. Thủ Đức - KV2","Ward":"Phường Tăng Nhơn Phú A","AddressNo":"152","Street":"Man Thiện","SupportDisability":"","Status":"Đang khai thác","Lng":106.79184,"Lat":10.853032,"Search":"CCC 152 MT","Routes":"162, 76"},{"StopId":3751,"Code":"Q9 140","Name":"Trường mầm non Tuổi Hồng","StopType":"Ô sơn","Zone":"TP. Thủ Đức - KV2","Ward":"Phường Tăng Nhơn Phú A","AddressNo":"212-214 (263-265)","Street":"Man Thiện","SupportDisability":"","Status":"Đang khai thác","Lng":106.79554,"Lat":10.850469,"Search":"TmnTH 212-214( MT","Routes":"162, 76"},{"StopId":3750,"Code":"Q9 139","Name":"Chung Cư C5","StopType":"Ô sơn","Zone":"TP. Thủ Đức - KV2","Ward":"Phường Tăng Nhơn Phú A","AddressNo":"272","Street":"Man Thiện","SupportDisability":"","Status":"Đang khai thác","Lng":106.798729,"Lat":10.847784,"Search":"CCC 272 MT","Routes":"162, 76"},{"StopId":1530,"Code":"Q9 103","Name":"Đại Học GTVT","StopType":"Trụ dừng","Zone":"TP. Thủ Đức - KV2","Ward":null,"AddressNo":"Trung tâm thông tin thư viện","Street":"Lê Văn Việt","SupportDisability":"","Status":"Đang khai thác","Lng":106.794421,"Lat":10.845566,"Search":"DHG Tttttv LVV","Routes":"141, 162, 56, 99"},{"StopId":1535,"Code":"Q9 104","Name":"Bệnh viện Quận 9","StopType":"Trụ dừng","Zone":"TP. Thủ Đức - KV2","Ward":"Phường Tăng Nhơn Phú A","AddressNo":"99","Street":"Lê Văn Việt","SupportDisability":"","Status":"Đang khai thác","Lng":106.790349,"Lat":10.844607,"Search":"BvQ9 99 LVV","Routes":"141, 162, 56, 99"},{"StopId":1532,"Code":"Q9 105","Name":"Chợ Tăng Nhơn Phú A","StopType":"Ô sơn","Zone":"TP. Thủ Đức - KV2","Ward":"Phường Tăng Nhơn Phú A","AddressNo":"Đối diện chợ Tăng Nhơn Phú","Street":"Lê Văn Việt","SupportDisability":"","Status":"Đang khai thác","Lng":106.788209,"Lat":10.844923,"Search":"CTNPA DdcTNP LVV","Routes":"141, 162, 56, 99"},{"StopId":1537,"Code":"Q9 106","Name":"Chợ Hiệp Phú","StopType":"Ô sơn","Zone":"TP. Thủ Đức - KV2","Ward":"Phường Hiệp Phú","AddressNo":"241-243 (249)","Street":"Lê Văn Việt","SupportDisability":"","Status":"Đang khai thác","Lng":106.784084,"Lat":10.84427,"Search":"CHP 241-243( LVV","Routes":"141, 162, 56, 76, 99"},{"StopId":1534,"Code":"Q9 107","Name":"Trạm y tế Phường Hiệp Phú","StopType":"Trụ dừng","Zone":"TP. Thủ Đức - KV2","Ward":"Phường Hiệp Phú","AddressNo":"189-191","Street":"Lê Văn Việt","SupportDisability":"","Status":"Đang khai thác","Lng":106.781723,"Lat":10.844381,"Search":"TytPHP 189-191 LVV","Routes":"141, 162, 56, 76, 99"},{"StopId":1536,"Code":"Q9 091","Name":"Nhà sách Thành Nghĩa","StopType":"Trụ dừng","Zone":"TP. Thủ Đức - KV2","Ward":null,"AddressNo":"Đối diện 140-142","Street":"Lê Văn Việt","SupportDisability":"","Status":"Đang khai thác","Lng":106.780377,"Lat":10.845176,"Search":"NsTN Dd140-142 LVV","Routes":"141, 162, 56, 57, 76"},{"StopId":1539,"Code":"Q9 109","Name":"Bệnh viện 7C-Trường Quân y 2","StopType":"Ô sơn","Zone":"TP. Thủ Đức - KV2","Ward":null,"AddressNo":"91-93-95","Street":"Lê Văn Việt","SupportDisability":"","Status":"Đang khai thác","Lng":106.777512,"Lat":10.846799,"Search":"Bv7C-TruongQy2 91-93-95 LVV","Routes":"141, 162, 56, 57, 76"},{"StopId":1538,"Code":"Q9 110","Name":"Siêu thị Coopmart","StopType":"Trụ dừng","Zone":"TP. Thủ Đức - KV2","Ward":"Phường Hiệp Phú","AddressNo":"21 (17-19)","Street":"Lê Văn Việt","SupportDisability":"","Status":"Đang khai thác","Lng":106.775045,"Lat":10.848411,"Search":"StC 21( LVV","Routes":"141, 162, 56, 57, 76"},{"StopId":8065,"Code":"TPTĐ 195","Name":"Đường Chu Mạnh Trinh","StopType":"Trụ dừng","Zone":"TP. Thủ Đức - KV3","Ward":"Phường Bình Thọ","AddressNo":"99 - 101","Street":"Thống Nhất","SupportDisability":"Có","Status":"Đang khai thác","Lng":106.770703,"Lat":10.847105,"Search":"DCMT 99-101 TN","Routes":"162, 168D, 168V"},{"StopId":9547,"Code":"BX99","Name":"Ga Thủ Đức","StopType":"Bến xe","Zone":"TP. Thủ Đức - KV3","Ward":"Phường Bình Thọ","AddressNo":"Cây xanh 2E-2F","Street":"Hàn Thuyên","SupportDisability":"Có","Status":"Đang khai thác","Lng":106.770867,"Lat":10.845813,"Search":"GTD Cx2E-2F HT","Routes":"162"}]