[{"StopId":7208,"Code":"BXLT Bien Hoa","Name":"Bến xe Biên Hòa","StopType":"Bến xe","Zone":"Ngoại thành","Ward":null,"AddressNo":"4 Nguyễn Ái Quốc","Street":"Quốc lộ 1K","SupportDisability":"Có","Status":"Đang khai thác","Lng":106.808953,"Lat":10.954127,"Search":"BxBH 4NAQ Ql1K","Routes":"05, 60-1, 60-5, 60-7"},{"StopId":7700,"Code":"Q9 286","Name":"Chung Cư Samsora Riverside","StopType":"Trụ dừng","Zone":"TP. Thủ Đức - KV2","Ward":null,"AddressNo":"Vườn kiểng Mai Vàng (đ/d 254/10)","Street":"Quốc Lộ 1","SupportDisability":"Có","Status":"Đang khai thác","Lng":106.833655,"Lat":10.899661,"Search":"CCSR VkMV(254/10) QL1","Routes":"60-1, 60-2, 60-3, 60-7"},{"StopId":1186,"Code":"Q9 230","Name":"Công ty TNHH Thuận Thành Tâm","StopType":"Trụ dừng","Zone":"TP. Thủ Đức - KV2","Ward":null,"AddressNo":"Công ty TNHH Thuận Thành Tâm","Street":"Quốc lộ 1","SupportDisability":"","Status":"Đang khai thác","Lng":106.822804,"Lat":10.892685,"Search":"CtTTTT CtTTTT Ql1","Routes":"60-1, 60-2, 60-3, 60-7"},{"StopId":1188,"Code":"Q9 231","Name":"Công ty Dosan","StopType":"Trụ dừng","Zone":"TP. Thủ Đức - KV2","Ward":null,"AddressNo":"Công ty Dosan","Street":"Quốc lộ 1","SupportDisability":"","Status":"Đang khai thác","Lng":106.820047,"Lat":10.888961,"Search":"CtD CtD Ql1","Routes":"60-1, 60-2, 60-3, 60-7"},{"StopId":1187,"Code":"Q9 232","Name":"Công ty Cp Đức Khải","StopType":"Trụ dừng","Zone":"TP. Thủ Đức - KV2","Ward":null,"AddressNo":"Công ty Cp Đức Khải","Street":"Quốc lộ 1","SupportDisability":"","Status":"Đang khai thác","Lng":106.812918,"Lat":10.879241,"Search":"CtCDK CtCDK Ql1","Routes":"60-1, 60-2, 60-3, 60-7"},{"StopId":572,"Code":"QTD 175","Name":"Đại học An Ninh Nhân Dân","StopType":"Trụ dừng","Zone":"TP. Thủ Đức - KV3","Ward":null,"AddressNo":"Nhà máy Tiến Thành","Street":"Quốc lộ 1","SupportDisability":"","Status":"Đang khai thác","Lng":106.806657,"Lat":10.871402,"Search":"DhANND NmTT Ql1","Routes":"08, 10, 150, 164V, 166, 19, 33, 53, 60-1, 60-2, 60-3, 60-7, 61-9, 67, 76, 99"},{"StopId":576,"Code":"QTD 176","Name":"Trường giáo dục Quốc phòng","StopType":"Trụ dừng","Zone":"TP. Thủ Đức - KV3","Ward":null,"AddressNo":"Trường giáo dục Quốc phòng","Street":"Quốc lộ 1","SupportDisability":"","Status":"Đang khai thác","Lng":106.804727,"Lat":10.869172,"Search":"TgdQp TgdQp Ql1","Routes":"08, 10, 150, 164V, 166, 19, 33, 53, 60-2, 60-3, 60-7, 61-9, 67, 76, 99"},{"StopId":574,"Code":"QTD 177","Name":"Khu DL Suối Tiên","StopType":"Nhà chờ","Zone":"TP. Thủ Đức - KV3","Ward":"Phường Linh Trung","AddressNo":"9/29","Street":"Quốc lộ 1","SupportDisability":"","Status":"Đang khai thác","Lng":106.801116,"Lat":10.86605,"Search":"KDST 9/29 Ql1","Routes":"08, 10, 150, 19, 33, 53, 60-1, 60-2, 60-3, 60-7, 61-9, 67, 76, 93, 99"},{"StopId":537,"Code":"Q9 223","Name":"Suối Tiên","StopType":"Trụ dừng","Zone":"TP. Thủ Đức - KV2","Ward":"Phường Tân Phú","AddressNo":"Suối Tiên","Street":"Quốc lộ 1","SupportDisability":"","Status":"Đang khai thác","Lng":106.802081,"Lat":10.866113,"Search":"ST ST Ql1","Routes":"08, 10, 150, 19, 33, 53, 60-1, 60-2, 60-3, 60-7, 61-9, 67, 76, 93, 99"},{"StopId":1919,"Code":"Q9 225","Name":"Nghĩa trang liệt sĩ TP.HCM","StopType":"Trụ dừng","Zone":"TP. Thủ Đức - KV2","Ward":"Phường Tân Phú","AddressNo":"Nghĩa trang liệt sĩ Thành phố HCM","Street":"Quốc lộ 1","SupportDisability":"","Status":"Đang khai thác","Lng":106.809458,"Lat":10.873515,"Search":"NtlsT NtlsTpH Ql1","Routes":"08, 10, 150, 164V, 19, 33, 53, 56, 60-1, 60-2, 60-3, 60-7, 61-05, 61-9, 67, 93, 99"},{"StopId":7695,"Code":"BX 33","Name":"Bến xe Miền Đông mới","StopType":"Bến xe","Zone":"TP. Thủ Đức - KV2","Ward":"Phường Long Bình","AddressNo":"Bến xe Miền Đông mới","Street":"Quốc lộ 1","SupportDisability":"Có","Status":"Đang khai thác","Lng":106.81497,"Lat":10.878606,"Search":"BxMDm BxMDm Ql1","Routes":"150, 56, 60-7, 61-05, 61-77, 61-9, 67, 76, 93"}]