[{"StopId":3771,"Code":"BX 83","Name":"Đình Đồng Hòa","StopType":"Bến xe","Zone":"Huyện Cần Giờ","Ward":null,"AddressNo":"ĐẦU BẾN ĐỒNG HÒA","Street":"Duyên Hải","SupportDisability":"","Status":"Đang khai thác","Lng":106.881126,"Lat":10.380525,"Search":"DDH DBDH DH","Routes":"77"},{"StopId":3772,"Code":"HCG 035","Name":"Quán cafe 207","StopType":"Ô sơn","Zone":"Huyện Cần Giờ","Ward":null,"AddressNo":"Đối diện trường Đồng Hòa","Street":"Duyên Hải","SupportDisability":"","Status":"Đang khai thác","Lng":106.886848,"Lat":10.380061,"Search":"Qc207 DdtDH DH","Routes":"77"},{"StopId":3770,"Code":"HCG 036","Name":"Đình Ông Phước","StopType":"Ô sơn","Zone":"Huyện Cần Giờ","Ward":null,"AddressNo":"Đình Ông Phước","Street":"Duyên Hải","SupportDisability":"","Status":"Đang khai thác","Lng":106.895058,"Lat":10.380325,"Search":"DOP DOP DH","Routes":"77"},{"StopId":3774,"Code":"HCG 038","Name":"Đình Long Thạnh","StopType":"Ô sơn","Zone":"Huyện Cần Giờ","Ward":null,"AddressNo":"Đối diện 1/40","Street":"Duyên Hải","SupportDisability":"","Status":"Đang khai thác","Lng":106.911875,"Lat":10.386065,"Search":"DLT Dd1/40 DH","Routes":"77"},{"StopId":3674,"Code":"HCG 039","Name":"Ủy ban xã Long Hòa","StopType":"Ô sơn","Zone":"Huyện Cần Giờ","Ward":null,"AddressNo":"Đối diện 1/147","Street":"Duyên Hải","SupportDisability":"","Status":"Đang khai thác","Lng":106.9121,"Lat":10.389917,"Search":"?bxLH Dd1/147 DH","Routes":"77"},{"StopId":3775,"Code":"HCG 040","Name":"Cửa hàng Vĩnh Tiến","StopType":"Ô sơn","Zone":"Huyện Cần Giờ","Ward":null,"AddressNo":"Cửa hàng Vĩnh Tiến","Street":"Duyên Hải","SupportDisability":"","Status":"Đang khai thác","Lng":106.911162,"Lat":10.392165,"Search":"ChVT ChVT DH","Routes":"77"},{"StopId":3776,"Code":"HCG 041","Name":"Huy Hoàng","StopType":"Ô sơn","Zone":"Huyện Cần Giờ","Ward":null,"AddressNo":"2/222","Street":"Duyên Hải","SupportDisability":"","Status":"Đang khai thác","Lng":106.913018,"Lat":10.394455,"Search":"HH 2/222 DH","Routes":"77"},{"StopId":3673,"Code":"HCG 020","Name":"Cây xăng Đức Thanh","StopType":"Nhà chờ","Zone":"Huyện Cần Giờ","Ward":null,"AddressNo":"Đ/d Cây xăng Đức Thanh","Street":"Duyên Hải","SupportDisability":"","Status":"Đang khai thác","Lng":106.916907,"Lat":10.39512,"Search":"CxDT DCxDT DH","Routes":"75, 77, 90"},{"StopId":7674,"Code":"HCG 136","Name":"Bệnh viện Huyện Cần Giờ","StopType":"Nhà chờ","Zone":"Huyện Cần Giờ","Ward":"Thị trấn Cần Thạnh","AddressNo":"BV huyện Cần Giờ","Street":"Lương Văn Nho","SupportDisability":"Có","Status":"Đang khai thác","Lng":106.937313,"Lat":10.40544,"Search":"BvHCG BhCG LVN","Routes":"77"},{"StopId":6924,"Code":"HCG 103","Name":"Trường THPT Cần Thạnh","StopType":"Ô sơn","Zone":"Huyện Cần Giờ","Ward":"Thị trấn Cần Thạnh","AddressNo":"Đối diện Trường THPT Cần Thạnh","Street":"Duyên Hải","SupportDisability":"","Status":"Đang khai thác","Lng":106.94919,"Lat":10.402021,"Search":"TTCT DdTTCT DH","Routes":"75, 77, 90"},{"StopId":6922,"Code":"HCG 101","Name":"Đài liệt sỹ","StopType":"Ô sơn","Zone":"Huyện Cần Giờ","Ward":"Thị trấn Cần Thạnh","AddressNo":"Đài liệt sỹ","Street":"Duyên Hải","SupportDisability":"","Status":"Đang khai thác","Lng":106.953605,"Lat":10.402369,"Search":"Dls Dls DH","Routes":"75, 77, 90"},{"StopId":6920,"Code":"HCG 099","Name":"Trung tâm BDCT Duyên Hải (cũ)","StopType":"Ô sơn","Zone":"Huyện Cần Giờ","Ward":"Thị trấn Cần Thạnh","AddressNo":"Trung tâm BDCT Duyên Hải (cũ)","Street":"Duyên Hải","SupportDisability":"Có","Status":"Đang khai thác","Lng":106.956502,"Lat":10.402807,"Search":"TtBDH( TtBDH( DH","Routes":"75, 77, 90"},{"StopId":4235,"Code":"HCG 042","Name":"Đ/d ngã ba Lê Hùng Yên, Duyên Hải","StopType":"Ô sơn","Zone":"Huyện Cần Giờ","Ward":null,"AddressNo":"Đ/d ngã ba Lê Hùng Yên","Street":"Duyên Hải","SupportDisability":"","Status":"Đang khai thác","Lng":106.959355,"Lat":10.403884,"Search":"DnbLHYDH DnbLHY DH","Routes":"75, 77, 90"},{"StopId":6918,"Code":"HCG 097","Name":"Bệnh viện huyện Cần Giờ (cũ)","StopType":"Ô sơn","Zone":"Huyện Cần Giờ","Ward":"Thị trấn Cần Thạnh","AddressNo":"Đối diện BV huyện Cần Giờ (cũ)","Street":"Duyên Hải","SupportDisability":"","Status":"Đang khai thác","Lng":106.965551,"Lat":10.407187,"Search":"BvhCG( DdBhCG( DH","Routes":"75, 77, 90"},{"StopId":6916,"Code":"HCG 095","Name":"Đặng Văn Kiều","StopType":"Ô sơn","Zone":"Huyện Cần Giờ","Ward":"Thị trấn Cần Thạnh","AddressNo":"18/3","Street":"Duyên Hải","SupportDisability":"","Status":"Đang khai thác","Lng":106.971002,"Lat":10.409946,"Search":"DVK 18/3 DH","Routes":"75, 77, 90"},{"StopId":6914,"Code":"HCG 093","Name":"Trường tiểu học Cần Thạnh","StopType":"Ô sơn","Zone":"Huyện Cần Giờ","Ward":"Thị trấn Cần Thạnh","AddressNo":"55/2A","Street":"Duyên Hải","SupportDisability":"","Status":"Đang khai thác","Lng":106.973072,"Lat":10.414183,"Search":"TthCT 55/2A DH","Routes":"75, 77, 90"},{"StopId":6911,"Code":"HCG 090","Name":"Lê Trọng Mân","StopType":"Ô sơn","Zone":"Huyện Cần Giờ","Ward":"Thị trấn Cần Thạnh","AddressNo":"428/2","Street":"Đào Cử","SupportDisability":"","Status":"Đang khai thác","Lng":106.97046,"Lat":10.41403,"Search":"LTM 428/2 DC","Routes":"75, 77, 90"},{"StopId":6910,"Code":"HCG 089","Name":"Coop mart Đào Cử","StopType":"Ô sơn","Zone":"Huyện Cần Giờ","Ward":"Thị trấn Cần Thạnh","AddressNo":"Siêu thị Coop Mart Cần Giờ","Street":"Đào Cử","SupportDisability":"","Status":"Đang khai thác","Lng":106.967928,"Lat":10.41232,"Search":"CmDC StCMCG DC","Routes":"75, 77, 90"},{"StopId":3675,"Code":"BX 78","Name":"Bến xe buýt Cần Giờ","StopType":"Bến xe","Zone":"Huyện Cần Giờ","Ward":"Thị trấn Cần Thạnh","AddressNo":"BẾN XE BUÝT CẦN GIỜ","Street":"Đào Cử","SupportDisability":"","Status":"Đang khai thác","Lng":106.964441,"Lat":10.410474,"Search":"BxbCG BXBCG DC","Routes":"75, 77, 90"}]