[{"StopId":35,"Code":"BX 01","Name":"Bến xe buýt Sài Gòn","StopType":"Bến xe","Zone":"Quận 1","Ward":"Phường Phạm Ngũ Lão","AddressNo":"BẾN XE BUÝT SÀI GÒN","Street":"Lê Lai","SupportDisability":"Có","Status":"Đang khai thác","Lng":106.689362,"Lat":10.767676,"Search":"BxbSG BXBSG LL","Routes":"03, 04, 102, 109, 13, 140, 171, 172, 18, 19, 20, 27, 28, 34, 36, 39, 52, 65, 69, 72, 75, 86, 88, 93, D4, DL03, DL04, DL05"},{"StopId":7276,"Code":"Q1 190","Name":"Tôn Thất Tùng","StopType":"Trụ dừng","Zone":"Quận 1","Ward":"Phường Phạm Ngũ Lão","AddressNo":"277-279-275Y","Street":"Phạm Ngũ Lão","SupportDisability":"Có","Status":"Đang khai thác","Lng":106.690941,"Lat":10.76767,"Search":"TTT 277-279-275Y PNL","Routes":"03, 04, 102, 109, 13, 140, 156V, 171, 172, 18, 19, 20, 28, 34, 36, 39, 46, 52, 65, 69, 72, 72-2B, 75, 86, 88, 93, D4"},{"StopId":7277,"Code":"Q1 191","Name":"Nguyễn Thị Nghĩa","StopType":"Trụ dừng","Zone":"Quận 1","Ward":"Phường Phạm Ngũ Lão","AddressNo":"187","Street":"Phạm Ngũ Lão","SupportDisability":"Có","Status":"Đang khai thác","Lng":106.693699,"Lat":10.768788,"Search":"NTN 187 PNL","Routes":"03, 04, 102, 109, 13, 140, 156V, 171, 172, 18, 19, 20, 28, 34, 36, 39, 46, 52, 65, 69, 72, 72-2B, 93, D4, DL01, DL02, DL05"},{"StopId":7278,"Code":"Q1 192","Name":"Trường Emst Thalmann","StopType":"Nhà chờ","Zone":"Quận 1","Ward":"Phường Phạm Ngũ Lão","AddressNo":"Trường Emst Thalmann","Street":"Phạm Ngũ Lão","SupportDisability":"Có","Status":"Đang khai thác","Lng":106.695587,"Lat":10.769504,"Search":"TET TET PNL","Routes":"03, 04, 109, 13, 156V, 171, 172, 18, 19, 20, 28, 34, 36, 39, 52, 65, 69, 72-2B, 93, D4"},{"StopId":30,"Code":"Q1 015","Name":"Trạm Trung chuyển trên đường Hàm Nghi","StopType":"Nhà chờ","Zone":"Quận 1","Ward":"Phường Nguyễn Thái Bình","AddressNo":"Hàm nghi 1","Street":"Hàm Nghi","SupportDisability":"","Status":"Đang khai thác","Lng":106.700356,"Lat":10.771001,"Search":"TTctdHN Hn1 HN","Routes":"109, 152, 52, 93"},{"StopId":7693,"Code":"Q1 1950","Name":"Nam Kỳ Khởi Nghĩa","StopType":"Nhà chờ","Zone":"Quận 1","Ward":"Phường Nguyễn Thái Bình","AddressNo":"93-95","Street":"Hàm Nghi","SupportDisability":"Có","Status":"Đang khai thác","Lng":106.701354,"Lat":10.770875,"Search":"NKKN 93-95 HN","Routes":"01, 03, 04, 109, 152, 155, 18, 19, 20, 31, 36, 45, 52, 53, 56, 75, 88, 93"},{"StopId":1256,"Code":"Q1 195","Name":"Chợ Cũ","StopType":"Nhà chờ","Zone":"Quận 1","Ward":"Phường Nguyễn Thái Bình","AddressNo":"89A","Street":"Hàm Nghi","SupportDisability":"","Status":"Đang khai thác","Lng":106.701998,"Lat":10.770811,"Search":"CC 89A HN","Routes":"01, 03, 04, 109, 152, 155, 18, 19, 20, 31, 36, 45, 52, 53, 56, 75, 86, 88, 93"},{"StopId":4271,"Code":"Q1 078","Name":"Đền Thờ Ấn Giáo, Pasteur","StopType":"Nhà chờ","Zone":"Quận 1","Ward":null,"AddressNo":"Đền Thờ Ấn Giáo","Street":"Pasteur","SupportDisability":"","Status":"Đang khai thác","Lng":106.70139,"Lat":10.773595,"Search":"DTAGP DTAG P","Routes":"04, 109, 152, 155, 171, 18, 31, 36, 52, 93"},{"StopId":2724,"Code":"Q1 079","Name":"Lê Thánh Tôn","StopType":"Trụ dừng","Zone":"Quận 1","Ward":null,"AddressNo":"144","Street":"Pasteur","SupportDisability":"","Status":"Đang khai thác","Lng":106.700768,"Lat":10.775088,"Search":"LTT 144 P","Routes":"04, 109, 152, 171, 18, 31, 36, 52, 93"},{"StopId":4272,"Code":"Q1 080","Name":"Lý Tự Trọng","StopType":"Nhà chờ","Zone":"Quận 1","Ward":"Phường Bến Nghé","AddressNo":"158D","Street":"Pasteur","SupportDisability":"","Status":"Đang khai thác","Lng":106.699657,"Lat":10.777089,"Search":"LTT 158D P","Routes":"04, 109, 152, 171, 18, 31, 36, 52, 72-2B, 93"},{"StopId":4273,"Code":"Q1 081","Name":"Lê Duẫn","StopType":"Trụ dừng","Zone":"Quận 1","Ward":null,"AddressNo":"178","Street":"Pasteur","SupportDisability":"","Status":"Đang khai thác","Lng":106.698333,"Lat":10.778307999999999,"Search":"LD 178 P","Routes":"04, 109, 152, 171, 18, 31, 36, 52, 72-2B, 93"},{"StopId":4274,"Code":"Q1 082","Name":"Nguyễn Thị Minh Khai","StopType":"Nhà chờ","Zone":"Quận 1","Ward":null,"AddressNo":"184","Street":"Pasteur","SupportDisability":"","Status":"Đang khai thác","Lng":106.696659,"Lat":10.779782,"Search":"NTMK 184 P","Routes":"04, 109, 152, 171, 31, 72-2B, 93"},{"StopId":243,"Code":"Q3 082","Name":"Đại học Kiến Trúc","StopType":"Nhà chờ","Zone":"Quận 3","Ward":"Phường 06","AddressNo":"194 D","Street":"Pasteur","SupportDisability":"Có","Status":"Đang khai thác","Lng":106.694579,"Lat":10.781804,"Search":"DhKT 194D P","Routes":"04, 109, 152, 72-2B, 93"},{"StopId":244,"Code":"Q3 083","Name":"Điện Biên Phủ","StopType":"Nhà chờ","Zone":"Quận 3","Ward":"Phường 06","AddressNo":"214","Street":"Pasteur","SupportDisability":"Có","Status":"Đang khai thác","Lng":106.692749,"Lat":10.783419,"Search":"DBP 214 P","Routes":"04, 109, 152, 72-2B, 93"},{"StopId":1920,"Code":"Q3 028","Name":"Phạm Ngọc Thạch","StopType":"Trụ dừng","Zone":"Quận 3","Ward":"Phường 06","AddressNo":"209","Street":"Điện Biên Phủ","SupportDisability":"","Status":"Đang khai thác","Lng":106.692375,"Lat":10.784965,"Search":"PNT 209 DBP","Routes":"10, 150, 30, 72-1, 91, 93"},{"StopId":1915,"Code":"Q1 008","Name":"Công Viên Lê Văn Tám","StopType":"Trụ dừng","Zone":"Quận 1","Ward":null,"AddressNo":"179 - 181","Street":"Điện Biên Phủ","SupportDisability":"","Status":"Đang khai thác","Lng":106.694313,"Lat":10.786934,"Search":"CVLVT 179-181 DBP","Routes":"10, 150, 171, 72-1, 91, 93"},{"StopId":1924,"Code":"Q1 009","Name":"Đinh Tiên Hoàng","StopType":"Trụ dừng","Zone":"Quận 1","Ward":null,"AddressNo":"87","Street":"Điện Biên Phủ","SupportDisability":"","Status":"Đang khai thác","Lng":106.696783,"Lat":10.789477,"Search":"DTH 87 DBP","Routes":"10, 150, 171, 72-1, 91, 93"},{"StopId":730,"Code":"QBTH 063","Name":"Cầu Điện Biên Phủ","StopType":"Trụ dừng","Zone":"Quận Bình Thạnh","Ward":null,"AddressNo":"84","Street":"Điện Biên Phủ","SupportDisability":"","Status":"Đang khai thác","Lng":106.702518,"Lat":10.795115,"Search":"CDBP 84 DBP","Routes":"10, 150, 159, 171, 45, 93"},{"StopId":1916,"Code":"QBTH 062","Name":"Trạm Điện Nguyễn Cửu Vân","StopType":"Nhà chờ","Zone":"Quận Bình Thạnh","Ward":null,"AddressNo":"174","Street":"Điện Biên Phủ","SupportDisability":"","Status":"Đang khai thác","Lng":106.704567,"Lat":10.797286,"Search":"TDNCV 174 DBP","Routes":"10, 150, 159, 171, 45, 93"},{"StopId":1918,"Code":"QBTH 061","Name":"Đại học Hồng Bàng","StopType":"Nhà chờ","Zone":"Quận Bình Thạnh","Ward":null,"AddressNo":"328","Street":"Điện Biên Phủ","SupportDisability":"","Status":"Đang khai thác","Lng":106.707528,"Lat":10.799873,"Search":"DhHB 328 DBP","Routes":"10, 150, 159, 171, 45, 93"},{"StopId":1925,"Code":"QBTH 060","Name":"Vòng xoay Hàng Xanh","StopType":"Nhà chờ","Zone":"Quận Bình Thạnh","Ward":null,"AddressNo":"442","Street":"Điện Biên Phủ","SupportDisability":"","Status":"Đang khai thác","Lng":106.710269,"Lat":10.80108,"Search":"VxHX 442 DBP","Routes":"10, 150, 159, 171, 45, 93"},{"StopId":299,"Code":"QBTH 123","Name":"Ngã Ba Hàng Xanh","StopType":"Biển treo","Zone":"Quận Bình Thạnh","Ward":null,"AddressNo":"334-336","Street":"Xô Viết Nghệ Tĩnh","SupportDisability":"","Status":"Đang khai thác","Lng":106.711509,"Lat":10.803262,"Search":"NBHX 334-336 XVNT","Routes":"05, 08, 14, 146, 161, 171, 19, 24, 44, 45, 60-3, 67, 91, 93"},{"StopId":302,"Code":"QBTH 122","Name":"Đài Liệt sĩ","StopType":"Biển treo","Zone":"Quận Bình Thạnh","Ward":null,"AddressNo":"504","Street":"Xô Viết Nghệ Tĩnh","SupportDisability":"","Status":"Đang khai thác","Lng":106.711965,"Lat":10.808831,"Search":"DLs 504 XVNT","Routes":"05, 08, 14, 146, 158, 161, 171, 19, 24, 43, 44, 45, 60-3, 67, 91, 93"},{"StopId":305,"Code":"QBTH 138","Name":"Cổng ra - Bến xe Miền Đông 1","StopType":"Trụ dừng","Zone":"Quận Bình Thạnh","Ward":null,"AddressNo":"152","Street":"Quốc lộ 13","SupportDisability":"","Status":"Đang khai thác","Lng":106.712791,"Lat":10.813853,"Search":"Cr-BxMD1 152 Ql13","Routes":"05, 14, 161, 171, 60-3, 61-8, 93"},{"StopId":523,"Code":"QTD 118","Name":"Ngã tư Bình Triệu","StopType":"Trụ dừng","Zone":"TP. Thủ Đức - KV3","Ward":"Phường Hiệp Bình Chánh","AddressNo":"54","Street":"Phạm Văn Đồng","SupportDisability":"","Status":"Đang khai thác","Lng":106.715655,"Lat":10.82603,"Search":"NtBT 54 PVD","Routes":"08, 50, 93"},{"StopId":524,"Code":"QTD 119","Name":"Đường số 20","StopType":"Nhà chờ","Zone":"TP. Thủ Đức - KV3","Ward":"Phường Hiệp Bình Chánh","AddressNo":"Đối diện 216 - Gigamall ","Street":"Phạm Văn Đồng","SupportDisability":"Có","Status":"Đang khai thác","Lng":106.721032,"Lat":10.827878,"Search":"Ds20 Dd216-G PVD","Routes":"08, 50, 93"},{"StopId":525,"Code":"QTD 120","Name":"Chùa Ưu Đàm","StopType":"Nhà chờ","Zone":"TP. Thủ Đức - KV3","Ward":"Phường Hiệp Bình Chánh","AddressNo":"Khu dân cư Opal Tower","Street":"Phạm Văn Đồng","SupportDisability":"Có","Status":"Đang khai thác","Lng":106.72476,"Lat":10.830679,"Search":"CUD KdcOT PVD","Routes":"08, 50, 93"},{"StopId":526,"Code":"QTD 121","Name":"Cá sấu Hoa cà","StopType":"Nhà chờ","Zone":"TP. Thủ Đức - KV3","Ward":"Phường Hiệp Bình Chánh","AddressNo":"Đối diện Cá sấu Hoa Cà","Street":"Phạm Văn Đồng","SupportDisability":"Có","Status":"Đang khai thác","Lng":106.728331,"Lat":10.833606,"Search":"CsHc DdCsHC PVD","Routes":"08, 50, 89, 93"},{"StopId":527,"Code":"QTD 122","Name":"THCS Ngô Chí Quốc","StopType":"Nhà chờ","Zone":"TP. Thủ Đức - KV3","Ward":"Phường Hiệp Bình Chánh","AddressNo":"412","Street":"Phạm Văn Đồng","SupportDisability":"Có","Status":"Đang khai thác","Lng":106.730713,"Lat":10.83555,"Search":"TNCQ 412 PVD","Routes":"08, 50, 89, 93"},{"StopId":528,"Code":"QTD 123","Name":"Chùa An Lạc","StopType":"Nhà chờ","Zone":"TP. Thủ Đức - KV3","Ward":"Phường Hiệp Bình Chánh","AddressNo":"Chùa Ưu Đàm","Street":"Phạm Văn Đồng","SupportDisability":"Có","Status":"Đang khai thác","Lng":106.733288,"Lat":10.837484,"Search":"CAL CUD PVD","Routes":"08, 50, 57, 93"},{"StopId":529,"Code":"QTD 124","Name":"Cầu Gò Dưa","StopType":"Nhà chờ","Zone":"TP. Thủ Đức - KV3","Ward":"Phường Linh Đông","AddressNo":"Trụ chiếu sáng C185","Street":"Phạm Văn Đồng","SupportDisability":"Có","Status":"Đang khai thác","Lng":106.740509,"Lat":10.839776,"Search":"CGD TcsC PVD","Routes":"08, 50, 57, 93"},{"StopId":530,"Code":"QTD 125","Name":"Đường 30","StopType":"Nhà chờ","Zone":"TP. Thủ Đức - KV3","Ward":"Phường Linh Đông","AddressNo":"1136","Street":"Phạm Văn Đồng","SupportDisability":"Có","Status":"Đang khai thác","Lng":106.744822,"Lat":10.841821,"Search":"D30 1136 PVD","Routes":"08, 50, 57, 93"},{"StopId":4463,"Code":"QTĐT0010","Name":"Chùa Quan Âm","StopType":"Nhà chờ","Zone":"TP. Thủ Đức - KV3","Ward":"Phường Linh Đông","AddressNo":"Chùa Quan Âm","Street":"Phạm Văn Đồng","SupportDisability":"Có","Status":"Đang khai thác","Lng":106.748008,"Lat":10.847447,"Search":"CQA CQA PVD","Routes":"08, 50, 57, 93"},{"StopId":4470,"Code":"QTĐT0011","Name":"Ngã tư Tô Ngọc Vân - Phạm Văn Đồng","StopType":"Ô sơn","Zone":"TP. Thủ Đức - KV3","Ward":"Phường Linh Đông","AddressNo":"1216","Street":"Phạm Văn Đồng","SupportDisability":"","Status":"Đang khai thác","Lng":106.750422,"Lat":10.851599,"Search":"NtTNV-PVD 1216 PVD","Routes":"08, 50, 57, 93"},{"StopId":1493,"Code":"QTD 051","Name":"Bồn nước","StopType":"Trụ dừng","Zone":"TP. Thủ Đức - KV3","Ward":null,"AddressNo":"111","Street":"Tô Ngọc Vân","SupportDisability":"","Status":"Đang khai thác","Lng":106.752037,"Lat":10.852854,"Search":"Bn 111 TNV","Routes":"08, 141, 29, 57, 89, 93"},{"StopId":1500,"Code":"QTD 052","Name":"Chợ Thủ Đức","StopType":"Trụ dừng","Zone":"TP. Thủ Đức - KV3","Ward":null,"AddressNo":"13","Street":"Tô Ngọc Vân","SupportDisability":"","Status":"Đang khai thác","Lng":106.75428,"Lat":10.851198,"Search":"CTD 13 TNV","Routes":"08, 141, 29, 57, 89, 93"},{"StopId":3376,"Code":"QTD 144","Name":"Trường TH Nguyễn Trung Trực","StopType":"Nhà chờ","Zone":"TP. Thủ Đức - KV3","Ward":"Phường Linh Tây","AddressNo":"962 (105)","Street":"Kha Vạn Cân","SupportDisability":"","Status":"Đang khai thác","Lng":106.754845,"Lat":10.852065,"Search":"TTNTT 962( KVC","Routes":"93"},{"StopId":3378,"Code":"QTD 143","Name":"Ngã ba Chương Dương","StopType":"Ô sơn","Zone":"TP. Thủ Đức - KV3","Ward":"Phường Linh Tây","AddressNo":"1040-1046 (785)","Street":"Kha Vạn Cân","SupportDisability":"","Status":"Đang khai thác","Lng":106.756615,"Lat":10.856333,"Search":"NbCD 1040-1046( KVC","Routes":"93"},{"StopId":3379,"Code":"QTD 142","Name":"Phòng khám đa khoa Á Châu","StopType":"Ô sơn","Zone":"TP. Thủ Đức - KV3","Ward":"Phường Linh Tây","AddressNo":"1106","Street":"Kha Vạn Cân","SupportDisability":"","Status":"Đang khai thác","Lng":106.758965,"Lat":10.858556,"Search":"PkdkAC 1106 KVC","Routes":"93"},{"StopId":3380,"Code":"QTD 141","Name":"Ngã ba Hoàng Diệu II","StopType":"Trụ dừng","Zone":"TP. Thủ Đức - KV3","Ward":"Phường Linh Trung","AddressNo":"1176","Street":"Kha Vạn Cân","SupportDisability":"","Status":"Đang khai thác","Lng":106.760712,"Lat":10.860415,"Search":"NbHDI 1176 KVC","Routes":"93"},{"StopId":3382,"Code":"QTD 140","Name":"UBND phường Linh Trung","StopType":"Trụ dừng","Zone":"TP. Thủ Đức - KV3","Ward":"Phường Linh Trung","AddressNo":"1256","Street":"Kha Vạn Cân","SupportDisability":"","Status":"Đang khai thác","Lng":106.7612,"Lat":10.863985,"Search":"UpLT 1256 KVC","Routes":"53, 93"},{"StopId":3383,"Code":"QTD 139","Name":"Nhà hàng tiệc cưới Phố Đôi","StopType":"Trụ dừng","Zone":"TP. Thủ Đức - KV3","Ward":null,"AddressNo":"15/3","Street":"Kha Vạn Cân","SupportDisability":"","Status":"Tạm ngưng khai thác","Lng":106.763399,"Lat":10.868789,"Search":"NhtcPD 15/3 KVC","Routes":"50, 53, 93"},{"StopId":3381,"Code":"QTD 138","Name":"Trạm cầu vượt Linh Xuân","StopType":"Trụ dừng","Zone":"TP. Thủ Đức - KV3","Ward":"Phường Linh Trung","AddressNo":"1326-1328 (1129-1131)","Street":"Kha Vạn Cân","SupportDisability":"","Status":"Đang khai thác","Lng":106.763999,"Lat":10.87135,"Search":"TcvLX 1326-1328( KVC","Routes":"50, 53, 93"},{"StopId":2083,"Code":"QTD 169","Name":"Vietcombank","StopType":"Trụ dừng","Zone":"TP. Thủ Đức - KV3","Ward":"Phường Linh Trung","AddressNo":"Ngân hàng Vietcombank","Street":"Quốc lộ 1","SupportDisability":"","Status":"Đang khai thác","Lng":106.769643,"Lat":10.871597,"Search":"V NhV Ql1","Routes":"167D, 167V, 19, 33, 50, 53, 60-1, 61-9, 93"},{"StopId":2084,"Code":"QTD 170","Name":"Nghĩa trang TP","StopType":"Nhà chờ","Zone":"TP. Thủ Đức - KV3","Ward":"Phường Linh Trung","AddressNo":"Cổng nghĩa trang thành phố","Street":"Quốc lộ 1","SupportDisability":"","Status":"Đang khai thác","Lng":106.773039,"Lat":10.870507,"Search":"NtT Cnttp Ql1","Routes":"167V, 19, 33, 50, 53, 60-1, 61-9, 93"},{"StopId":1040,"Code":"QTD 171","Name":"ĐH Kinh tế Luật","StopType":"Nhà chờ","Zone":"TP. Thủ Đức - KV3","Ward":"Phường Linh Trung","AddressNo":"Đối diện 665-CoopXtra","Street":"Quốc lộ 1","SupportDisability":"","Status":"Đang khai thác","Lng":106.776724,"Lat":10.869306,"Search":"DKtL Dd665-CoopXtra Ql1","Routes":"167V, 19, 33, 50, 53, 60-1, 61-9, 93"},{"StopId":1041,"Code":"QTD 172","Name":"Công ty điện tử Samsung","StopType":"Nhà chờ","Zone":"TP. Thủ Đức - KV3","Ward":"Phường Linh Trung","AddressNo":"Công ty điện tử Samsung","Street":"Quốc lộ 1","SupportDisability":"","Status":"Đang khai thác","Lng":106.778656,"Lat":10.868691,"Search":"CtdtS CtdtS Ql1","Routes":"167V, 19, 33, 50, 53, 60-1, 61-9, 93"},{"StopId":1042,"Code":"QTD 173","Name":"ĐH Nông Lâm","StopType":"Nhà chờ","Zone":"TP. Thủ Đức - KV3","Ward":"Phường Linh Trung","AddressNo":"Cột điện SI 2","Street":"Quốc lộ 1","SupportDisability":"","Status":"Đang khai thác","Lng":106.787277,"Lat":10.867122,"Search":"DNL CdS2 Ql1","Routes":"167V, 19, 33, 50, 53, 60-1, 60-2, 61-9, 93"},{"StopId":396,"Code":"QTD 174","Name":"ĐH Nông Lâm","StopType":"Trụ dừng","Zone":"TP. Thủ Đức - KV3","Ward":"Phường Linh Trung","AddressNo":"1026/2 (1030)","Street":"Quốc lộ 1","SupportDisability":"","Status":"Đang khai thác","Lng":106.790283,"Lat":10.866912,"Search":"DNL 1026/2( Ql1","Routes":"06, 164D, 164V, 165, 19, 33, 50, 52, 53, 60-1, 60-2, 61-9, 93"},{"StopId":536,"Code":"Q9 221","Name":"Cầu Vượt Trạm 2","StopType":"Nhà chờ","Zone":"TP. Thủ Đức - KV2","Ward":null,"AddressNo":"Tiệm vàng Kim Lợi","Street":"Quốc lộ 1","SupportDisability":"","Status":"Đang khai thác","Lng":106.797538,"Lat":10.863595,"Search":"CVT2 TvKL Ql1","Routes":"08, 10, 150, 164D, 19, 33, 53, 60-1, 60-2, 60-3, 61-9, 67, 76, 93"},{"StopId":537,"Code":"Q9 223","Name":"Suối Tiên","StopType":"Trụ dừng","Zone":"TP. Thủ Đức - KV2","Ward":"Phường Tân Phú","AddressNo":"Suối Tiên","Street":"Quốc lộ 1","SupportDisability":"","Status":"Đang khai thác","Lng":106.802081,"Lat":10.866113,"Search":"ST ST Ql1","Routes":"08, 10, 150, 19, 33, 53, 60-1, 60-2, 60-3, 60-7, 61-9, 67, 76, 93, 99"},{"StopId":3715,"Code":"Q9 057","Name":"Nghĩa trang liệt sĩ Tp.HCM","StopType":"Nhà chờ","Zone":"TP. Thủ Đức - KV2","Ward":"Phường Tân Phú","AddressNo":"14-18","Street":"D400","SupportDisability":"","Status":"Đang khai thác","Lng":106.809028,"Lat":10.871371,"Search":"NtlsT 14-18 D","Routes":"150, 61-05, 61-77, 61-9, 67, 76, 93"},{"StopId":3716,"Code":"Q9 058","Name":"Ngã ba Lâm Viên 1","StopType":"Trụ dừng","Zone":"TP. Thủ Đức - KV2","Ward":"Phường Tân Phú","AddressNo":"124","Street":"D400","SupportDisability":"","Status":"Đang khai thác","Lng":106.812891,"Lat":10.87037,"Search":"NbLV1 124 D","Routes":"150, 61-05, 61-77, 61-9, 67, 76, 93"},{"StopId":3717,"Code":"Q9 266","Name":"Đường Hoàng Hữu Nam","StopType":"Ô sơn","Zone":"TP. Thủ Đức - KV2","Ward":null,"AddressNo":"kế 474","Street":"Hoàng Hữu Nam","SupportDisability":"","Status":"Đang khai thác","Lng":106.814522,"Lat":10.87185,"Search":"DHHN k474 HHN","Routes":"150, 61-05, 61-77, 61-9, 67, 76, 93"},{"StopId":7695,"Code":"BX 33","Name":"Bến xe Miền Đông mới","StopType":"Bến xe","Zone":"TP. Thủ Đức - KV2","Ward":"Phường Long Bình","AddressNo":"Bến xe Miền Đông mới","Street":"Quốc lộ 1","SupportDisability":"Có","Status":"Đang khai thác","Lng":106.81497,"Lat":10.878606,"Search":"BxMDm BxMDm Ql1","Routes":"150, 56, 60-7, 61-05, 61-77, 61-9, 67, 76, 93"}]