[{"StopId":9346,"Code":"BD BX  0013","Name":"Bưu điện Thành phố Bến Cát","StopType":"Bến xe","Zone":"Bình Dương","Ward":null,"AddressNo":"Bưu điện Thành phố Bến Cát","Street":"Đường 30 tháng 4","SupportDisability":"","Status":"Đang khai thác","Lng":106.591904,"Lat":11.152417,"Search":"BdTpBC BdTpBC D30t4","Routes":"61-2, 61-70"},{"StopId":8580,"Code":"BD-0190","Name":"Bưu điện TP Bến Cát","StopType":"Trụ - hộp thông tin","Zone":"Bình Dương","Ward":null,"AddressNo":"Bưu điện TP Bến Cát","Street":"30/4","SupportDisability":"Có","Status":"Đang khai thác","Lng":106.591947,"Lat":11.152178,"Search":"BdTBC BdTBC 30/4","Routes":"61-2, 61-70"},{"StopId":8578,"Code":"BD-0188","Name":"Ủy Ban Nhân Dân TP.Bến Cát","StopType":"Nhà chờ","Zone":"Bình Dương","Ward":null,"AddressNo":"Ủy Ban Nhân Dân TP.Bến Cát","Street":"30/4","SupportDisability":"Có","Status":"Đang khai thác","Lng":106.593902,"Lat":11.151058,"Search":"?BNDTC ?BNDTC 30/4","Routes":"61-2, 61-70"},{"StopId":8575,"Code":"BD-0186","Name":"Golden Center City","StopType":"Trụ - hộp thông tin","Zone":"Bình Dương","Ward":null,"AddressNo":"Golden Center City","Street":"Quốc Lộ 13","SupportDisability":"Có","Status":"Đang khai thác","Lng":106.600351,"Lat":11.145253,"Search":"GCC GCC QL13","Routes":"61-2, 61-70"},{"StopId":8572,"Code":"BD-0184","Name":"Ngã ba Bệnh viện Mỹ Phước","StopType":"Trụ - hộp thông tin","Zone":"Bình Dương","Ward":null,"AddressNo":"Ngã ba Bệnh viện Mỹ Phước","Street":"Quốc Lộ 13","SupportDisability":"Có","Status":"Đang khai thác","Lng":106.603672,"Lat":11.140431,"Search":"NbBvMP NbBvMP QL13","Routes":"61-70"},{"StopId":8569,"Code":"BD-0182","Name":"Ủy Ban Nhân Dân Phường Mỹ Phước","StopType":"Trụ - hộp thông tin","Zone":"Bình Dương","Ward":null,"AddressNo":"Ủy Ban Nhân Dân Phường Mỹ Phước","Street":"Quốc Lộ 13","SupportDisability":"Có","Status":"Đang khai thác","Lng":106.606513,"Lat":11.132482,"Search":"?BNDPMP ?BNDPMP QL13","Routes":"61-70"},{"StopId":8553,"Code":"BD-0180","Name":"Công an phường Mỹ Phước","StopType":"Nhà chờ","Zone":"Bình Dương","Ward":null,"AddressNo":"Công an phường Mỹ Phước","Street":"Đường D1","SupportDisability":"Có","Status":"Đang khai thác","Lng":106.60464,"Lat":11.130426,"Search":"CapMP CapMP DD","Routes":"61-70"},{"StopId":8547,"Code":"BD-0178","Name":"Ngã ba D17 - H6","StopType":"Nhà chờ","Zone":"Bình Dương","Ward":null,"AddressNo":"Ngã ba D17 - H6","Street":"H6","SupportDisability":"Có","Status":"Chưa khai thác","Lng":106.602924,"Lat":11.119145,"Search":"NbD-H NbD-H H","Routes":"61-70"},{"StopId":8540,"Code":"BD-0176","Name":"Trường Tiểu học Duy Tân","StopType":"Trụ - hộp thông tin","Zone":"Bình Dương","Ward":null,"AddressNo":"Trường Tiểu học Duy Tân","Street":"Đường D17","SupportDisability":"Có","Status":"Đang khai thác","Lng":106.612498,"Lat":11.123853,"Search":"TThDT TThDT DD","Routes":"61-2, 61-70"},{"StopId":8537,"Code":"BD-0174","Name":"Giáo Xứ Thới Hòa","StopType":"Trụ - hộp thông tin","Zone":"Bình Dương","Ward":null,"AddressNo":"Giáo Xứ Thới Hòa","Street":"Quốc Lộ 13","SupportDisability":"Có","Status":"Đang khai thác","Lng":106.615322,"Lat":11.119283,"Search":"GXTH GXTH QL13","Routes":"61-70"},{"StopId":8535,"Code":"BD-0172","Name":"EcoLakes Mỹ Phước","StopType":"Trụ - hộp thông tin","Zone":"Bình Dương","Ward":null,"AddressNo":"EcoLakes Mỹ Phước","Street":"Quốc Lộ 13","SupportDisability":"Có","Status":"Đang khai thác","Lng":106.61824,"Lat":11.111273,"Search":"EMP EMP QL13","Routes":"61-70"},{"StopId":8528,"Code":"BD-0169","Name":"Trạm Xăng Thới Hòa","StopType":"Trụ - hộp thông tin","Zone":"Bình Dương","Ward":null,"AddressNo":"Trạm Xăng Thới Hòa","Street":"Quốc Lộ 13","SupportDisability":"Có","Status":"Đang khai thác","Lng":106.623092,"Lat":11.104387,"Search":"TXTH TXTH QL13","Routes":"61-70"},{"StopId":8478,"Code":"BD-0167","Name":"Cổng KCN Mỹ Phước 3","StopType":"Trụ - hộp thông tin","Zone":"Bình Dương","Ward":null,"AddressNo":"Cổng KCN Mỹ Phước 3","Street":"NE8 ","SupportDisability":"Có","Status":"Đang khai thác","Lng":106.62669,"Lat":11.097294,"Search":"CKMP3 CKMP3 N","Routes":"61-70"},{"StopId":8476,"Code":"BD-0165","Name":"Công ty Becamex ITC","StopType":"Trụ - hộp thông tin","Zone":"Bình Dương","Ward":null,"AddressNo":"Công ty Becamex ITC","Street":"NE8 ","SupportDisability":"Có","Status":"Đang khai thác","Lng":106.630585,"Lat":11.097262,"Search":"CtBI CtBI N","Routes":"61-70"},{"StopId":8474,"Code":"BD-0163","Name":"CLB Bóng Đá Becamex BD","StopType":"Trụ - hộp thông tin","Zone":"Bình Dương","Ward":null,"AddressNo":"CLB Bóng Đá Becamex BD","Street":"NE8 ","SupportDisability":"Có","Status":"Đang khai thác","Lng":106.635718,"Lat":11.097197,"Search":"CBDBB CBDBB N","Routes":"61-70"},{"StopId":8472,"Code":"BD-0161","Name":"Bưu điện KCN Mỹ Phước 3","StopType":"Trụ - hộp thông tin","Zone":"Bình Dương","Ward":null,"AddressNo":"Bưu điện KCN Mỹ Phước 3","Street":"NE8 ","SupportDisability":"Có","Status":"Đang khai thác","Lng":106.641095,"Lat":11.097154,"Search":"BdKMP3 BdKMP3 N","Routes":"61-70"},{"StopId":8470,"Code":"BD-0159","Name":"Lốp Xe Kumho Việt Nam","StopType":"Nhà chờ","Zone":"Bình Dương","Ward":null,"AddressNo":"Lốp Xe Kumho Việt Nam","Street":"NE8 ","SupportDisability":"Có","Status":"Đang khai thác","Lng":106.651247,"Lat":11.097065,"Search":"LXKVN LXKVN N","Routes":"61-70"},{"StopId":8468,"Code":"BD-0157","Name":"Ngã Tư NE8 - Nguyễn Văn Thành","StopType":"Trụ - hộp thông tin","Zone":"Bình Dương","Ward":null,"AddressNo":"Ngã Tư NE8 - Nguyễn Văn Thành","Street":"NE8 ","SupportDisability":"Có","Status":"Chưa khai thác","Lng":106.660745,"Lat":11.096208,"Search":"NTN-NVT NTN-NVT N","Routes":"61-70"},{"StopId":8466,"Code":"BD-0155","Name":"Trạm xăng Phụng Tân Tiến","StopType":"Trụ - hộp thông tin","Zone":"Bình Dương","Ward":null,"AddressNo":"Trạm xăng Phụng Tân Tiến","Street":"NE14","SupportDisability":"Có","Status":"Đang khai thác","Lng":106.66891,"Lat":11.097248,"Search":"TxPTT TxPTT N","Routes":"61-70"},{"StopId":8464,"Code":"BD-0153","Name":"Nhà ở an sinh xã hội Hòa Lợi - Trạm số 2","StopType":"Trụ - hộp thông tin","Zone":"Bình Dương","Ward":null,"AddressNo":"Nhà ở an sinh xã hội Hòa Lợi - Trạm số 2","Street":"Lê Lợi","SupportDisability":"Có","Status":"Đang khai thác","Lng":106.672728,"Lat":11.085314,"Search":"NoasxhHL-Ts2 NoasxhHL-Ts2 LL","Routes":"61-39, 61-70"},{"StopId":8448,"Code":"BD-0137","Name":"Chung cư The View","StopType":"Nhà chờ","Zone":"Bình Dương","Ward":null,"AddressNo":"Chung cư The View","Street":"Sảnh Chung Cư The View","SupportDisability":"Có","Status":"Đang khai thác","Lng":106.681185,"Lat":11.072435,"Search":"CcTV CcTV SCCTV","Routes":"61-39, 61-68, 61-70"},{"StopId":8446,"Code":"BD-0135","Name":"MIDORI PARK","StopType":"Trụ - hộp thông tin","Zone":"Bình Dương","Ward":null,"AddressNo":"MIDORI PARK","Street":"Lý Thái Tổ","SupportDisability":"Có","Status":"Đang khai thác","Lng":106.680185,"Lat":11.070125,"Search":"MP MP LTT","Routes":"61-39, 61-68, 61-70"},{"StopId":8444,"Code":"BD-0133","Name":"Trường Quốc Tế Việt Hoa","StopType":"Trụ - hộp thông tin","Zone":"Bình Dương","Ward":null,"AddressNo":"Trường Quốc Tế Việt Hoa","Street":"Lý Thái Tổ","SupportDisability":"Có","Status":"Đang khai thác","Lng":106.68062,"Lat":11.068166,"Search":"TQTVH TQTVH LTT","Routes":"61-39, 61-68, 61-70"},{"StopId":8430,"Code":"BD-0119","Name":"Bảo hiểm xã hội tỉnh Bình Dương","StopType":"Nhà chờ","Zone":"Bình Dương","Ward":null,"AddressNo":"Bảo hiểm xã hội tỉnh Bình Dương","Street":"Lê Duẩn","SupportDisability":"Có","Status":"Đang khai thác","Lng":106.681393,"Lat":11.05861,"Search":"BhxhtBD BhxhtBD LD","Routes":"61-39, 61-51, 61-67, 61-70"},{"StopId":8425,"Code":"BD-0114","Name":"Trạm trung chuyển Hikari 3","StopType":"Trụ - hộp thông tin","Zone":"Bình Dương","Ward":null,"AddressNo":"Trạm trung chuyển Hikari 3","Street":"Lý Thái Tổ","SupportDisability":"Có","Status":"Đang khai thác","Lng":106.683812,"Lat":11.05791,"Search":"TtcH3 TtcH3 LTT","Routes":"61-39, 61-68, 61-70"},{"StopId":8419,"Code":"BD-0108","Name":"Khách sạn Becamex Thành phố Mới","StopType":"Nhà chờ","Zone":"Bình Dương","Ward":null,"AddressNo":"Khách sạn Becamex Thành phố Mới","Street":"Đường Lý Thái Tổ","SupportDisability":"Có","Status":"Đang khai thác","Lng":106.684672,"Lat":11.056832,"Search":"KsBTpM KsBTpM DLTT","Routes":"61-37, 61-39, 61-51, 61-52, 61-67, 61-68, 61-70, 61-73"},{"StopId":8408,"Code":"BD-0097","Name":"Ngã tư Đại lộ Hùng Vương - Lê Lợi","StopType":"Nhà chờ","Zone":"Bình Dương","Ward":null,"AddressNo":"Ngã tư Đại lộ Hùng Vương - Lê Lợi","Street":"Đại Lộ Hùng Vương","SupportDisability":"Có","Status":"Đang khai thác","Lng":106.681825,"Lat":11.052003,"Search":"NtDlHV-LL NtDlHV-LL DLHV","Routes":"171, 61-39, 61-51, 61-53, 61-67, 61-68, 61-70, 61-73"},{"StopId":8406,"Code":"BD-0095","Name":"SORA gardens","StopType":"Nhà chờ","Zone":"Bình Dương","Ward":null,"AddressNo":"SORA gardens","Street":"Đường nội bộ SORA gardens","SupportDisability":"Có","Status":"Đang khai thác","Lng":106.678817,"Lat":11.045967,"Search":"Sg Sg DnbSg","Routes":"61-39, 61-52, 61-53, 61-55, 61-68, 61-70, 61-73"},{"StopId":9349,"Code":"BD BX 0016","Name":"Trạm trung chuyển Hikari","StopType":"Bến xe","Zone":"Bình Dương","Ward":null,"AddressNo":"Trạm trung chuyển Hikari","Street":"Lý Thái Tổ","SupportDisability":"","Status":"Đang khai thác","Lng":106.68389,"Lat":11.057973,"Search":"TtcH TtcH LTT","Routes":"61-67, 61-68, 61-70"}]