[{"StopId":3600,"Code":"BX 59","Name":"Phật Cô Đơn","StopType":"Bến xe","Zone":"Huyện Bình Chánh","Ward":"Xã Lê Minh Xuân","AddressNo":"ĐẦU BẾN PHẬT CÔ ĐƠN","Street":"Mai Bá Hương","SupportDisability":"","Status":"Đang khai thác","Lng":106.488499,"Lat":10.757067,"Search":"PCD DBPCD MBH","Routes":"71"},{"StopId":3602,"Code":"HBC 337","Name":"Thất Thất Lê Minh Xuân","StopType":"Trụ dừng","Zone":"Huyện Bình Chánh","Ward":"Xã Lê Minh Xuân","AddressNo":"Đối diện Đại Đạo Tam Kỳ","Street":"Mai Bá Hương","SupportDisability":"","Status":"Đang khai thác","Lng":106.494851,"Lat":10.761995,"Search":"TTLMX DdDDTK MBH","Routes":"71"},{"StopId":3606,"Code":"HBC 338","Name":"Kênh 3","StopType":"Trụ dừng","Zone":"Huyện Bình Chánh","Ward":"Xã Lê Minh Xuân","AddressNo":"Đối diện Cột điện 70P","Street":"Mai Bá Hương","SupportDisability":"","Status":"Đang khai thác","Lng":106.497785,"Lat":10.764192,"Search":"K3 DdCd70P MBH","Routes":"71"},{"StopId":3603,"Code":"HBC 339","Name":"Ngã 3 Trần Đại Nghĩa","StopType":"Trụ dừng","Zone":"Huyện Bình Chánh","Ward":"Xã Lê Minh Xuân","AddressNo":"Cột điện 57P/17 (A12/8)","Street":"Mai Bá Hương","SupportDisability":"","Status":"Đang khai thác","Lng":106.499898,"Lat":10.765847,"Search":"N3TDN Cd57P/17( MBH","Routes":"71"},{"StopId":3604,"Code":"HBC 340","Name":"Sơ Dừa","StopType":"Trụ dừng","Zone":"Huyện Bình Chánh","Ward":"Xã Lê Minh Xuân","AddressNo":"A11/20","Street":"Mai Bá Hương","SupportDisability":"","Status":"Đang khai thác","Lng":106.502704,"Lat":10.767871,"Search":"SD A MBH","Routes":"71"},{"StopId":3607,"Code":"HBC 341","Name":"Công ty Minh Chương","StopType":"Trụ dừng","Zone":"Huyện Bình Chánh","Ward":"Xã Lê Minh Xuân","AddressNo":"Đối diện cột điện 39P (A11/1)","Street":"Mai Bá Hương","SupportDisability":"","Status":"Đang khai thác","Lng":106.507452,"Lat":10.771481,"Search":"CtMC Ddcd39P( MBH","Routes":"71"},{"StopId":3605,"Code":"HBC 342","Name":"Học viện Phật giáo Việt Nam","StopType":"Trụ dừng","Zone":"Huyện Bình Chánh","Ward":"Xã Lê Minh Xuân","AddressNo":"Đối diện cột điện 30AP (A10/8A)","Street":"Mai Bá Hương","SupportDisability":"","Status":"Đang khai thác","Lng":106.511008,"Lat":10.775665,"Search":"HvPgVN Ddcd30AP( MBH","Routes":"71"},{"StopId":3608,"Code":"HBC 343","Name":"Chùa Phật Cô Đơn","StopType":"Ô sơn","Zone":"Huyện Bình Chánh","Ward":"Xã Lê Minh Xuân","AddressNo":"A9/19 (Đối diện bãi giữ xe Phật Cô Đơn)","Street":"Mai Bá Hương","SupportDisability":"","Status":"Đang khai thác","Lng":106.512827,"Lat":10.781556,"Search":"CPCD A(dbgxPCD MBH","Routes":"71"},{"StopId":3609,"Code":"HBC 344","Name":"Công ty Hoàng Long Anh","StopType":"Trụ dừng","Zone":"Huyện Bình Chánh","Ward":"Xã Lê Minh Xuân","AddressNo":"A8/27","Street":"Mai Bá Hương","SupportDisability":"","Status":"Đang khai thác","Lng":106.513503,"Lat":10.784529,"Search":"CtHLA A MBH","Routes":"71"},{"StopId":3610,"Code":"HBC 345","Name":"Kênh A2","StopType":"Trụ dừng","Zone":"Huyện Bình Chánh","Ward":"Xã Lê Minh Xuân","AddressNo":"A8/4","Street":"Mai Bá Hương","SupportDisability":"","Status":"Đang khai thác","Lng":106.514297,"Lat":10.787928,"Search":"KA A MBH","Routes":"71"},{"StopId":3436,"Code":"HBC 294","Name":"Trường Tiểu học Cầu Xáng","StopType":"Nhà chờ","Zone":"Huyện Bình Chánh","Ward":"Xã Lê Minh Xuân","AddressNo":"Cột điện 187T (Đối diện 3A61)","Street":"Tỉnh lộ 10 Bình Chánh","SupportDisability":"","Status":"Đang khai thác","Lng":106.517563,"Lat":10.78758,"Search":"TThCX Cd187T(d3A61) Tl10BC","Routes":"62-6, 62-7, 71, 81"},{"StopId":3437,"Code":"HBC 295","Name":"Đa Khoa Sài Gòn","StopType":"Trụ dừng","Zone":"Huyện Bình Chánh","Ward":"Xã Lê Minh Xuân","AddressNo":"A2/23 (Đối diện 3A35/3)","Street":"Tỉnh lộ 10 Bình Chánh","SupportDisability":"","Status":"Đang khai thác","Lng":106.522762,"Lat":10.785034,"Search":"DKSG A(d3A35/3) Tl10BC","Routes":"62-6, 62-7, 71, 81"},{"StopId":3438,"Code":"HBC 290","Name":"Hoàng My","StopType":"Trụ dừng","Zone":"Huyện Bình Chánh","Ward":"Xã Lê Minh Xuân","AddressNo":"Đối diện 3A13","Street":"Tỉnh lộ 10 Bình Chánh","SupportDisability":"","Status":"Đang khai thác","Lng":106.527101,"Lat":10.782816,"Search":"HM Dd3A13 Tl10BC","Routes":"62-6, 62-7, 71, 81"},{"StopId":3439,"Code":"HBC 296","Name":"Kênh A","StopType":"Trụ dừng","Zone":"Huyện Bình Chánh","Ward":"Xã Lê Minh Xuân","AddressNo":"Đối diện 2A/92","Street":"Tỉnh lộ 10 Bình Chánh","SupportDisability":"","Status":"Đang khai thác","Lng":106.53327,"Lat":10.779828,"Search":"KA Dd2A/92 Tl10BC","Routes":"62-6, 62-7, 71, 81"},{"StopId":3440,"Code":"HBC 297","Name":"Ủy ban xã Lê Minh Xuân ","StopType":"Trụ dừng","Zone":"Huyện Bình Chánh","Ward":"Xã Lê Minh Xuân","AddressNo":"F2/11","Street":"Tỉnh lộ 10 Bình Chánh","SupportDisability":"","Status":"Đang khai thác","Lng":106.538211,"Lat":10.777314,"Search":"UbxLMX F Tl10BC","Routes":"62-6, 62-7, 71, 81"},{"StopId":3441,"Code":"HBC 298","Name":"Ủy ban xã Phạm Văn Hai","StopType":"Trụ dừng","Zone":"Huyện Bình Chánh","Ward":"Xã Phạm Văn Hai","AddressNo":"Cột điện 111T (F4.7)","Street":"Tỉnh lộ 10 Bình Chánh","SupportDisability":"","Status":"Đang khai thác","Lng":106.542857,"Lat":10.774948,"Search":"UbxPVH Cd111T( Tl10BC","Routes":"62-6, 62-7, 71, 81"},{"StopId":3442,"Code":"HBC 299","Name":"Công ty Chấn Hưng","StopType":"Trụ dừng","Zone":"Huyện Bình Chánh","Ward":"Xã Lê Minh Xuân","AddressNo":"F5/6","Street":"Tỉnh lộ 10 Bình Chánh","SupportDisability":"","Status":"Đang khai thác","Lng":106.545657,"Lat":10.773462,"Search":"CtCH F Tl10BC","Routes":"62-6, 62-7, 71, 81"},{"StopId":3443,"Code":"HBC 300","Name":"Trường tiểu học Phạm Văn Hai","StopType":"Trụ dừng","Zone":"Huyện Bình Chánh","Ward":null,"AddressNo":"F7/6","Street":"Tỉnh lộ 10 Bình Chánh","SupportDisability":"","Status":"Đang khai thác","Lng":106.550125,"Lat":10.77128,"Search":"TthPVH F Tl10BC","Routes":"62-6, 62-7, 71, 81"},{"StopId":3613,"Code":"HBC_155","Name":"Bà Lát","StopType":"Trụ dừng","Zone":"Huyện Bình Chánh","Ward":"Xã Vĩnh Lộc B","AddressNo":"1A.96/1","Street":"Vĩnh Lộc","SupportDisability":"","Status":"Đang khai thác","Lng":106.551971,"Lat":10.77216,"Search":"BL 1A.96/1 VL","Routes":"71"},{"StopId":3611,"Code":"HBC 155","Name":"Công ty Hùng Tuấn","StopType":"Trụ dừng","Zone":"Huyện Bình Chánh","Ward":"Xã Vĩnh Lộc B","AddressNo":"1A.120","Street":"Vĩnh Lộc","SupportDisability":"","Status":"Đang khai thác","Lng":106.552588,"Lat":10.775944,"Search":"CtHT 1A.120 VL","Routes":"71"},{"StopId":3612,"Code":"HBC 156","Name":"Công ty Bảo Huy","StopType":"Trụ dừng","Zone":"Huyện Bình Chánh","Ward":"Xã Vĩnh Lộc B","AddressNo":"1A.149","Street":"Vĩnh Lộc","SupportDisability":"","Status":"Đang khai thác","Lng":106.553307,"Lat":10.780213,"Search":"CtBH 1A.149 VL","Routes":"71"},{"StopId":3615,"Code":"HBC 157","Name":"Cầu Bà Tri","StopType":"Trụ dừng","Zone":"Huyện Bình Chánh","Ward":"Xã Vĩnh Lộc B","AddressNo":"1A/163","Street":"Vĩnh Lộc","SupportDisability":"","Status":"Đang khai thác","Lng":106.554127,"Lat":10.78553,"Search":"CBT 1A/163 VL","Routes":"71"},{"StopId":3614,"Code":"HBC 158","Name":"Kinh Trung Ương","StopType":"Trụ dừng","Zone":"Huyện Bình Chánh","Ward":"Xã Vĩnh Lộc B","AddressNo":"888","Street":"Vĩnh Lộc","SupportDisability":"","Status":"Đang khai thác","Lng":106.555291,"Lat":10.790151,"Search":"KTU 888 VL","Routes":"71"},{"StopId":3617,"Code":"HBC 159","Name":"Rửa xe Hải Trí","StopType":"Trụ dừng","Zone":"Huyện Bình Chánh","Ward":"Xã Vĩnh Lộc B","AddressNo":"Rửa xe Hải Trí","Street":"Vĩnh Lộc","SupportDisability":"","Status":"Đang khai thác","Lng":106.556536,"Lat":10.792934,"Search":"RxHT RxHT VL","Routes":"71"},{"StopId":3616,"Code":"HBC 142","Name":"Trạm xăng Hiệp Hòa","StopType":"Trụ dừng","Zone":"Huyện Bình Chánh","Ward":"Xã Vĩnh Lộc B","AddressNo":"1153A (F1/11)","Street":"Vĩnh Lộc","SupportDisability":"","Status":"Đang khai thác","Lng":106.557888,"Lat":10.795379,"Search":"TxHH 1153A( VL","Routes":"71"},{"StopId":3619,"Code":"HBC 143","Name":"UB xã Vĩnh Lộc B","StopType":"Trụ dừng","Zone":"Huyện Bình Chánh","Ward":"Xã Vĩnh Lộc B","AddressNo":"1330","Street":"Vĩnh Lộc","SupportDisability":"","Status":"Đang khai thác","Lng":106.561031,"Lat":10.799304,"Search":"UxVLB 1330 VL","Routes":"71"},{"StopId":3618,"Code":"HBC 144","Name":"Bãi đá Đức Cường","StopType":"Trụ dừng","Zone":"Huyện Bình Chánh","Ward":null,"AddressNo":"1476A (1482)","Street":"Vĩnh Lộc","SupportDisability":"","Status":"Đang khai thác","Lng":106.564599,"Lat":10.803794,"Search":"BdDC 1476A( VL","Routes":"71"},{"StopId":3620,"Code":"HBC 145","Name":"Trạm xăng Lan Anh","StopType":"Trụ dừng","Zone":"Huyện Bình Chánh","Ward":"Xã Vĩnh Lộc B","AddressNo":"1674 (1860)","Street":"Vĩnh Lộc","SupportDisability":"","Status":"Đang khai thác","Lng":106.568246,"Lat":10.806539,"Search":"TxLA 1674( VL","Routes":"71"},{"StopId":2367,"Code":"HBC 146","Name":"KDC Vĩnh Lộc A","StopType":"Trụ dừng","Zone":"Huyện Bình Chánh","Ward":"Xã Vĩnh Lộc B","AddressNo":"1860","Street":"Vĩnh Lộc","SupportDisability":"","Status":"Đang khai thác","Lng":106.572393,"Lat":10.809158,"Search":"KVLA 1860 VL","Routes":"25, 71"},{"StopId":2366,"Code":"HBC 147","Name":"Ngã 5 Vĩnh Lộc","StopType":"Trụ dừng","Zone":"Huyện Bình Chánh","Ward":"Xã Vĩnh Lộc B","AddressNo":"Cột điện T142P (2170)","Street":"Vĩnh Lộc","SupportDisability":"","Status":"Đang khai thác","Lng":106.575338,"Lat":10.811023,"Search":"N5VL CdT( VL","Routes":"25, 71"},{"StopId":3102,"Code":"QBT 182","Name":"Trạm giữa Vĩnh Lộc","StopType":"Ô sơn","Zone":"Quận Bình Tân","Ward":null,"AddressNo":"Đối diện F9/6 (Châu Phú Mỹ)","Street":"Vĩnh Lộc","SupportDisability":"","Status":"Đang khai thác","Lng":106.58548,"Lat":10.818697,"Search":"TgVL DdF(PM VL","Routes":"48, 71"},{"StopId":3105,"Code":"QBT 183","Name":"Đường liên ấp 5-6","StopType":"Ô sơn","Zone":"Quận Bình Tân","Ward":null,"AddressNo":"288","Street":"Đường số 2","SupportDisability":"","Status":"Đang khai thác","Lng":106.587676,"Lat":10.820539,"Search":"Dla5-6 288 Ds2","Routes":"48, 71"},{"StopId":3104,"Code":"QBT 184","Name":"Chốt 2 KCN Vĩnh Lộc","StopType":"Ô sơn","Zone":"Quận Bình Tân","Ward":null,"AddressNo":"330","Street":"Đường số 2","SupportDisability":"","Status":"Đang khai thác","Lng":106.58957,"Lat":10.822362,"Search":"C2KVL 330 Ds2","Routes":"48, 71"},{"StopId":3107,"Code":"QBT 185","Name":"Kho vật tư thiết bị","StopType":"Ô sơn","Zone":"Quận Bình Tân","Ward":null,"AddressNo":"Kho vật tư thiết bị","Street":"Đường số 2","SupportDisability":"","Status":"Đang khai thác","Lng":106.591393,"Lat":10.824402,"Search":"Kvttb Kvttb Ds2","Routes":"48, 71"},{"StopId":3106,"Code":"QBT 186","Name":"Công ty Cholimex","StopType":"Ô sơn","Zone":"Quận Bình Tân","Ward":null,"AddressNo":"Công ty Cholimex","Street":"Đường số 2","SupportDisability":"","Status":"Đang khai thác","Lng":106.59269,"Lat":10.826073,"Search":"CtC CtC Ds2","Routes":"48, 71"},{"StopId":3109,"Code":"HHM 153","Name":"Chung cu Hoàng Hải","StopType":"Trụ dừng","Zone":"Huyện Hóc Môn","Ward":"Xã Bà Điểm","AddressNo":"321 (43/12)","Street":"Phan Văn Đối","SupportDisability":"","Status":"Đang khai thác","Lng":106.595578,"Lat":10.830197,"Search":"CcHH 321( PVD","Routes":"48, 71"},{"StopId":3108,"Code":"HHM 154","Name":"Bưu điện Phan Văn Đối","StopType":"Ô sơn","Zone":"Huyện Hóc Môn","Ward":"Xã Bà Điểm","AddressNo":"43/11 (43/1)","Street":"Phan Văn Đối","SupportDisability":"","Status":"Đang khai thác","Lng":106.597166,"Lat":10.83348,"Search":"BdPVD 43/11( PVD","Routes":"48, 71"},{"StopId":3110,"Code":"HHM 155","Name":"Nhà Hàng Ngọc Huyền","StopType":"Trụ dừng","Zone":"Huyện Hóc Môn","Ward":"Xã Bà Điểm","AddressNo":"43/3E (31/3C)","Street":"Phan Văn Đối","SupportDisability":"","Status":"Đang khai thác","Lng":106.598856,"Lat":10.836478,"Search":"NHNH 43/3E( PVD","Routes":"48, 71"},{"StopId":3111,"Code":"HHM 156","Name":"Chùa Giác Hoàng","StopType":"Ô sơn","Zone":"Huyện Hóc Môn","Ward":"Xã Bà Điểm","AddressNo":"41/2 (42/1B)","Street":"Phan Văn Đối","SupportDisability":"","Status":"Đang khai thác","Lng":106.599934,"Lat":10.838469,"Search":"CGH 41/2( PVD","Routes":"48, 71"},{"StopId":2211,"Code":"HHM 179","Name":"Chợ Bà Điểm","StopType":"Trụ dừng","Zone":"Huyện Hóc Môn","Ward":"Xã Bà Điểm","AddressNo":"đd 14/9","Street":"Phan Văn Hớn","SupportDisability":"","Status":"Đang khai thác","Lng":106.599693,"Lat":10.839987,"Search":"CBD d14/9 PVH","Routes":"23, 48, 71"},{"StopId":3113,"Code":"HHM 167","Name":"Trường Phan Công Hớn","StopType":"Nhà chờ","Zone":"Huyện Hóc Môn","Ward":"Xã Bà Điểm","AddressNo":"Đối diện 100/1","Street":"Nguyễn Ánh Thủ","SupportDisability":"","Status":"Đang khai thác","Lng":106.599854,"Lat":10.84191,"Search":"TPCH Dd100/1 NAT","Routes":"48, 71"},{"StopId":3112,"Code":"HHM 168","Name":"Nguyễn Thị Sóc","StopType":"Trụ dừng","Zone":"Huyện Hóc Môn","Ward":"Xã Bà Điểm","AddressNo":"60/8A (Đối diện 135)","Street":"Nguyễn Ánh Thủ","SupportDisability":"","Status":"Đang khai thác","Lng":106.600412,"Lat":10.84643,"Search":"NTS 60/8A(d135) NAT","Routes":"48, 71"},{"StopId":7842,"Code":"HHM 248","Name":"Trường THPT Bà Điểm","StopType":"Ô sơn","Zone":"Huyện Hóc Môn","Ward":"Xã Bà Điểm","AddressNo":"3/6C – 3/6D ","Street":"Nguyễn Thị Sóc","SupportDisability":"","Status":"Đang khai thác","Lng":106.600438,"Lat":10.851267,"Search":"TTBD 3/6C–3/6D NTS","Routes":"71"},{"StopId":9459,"Code":"HHM 249","Name":"Ấp Hưng Lân","StopType":"Ô sơn","Zone":"Huyện Hóc Môn","Ward":"Xã Bà Điểm","AddressNo":"1/8 B (cây xanh 117 – 119) ","Street":"Nguyễn Thị Sóc","SupportDisability":"","Status":"Đang khai thác","Lng":106.601446,"Lat":10.855559,"Search":"AHL 1/8B(x117–119) NTS","Routes":"71"},{"StopId":9460,"Code":"HHM 250","Name":"Chợ Đầu Mối Nông Sản Thực Phẩm Hóc Môn","StopType":"Ô sơn","Zone":"Huyện Hóc Môn","Ward":"Xã Xuân Thới Sơn","AddressNo":"B58/2","Street":"Nguyễn Thị Sóc","SupportDisability":"","Status":"Đang khai thác","Lng":106.602064,"Lat":10.857979,"Search":"CDMNSTPHM B NTS","Routes":"71"},{"StopId":1234,"Code":"HHM 053","Name":"Ngã 3 Củ Cải","StopType":"Nhà chờ","Zone":"Huyện Hóc Môn","Ward":"Xã Xuân Thới Đông","AddressNo":"43/1 (kế 33/5A), 7/2A","Street":"Quốc lộ 22","SupportDisability":"Có","Status":"Đang khai thác","Lng":106.603324,"Lat":10.860602,"Search":"N3CC 43/1(33/5A),7/2A Ql22","Routes":"122, 13, 62-5, 71, 74, 85, 94"},{"StopId":3635,"Code":"HHM 055","Name":"Chùa Linh Sơn","StopType":"Trụ dừng","Zone":"Huyện Hóc Môn","Ward":null,"AddressNo":"G68A","Street":"Quốc lộ 22","SupportDisability":"","Status":"Đang khai thác","Lng":106.606178,"Lat":10.85662,"Search":"CLS G Ql22","Routes":"122, 13, 62-5, 71, 74, 85, 94"},{"StopId":1393,"Code":"HHM 056","Name":"Ngã tư Trung Chánh","StopType":"Nhà chờ","Zone":"Huyện Hóc Môn","Ward":"Xã Trung Chánh","AddressNo":"30/10B (kế 30)","Street":"Quốc lộ 22","SupportDisability":"Có","Status":"Đang khai thác","Lng":106.608152,"Lat":10.853595,"Search":"NtTC 30/10B(30) Ql22","Routes":"122, 13, 145, 62-5, 71, 74, 85, 94"},{"StopId":1238,"Code":"HHM 057","Name":"Cư xá Bà Điểm","StopType":"Nhà chờ","Zone":"Huyện Hóc Môn","Ward":"Xã Bà Điểm","AddressNo":"3A","Street":"Quốc lộ 22","SupportDisability":"Có","Status":"Đang khai thác","Lng":106.610641,"Lat":10.849713,"Search":"CxBD 3A Ql22","Routes":"122, 13, 145, 62-5, 71, 74, 85, 94"},{"StopId":1239,"Code":"HHM 058","Name":"Bến xe An Sương","StopType":"Trụ dừng","Zone":"Huyện Hóc Môn","Ward":"Xã Bà Điểm","AddressNo":"1B","Street":"Quốc lộ 22","SupportDisability":"","Status":"Đang khai thác","Lng":106.613522,"Lat":10.845187,"Search":"BxAS 1B Ql22","Routes":"04, 122, 13, 145, 151, 33, 41, 62-5, 65, 71, 74, 85, 94"},{"StopId":166,"Code":"BX41","Name":"Bến xe An Sương","StopType":"Bến xe","Zone":"Quận 12","Ward":null,"AddressNo":"Bến xe An Sương","Street":"Quốc lộ 22","SupportDisability":"","Status":"Đang khai thác","Lng":106.61337280273438,"Lat":10.843737602233887,"Search":"BxAS BxAS Ql22","Routes":"04, 104, 122, 151, 27, 33, 41, 61-3, 62-5, 65, 71, 74, 85"}]