[{"StopId":9547,"Code":"BX99","Name":"Ga Thủ Đức","StopType":"Bến xe","Zone":"TP. Thủ Đức - KV3","Ward":"Phường Bình Thọ","AddressNo":"Cây xanh 2E-2F","Street":"Hàn Thuyên","SupportDisability":"Có","Status":"Đang khai thác","Lng":106.770867,"Lat":10.845813,"Search":"GTD Cx2E-2F HT","Routes":"162"},{"StopId":1502,"Code":"Q9 089","Name":"Siêu thị Coopmart","StopType":"Nhà chờ","Zone":"TP. Thủ Đức - KV2","Ward":null,"AddressNo":"4-6","Street":"Lê Văn Việt","SupportDisability":"","Status":"Đang khai thác","Lng":106.775032,"Lat":10.848192,"Search":"StC 4-6 LVV","Routes":"141, 162, 56, 57, 76"},{"StopId":1504,"Code":"Q9 090","Name":"Bệnh viện 7C-Trường Quân y 2","StopType":"Trụ dừng","Zone":"TP. Thủ Đức - KV2","Ward":null,"AddressNo":"50","Street":"Lê Văn Việt","SupportDisability":"","Status":"Đang khai thác","Lng":106.778124,"Lat":10.846262,"Search":"Bv7C-TruongQy2 50 LVV","Routes":"141, 162, 56, 57, 76"},{"StopId":1495,"Code":"Q9 091","Name":"Nhà sách Thành Nghĩa","StopType":"Trụ dừng","Zone":"TP. Thủ Đức - KV2","Ward":null,"AddressNo":"142-144","Street":"Lê Văn Việt","SupportDisability":"","Status":"Đang khai thác","Lng":106.780563,"Lat":10.84486,"Search":"NsTN 142-144 LVV","Routes":"141, 162, 162V, 56, 57, 76"},{"StopId":1497,"Code":"Q9 092","Name":"Trạm y tế Phường Hiệp Phú","StopType":"Trụ dừng","Zone":"TP. Thủ Đức - KV2","Ward":"Phường Tăng Nhơn Phú B","AddressNo":"192-194 (188)","Street":"Lê Văn Việt","SupportDisability":"","Status":"Đang khai thác","Lng":106.782028,"Lat":10.844114,"Search":"TytPHP 192-194( LVV","Routes":"141, 162, 162V, 56, 76, 99"},{"StopId":1499,"Code":"Q9 093","Name":"Chợ Hiệp Phú","StopType":"Trụ dừng","Zone":"TP. Thủ Đức - KV2","Ward":"Phường Tăng Nhơn Phú B","AddressNo":"(278) 284","Street":"Lê Văn Việt","SupportDisability":"","Status":"Đang khai thác","Lng":106.784261,"Lat":10.844128,"Search":"CHP (284 LVV","Routes":"141, 162, 162V, 56, 76, 99"},{"StopId":1506,"Code":"Q9 094","Name":"Chợ Tăng Nhơn Phú A","StopType":"Trụ dừng","Zone":"TP. Thủ Đức - KV2","Ward":"Phường Tăng Nhơn Phú A","AddressNo":"424A-424B","Street":"Lê Văn Việt","SupportDisability":"","Status":"Đang khai thác","Lng":106.787973,"Lat":10.844813,"Search":"CTNPA 424A-424B LVV","Routes":"141, 162, 56, 99"},{"StopId":1501,"Code":"Q9 095","Name":"Bệnh viện Quận 9","StopType":"Trụ dừng","Zone":"TP. Thủ Đức - KV2","Ward":null,"AddressNo":"Đối diện Bệnh viện Quận 9","Street":"Lê Văn Việt","SupportDisability":"","Status":"Đang khai thác","Lng":106.790977,"Lat":10.8446,"Search":"BvQ9 DdBvQ9 LVV","Routes":"141, 162, 56, 99"},{"StopId":1508,"Code":"Q9 096","Name":"Đại Học GTVT","StopType":"Trụ dừng","Zone":"TP. Thủ Đức - KV2","Ward":"Phường Tăng Nhơn Phú A","AddressNo":"Đối diện 451","Street":"Lê Văn Việt","SupportDisability":"","Status":"Đang khai thác","Lng":106.793922,"Lat":10.845276,"Search":"DHG Dd451 LVV","Routes":"141, 162, 56, 99"},{"StopId":8101,"Code":"Q9 313","Name":"Ký túc xá Đại học Sư phạm kỹ thuật","StopType":"Nhà chờ","Zone":"TP. Thủ Đức - KV2","Ward":"Phường Tăng Nhơn Phú A","AddressNo":"Cây xanh 132-134","Street":"Lê Văn Việt","SupportDisability":"Có","Status":"Đang khai thác","Lng":106.796429,"Lat":10.845888,"Search":"KtxDhSpkt Cx132-134 LVV","Routes":"141, 162, 56, 99"},{"StopId":3709,"Code":"Q9 150","Name":"Chung Cư C5","StopType":"Nhà chờ","Zone":"TP. Thủ Đức - KV2","Ward":"Phường Tăng Nhơn Phú A","AddressNo":"Đối diện 260-262","Street":"Man Thiện","SupportDisability":"","Status":"Đang khai thác","Lng":106.798546,"Lat":10.848179,"Search":"CCC Dd260-262 MT","Routes":"162, 76"},{"StopId":3710,"Code":"Q9 149","Name":"Trường mầm non Tuổi Hồng","StopType":"Trụ dừng","Zone":"TP. Thủ Đức - KV2","Ward":"Phường Tăng Nhơn Phú A","AddressNo":"361 (355-357)","Street":"Man Thiện","SupportDisability":"","Status":"Đang khai thác","Lng":106.795515,"Lat":10.850772,"Search":"TmnTH 361( MT","Routes":"162, 76"},{"StopId":3711,"Code":"Q9 148","Name":"Chung Cư C3","StopType":"Trụ dừng","Zone":"TP. Thủ Đức - KV2","Ward":"Phường Tăng Nhơn Phú A","AddressNo":"251-253","Street":"Man Thiện","SupportDisability":"","Status":"Đang khai thác","Lng":106.79215,"Lat":10.853138,"Search":"CCC 251-253 MT","Routes":"162, 76"},{"StopId":3712,"Code":"Q9 147","Name":"Học viện Chính trị - Hành chính","StopType":"Trụ dừng","Zone":"TP. Thủ Đức - KV2","Ward":null,"AddressNo":"Học viện Chính trị - Hành chính","Street":"Man Thiện","SupportDisability":"","Status":"Đang khai thác","Lng":106.787721,"Lat":10.850761,"Search":"HvCt-Hc HvCt-Hc MT","Routes":"162, 76"},{"StopId":3713,"Code":"Q9 146","Name":"Học Viện Bưu chính","StopType":"Trụ dừng","Zone":"TP. Thủ Đức - KV2","Ward":null,"AddressNo":"Học viện CN BC-VT","Street":"Man Thiện","SupportDisability":"","Status":"Đang khai thác","Lng":106.787147,"Lat":10.848164,"Search":"HVBc HvCB MT","Routes":"162, 76"},{"StopId":3714,"Code":"Q9 145","Name":"Ngã 3 Lê Văn Việt","StopType":"Trụ dừng","Zone":"TP. Thủ Đức - KV2","Ward":null,"AddressNo":"19-21","Street":"Man Thiện","SupportDisability":"","Status":"Đang khai thác","Lng":106.786605,"Lat":10.845593,"Search":"N3LVV 19-21 MT","Routes":"162, 76"},{"StopId":1537,"Code":"Q9 106","Name":"Chợ Hiệp Phú","StopType":"Ô sơn","Zone":"TP. Thủ Đức - KV2","Ward":"Phường Hiệp Phú","AddressNo":"241-243 (249)","Street":"Lê Văn Việt","SupportDisability":"","Status":"Đang khai thác","Lng":106.784084,"Lat":10.84427,"Search":"CHP 241-243( LVV","Routes":"141, 162, 56, 76, 99"},{"StopId":1534,"Code":"Q9 107","Name":"Trạm y tế Phường Hiệp Phú","StopType":"Trụ dừng","Zone":"TP. Thủ Đức - KV2","Ward":"Phường Hiệp Phú","AddressNo":"189-191","Street":"Lê Văn Việt","SupportDisability":"","Status":"Đang khai thác","Lng":106.781723,"Lat":10.844381,"Search":"TytPHP 189-191 LVV","Routes":"141, 162, 56, 76, 99"},{"StopId":1536,"Code":"Q9 091","Name":"Nhà sách Thành Nghĩa","StopType":"Trụ dừng","Zone":"TP. Thủ Đức - KV2","Ward":null,"AddressNo":"Đối diện 140-142","Street":"Lê Văn Việt","SupportDisability":"","Status":"Đang khai thác","Lng":106.780377,"Lat":10.845176,"Search":"NsTN Dd140-142 LVV","Routes":"141, 162, 56, 57, 76"},{"StopId":7974,"Code":"TPTĐ 106","Name":"Đường sách TP. Thủ Đức","StopType":"Ô sơn","Zone":"TP. Thủ Đức - KV2","Ward":"Phường Hiệp Phú","AddressNo":"Công viên đường Hồ Thị Tư","Street":"Hồ Thị Tư","SupportDisability":"Có","Status":"Đang khai thác","Lng":106.779214,"Lat":10.84415,"Search":"DsTTD CvdHTT HTT","Routes":"162"},{"StopId":7972,"Code":"TPTĐ 104","Name":"Kho SAM – Công ty Gilimex","StopType":"Trụ dừng","Zone":"TP. Thủ Đức - KV2","Ward":"Phường Tăng Nhơn Phú B","AddressNo":"Đối diện 103","Street":"Trương Văn Hải","SupportDisability":"Có","Status":"Đang khai thác","Lng":106.777001,"Lat":10.839926,"Search":"KS–CtG Dd103 TVH","Routes":"162"},{"StopId":7970,"Code":"TPTĐ 102","Name":"Trường THPT Hoa Lư","StopType":"Trụ dừng","Zone":"TP. Thủ Đức - KV2","Ward":"Phường Tăng Nhơn Phú B","AddressNo":"Đối diện THPT Hoa Lư","Street":"Trương Văn Hải","SupportDisability":"Có","Status":"Đang khai thác","Lng":106.773561,"Lat":10.838881,"Search":"TTHL DdTHL TVH","Routes":"162"},{"StopId":8176,"Code":"TPTĐ 252","Name":"Công ty May Việt Thắng","StopType":"Trụ dừng","Zone":"TP. Thủ Đức - KV2","Ward":"Phường Hiệp Phú","AddressNo":"đối diện 34A","Street":"Quang Trung","SupportDisability":"Có","Status":"Chưa khai thác","Lng":106.77275,"Lat":10.84027,"Search":"CtMVT dd34A QT","Routes":"162"},{"StopId":7968,"Code":"TPTĐ 100","Name":"Chung cư Centum Weath Complex","StopType":"Trụ dừng","Zone":"TP. Thủ Đức - KV2","Ward":"Phường Hiệp Phú","AddressNo":"Đối diện Chung cư Centum Weath Complex","Street":"Phan Chu Trinh","SupportDisability":"Có","Status":"Đang khai thác","Lng":106.771059,"Lat":10.841886,"Search":"CcCWC DdCcCWC PCT","Routes":"162"},{"StopId":9555,"Code":"HCM 0011","Name":"Ban Quản lý Đường sắt đô thị TP. HCM","StopType":"Ô sơn","Zone":"TP. Thủ Đức - KV2","Ward":"Phường Hiệp Phú","AddressNo":"Đối diện Công ty CP Địa ốc 9","Street":"Hẻm 674","SupportDisability":"Có","Status":"Đang khai thác","Lng":106.77015,"Lat":10.84027,"Search":"BQlDsdtTH DdCtCDo9 H674","Routes":"162"},{"StopId":7966,"Code":"TPTĐ 098","Name":"Trung tâm Xúc tiến Thương mại và Đầu tư Thành phố Thủ Đức","StopType":"Trụ dừng","Zone":"TP. Thủ Đức - KV2","Ward":"Phường Hiệp Phú","AddressNo":"sau lưng trạm xe buýt 1B Xa Lộ Hà Nội","Street":"Song Hành phải Xa Lộ Hà Nội","SupportDisability":"Có","Status":"Đang khai thác","Lng":106.769154,"Lat":10.840586,"Search":"TtXtTmvDtTpTD sltxb1BXLHN SHpXLHN","Routes":"162, 162V"},{"StopId":8192,"Code":"TPTĐ 268","Name":"Ngã tư Bình Thái","StopType":"Trụ dừng","Zone":"TP. Thủ Đức - KV2","Ward":"Phường Phước Long B","AddressNo":"sau lưng nhà chờ xe buýt Kho 71","Street":"Song Hành phải XLHN","SupportDisability":"Có","Status":"Đang khai thác","Lng":106.767104,"Lat":10.836908,"Search":"NtBT slncxbK71 SHpX","Routes":"162, 162V"},{"StopId":8092,"Code":"TPTĐ 222","Name":"Ga Metro Bình Thái","StopType":"Nhà chờ","Zone":"TP. Thủ Đức - KV2","Ward":"Phường Phước Long A","AddressNo":"Đối diện Công ty TNHH Đầu tư Metro Star","Street":"Song Hành phải Xa Lộ Hà Nội","SupportDisability":"Có","Status":"Đang khai thác","Lng":106.764676,"Lat":10.832011,"Search":"GMBT DdCtTDtMS SHpXLHN","Routes":"162, 162V, 163D, 169D, 169V"},{"StopId":8108,"Code":"BX 108","Name":"BẾN XE BUÝT GA BÌNH THÁI","StopType":"Bến xe","Zone":"TP. Thủ Đức - KV2","Ward":"Phường Phước Long A","AddressNo":"360","Street":"Võ Nguyên Giáp","SupportDisability":"Có","Status":"Chưa khai thác","Lng":106.764215,"Lat":10.831168,"Search":"BXBGBT 360 VNG","Routes":"162, 162V, 163D, 163V, 169D, 169V"}]