[{"StopId":1185,"Code":"BX 62","Name":"Bến xe buýt Tân Quy","StopType":"Bến xe","Zone":"Huyện Củ Chi","Ward":null,"AddressNo":"BẾN XE BUÝT TÂN QUY","Street":"Tỉnh lộ 8, Củ Chi","SupportDisability":"","Status":"Đang khai thác","Lng":106.578176,"Lat":10.984251,"Search":"BxbTQ BXBTQ Tl8,CC","Routes":"122, 70"},{"StopId":1206,"Code":"QCCT136","Name":"Ngã tư Tân Quy","StopType":"Trụ dừng","Zone":"Huyện Củ Chi","Ward":"Xã Tân Thạnh Tây","AddressNo":"115","Street":"Tỉnh lộ 15 Củ Chi","SupportDisability":"","Status":"Đang khai thác","Lng":106.576881,"Lat":10.982633,"Search":"NtTQ 115 Tl15CC","Routes":"122"},{"StopId":1205,"Code":"QCCT137","Name":"Công ty Hongwon","StopType":"Trụ dừng","Zone":"Huyện Củ Chi","Ward":"Xã Tân Thạnh Đông","AddressNo":"33 (37)","Street":"Tỉnh lộ 15 Củ Chi","SupportDisability":"","Status":"Đang khai thác","Lng":106.5793,"Lat":10.979333,"Search":"CtH 33( Tl15CC","Routes":"122"},{"StopId":1207,"Code":"QCCT138","Name":"Cây xăng Quang Vinh","StopType":"Trụ dừng","Zone":"Huyện Củ Chi","Ward":"Xã Tân Thạnh Đông","AddressNo":"715","Street":"Tỉnh lộ 15 Củ Chi","SupportDisability":"","Status":"Đang khai thác","Lng":106.582382,"Lat":10.97605,"Search":"CxQV 715 Tl15CC","Routes":"122"},{"StopId":1208,"Code":"QCCT139","Name":"Cửa hàng sữa Việt Xuân","StopType":"Nhà chờ","Zone":"Huyện Củ Chi","Ward":"Xã Tân Thạnh Đông","AddressNo":"Trường tiểu học Tân Thạnh Đông 3","Street":"Tỉnh lộ 15 Củ Chi","SupportDisability":"Có","Status":"Đang khai thác","Lng":106.584953,"Lat":10.973317,"Search":"ChsVX TthTTD3 Tl15CC","Routes":"122"},{"StopId":1211,"Code":"QCCT140","Name":"Trường cấp 2 Tân Thạnh Đông","StopType":"Nhà chờ","Zone":"Huyện Củ Chi","Ward":"Xã Tân Thạnh Đông","AddressNo":"Trường cấp 2 Tân Thạnh Đông","Street":"Tỉnh lộ 15 Củ Chi","SupportDisability":"Có","Status":"Đang khai thác","Lng":106.58873,"Lat":10.9693,"Search":"Tc2TTD Tc2TTD Tl15CC","Routes":"122"},{"StopId":1209,"Code":"QCCT141","Name":"Miếu Bà Chúa Xứ","StopType":"Trụ dừng","Zone":"Huyện Củ Chi","Ward":"Xã Tân Thạnh Đông","AddressNo":"565C (Đối diện 640A)","Street":"Tỉnh lộ 15 Củ Chi","SupportDisability":"","Status":"Đang khai thác","Lng":106.591049,"Lat":10.966817,"Search":"MBCX 565C(d640A) Tl15CC","Routes":"122"},{"StopId":1212,"Code":"QCCT142","Name":"Cây xăng 57","StopType":"Trụ dừng","Zone":"Huyện Củ Chi","Ward":"Xã Tân Thạnh Đông","AddressNo":"517 ","Street":"Tỉnh lộ 15 Củ Chi","SupportDisability":"","Status":"Đang khai thác","Lng":106.593834,"Lat":10.963883,"Search":"Cx57 517 Tl15CC","Routes":"122"},{"StopId":1210,"Code":"HCC 151","Name":"Trường tiểu học Tân Thạnh Đông 2","StopType":"Trụ dừng","Zone":"Huyện Củ Chi","Ward":"Xã Tân Thạnh Đông","AddressNo":"455-457","Street":"Tỉnh lộ 15","SupportDisability":"","Status":"Đang khai thác","Lng":106.596382,"Lat":10.961017,"Search":"TthTTD2 455-457 Tl15","Routes":"122"},{"StopId":1214,"Code":"QCCT144","Name":"Sân banh","StopType":"Trụ dừng","Zone":"Huyện Củ Chi","Ward":"Xã Tân Thạnh Đông","AddressNo":"369","Street":"Tỉnh lộ 15 Củ Chi","SupportDisability":"","Status":"Đang khai thác","Lng":106.600815,"Lat":10.9552,"Search":"Sb 369 Tl15CC","Routes":"122"},{"StopId":1216,"Code":"QCCT145","Name":"Quán Hoa Sứ","StopType":"Trụ dừng","Zone":"Huyện Củ Chi","Ward":"Xã Tân Thạnh Đông","AddressNo":"301 (301C Quán Hoa Sứ)","Street":"Tỉnh lộ 15 Củ Chi","SupportDisability":"","Status":"Đang khai thác","Lng":106.602386,"Lat":10.952767,"Search":"QHS 301(QHS Tl15CC","Routes":"122"},{"StopId":1213,"Code":"QCCT146","Name":"Trường tiểu học Tân Thạnh Đông 1","StopType":"Nhà chờ","Zone":"Huyện Củ Chi","Ward":"Xã Tân Thạnh Đông","AddressNo":"195 (Đối diện giáo xứ Tân Thạnh Đông)","Street":"Tỉnh lộ 15 Củ Chi","SupportDisability":"Có","Status":"Đang khai thác","Lng":106.605453,"Lat":10.9481,"Search":"TthTTD1 195(dgxTTD Tl15CC","Routes":"122"},{"StopId":1218,"Code":"QCCT147","Name":"Mẫu giáo Tân Thạnh Đông","StopType":"Trụ dừng","Zone":"Huyện Củ Chi","Ward":"Xã Tân Thạnh Đông","AddressNo":"163 (165B)","Street":"Tỉnh lộ 15 Củ Chi","SupportDisability":"","Status":"Đang khai thác","Lng":106.605286,"Lat":10.9448,"Search":"MgTTD 163( Tl15CC","Routes":"122"},{"StopId":3232,"Code":"HCC 300","Name":"Cầu Tân Thạnh Đông","StopType":"Trụ dừng","Zone":"Huyện Củ Chi","Ward":null,"AddressNo":"103C","Street":"Tỉnh lộ 15","SupportDisability":"","Status":"Đang khai thác","Lng":106.60429,"Lat":10.940117,"Search":"CTTD 103C Tl15","Routes":"122"},{"StopId":7608,"Code":"HCC 302","Name":"Công ty Ngọc Châu","StopType":"Trụ dừng","Zone":"Huyện Củ Chi","Ward":"Xã Tân Thạnh Đông","AddressNo":"Công ty Ngọc Châu","Street":"TL 15","SupportDisability":"","Status":"Đang khai thác","Lng":106.603147,"Lat":10.932275,"Search":"CtNC CtNC T15","Routes":"122"},{"StopId":1215,"Code":"QCCT148","Name":"Ngã 3 Bình Mỹ","StopType":"Trụ dừng","Zone":"Huyện Củ Chi","Ward":"Xã Tân Thạnh Đông","AddressNo":"19/4C","Street":"Tỉnh lộ 15 Củ Chi","SupportDisability":"","Status":"Đang khai thác","Lng":106.600868,"Lat":10.921883,"Search":"N3BM 19/4C Tl15CC","Routes":"122"},{"StopId":1222,"Code":"HHM 119","Name":"Cây xăng Tài Lộc 3","StopType":"Trụ dừng","Zone":"Huyện Hóc Môn","Ward":"Xã Tân Hiệp","AddressNo":"22/3A","Street":"Đỗ Văn Dậy","SupportDisability":"","Status":"Đang khai thác","Lng":106.600202,"Lat":10.914961,"Search":"CxTL3 22/3A DVD","Routes":"122"},{"StopId":1217,"Code":"HHM 120","Name":"Ngã 3 Ông Trác","StopType":"Trụ dừng","Zone":"Huyện Hóc Môn","Ward":"Xã Tân Hiệp","AddressNo":"59","Street":"Đỗ Văn Dậy","SupportDisability":"","Status":"Đang khai thác","Lng":106.599741,"Lat":10.911,"Search":"N3OT 59 DVD","Routes":"122"},{"StopId":1219,"Code":"HHM 121","Name":"Công ty Nam Ho","StopType":"Trụ dừng","Zone":"Huyện Hóc Môn","Ward":"Xã Tân Hiệp","AddressNo":"6/9C","Street":"Đỗ Văn Dậy","SupportDisability":"","Status":"Đang khai thác","Lng":106.599548,"Lat":10.906902,"Search":"CtNH 6/9C DVD","Routes":"122"},{"StopId":1224,"Code":"HHM 123","Name":"Tân Hiệp 35","StopType":"Trụ dừng","Zone":"Huyện Hóc Môn","Ward":"Xã Tân Hiệp","AddressNo":"146/3","Street":"Đỗ Văn Dậy","SupportDisability":"","Status":"Đang khai thác","Lng":106.599757,"Lat":10.901687,"Search":"TH35 146/3 DVD","Routes":"122"},{"StopId":1225,"Code":"HHM 124","Name":"Lê Thị Lơ","StopType":"Ô sơn","Zone":"Huyện Hóc Môn","Ward":"Xã Tân Hiệp","AddressNo":"88/3A","Street":"Đỗ Văn Dậy","SupportDisability":"","Status":"Đang khai thác","Lng":106.599677,"Lat":10.898843,"Search":"LTL 88/3A DVD","Routes":"122"},{"StopId":1165,"Code":"HHM005","Name":"Nhà văn hóa Thiếu nhi huyện Hóc Môn","StopType":"Trụ dừng","Zone":"Huyện Hóc Môn","Ward":"Xã Tân Hiệp","AddressNo":"Đối diện 16","Street":"Đỗ Văn Dậy","SupportDisability":"","Status":"Đang khai thác","Lng":106.598454,"Lat":10.89583,"Search":"NvhTnhHM Dd16 DVD","Routes":"122"},{"StopId":1221,"Code":"HHM003","Name":"Nhà trẻ Phước An","StopType":"Trụ dừng","Zone":"Huyện Hóc Môn","Ward":"Thị trấn Hóc Môn","AddressNo":"49/2","Street":"Trương Nữ Vương","SupportDisability":"","Status":"Đang khai thác","Lng":106.597397,"Lat":10.893312,"Search":"NtPA 49/2 TNV","Routes":"122"},{"StopId":1223,"Code":"HHM004","Name":"Chợ Hóc Môn","StopType":"Trụ dừng","Zone":"Huyện Hóc Môn","Ward":"Thị trấn Hóc Môn","AddressNo":"29/2A","Street":"Trương Nữ Vương","SupportDisability":"","Status":"Đang khai thác","Lng":106.596512,"Lat":10.890146,"Search":"CHM 29/2A TNV","Routes":"122"},{"StopId":8127,"Code":"HHM TT 009","Name":"Lê Thị Hà 09","StopType":"Trạm tạm","Zone":"Huyện Hóc Môn","Ward":"Xã Tân Xuân","AddressNo":"5/14","Street":"Lê Thị Hà","SupportDisability":"","Status":"Đang khai thác","Lng":106.598083,"Lat":10.887649,"Search":"LTH09 5/14 LTH","Routes":"122, 85"},{"StopId":8128,"Code":"HHM TT 007","Name":"Lê Thị Hà 07","StopType":"Trạm tạm","Zone":"Huyện Hóc Môn","Ward":"Xã Tân Xuân","AddressNo":"269","Street":"Lê Thị Hà","SupportDisability":"","Status":"Đang khai thác","Lng":106.598679,"Lat":10.882112,"Search":"LTH07 269 LTH","Routes":"122, 85"},{"StopId":8130,"Code":"HHM TT 005","Name":"Lê Thị Hà 05","StopType":"Trạm tạm","Zone":"Huyện Hóc Môn","Ward":"Xã Tân Xuân","AddressNo":"1/101B","Street":"Lê Thị Hà","SupportDisability":"","Status":"Đang khai thác","Lng":106.59928,"Lat":10.87893,"Search":"LTH05 1/101B LTH","Routes":"122, 85"},{"StopId":8132,"Code":"HHM TT 003","Name":"Lê Thị Hà 03","StopType":"Trạm tạm","Zone":"Huyện Hóc Môn","Ward":"Xã Tân Xuân","AddressNo":"133","Street":"Lê Thị Hà","SupportDisability":"","Status":"Đang khai thác","Lng":106.598695,"Lat":10.875538,"Search":"LTH03 133 LTH","Routes":"122, 85"},{"StopId":8134,"Code":"HHM TT 001","Name":"Lê Thị Hà 01","StopType":"Trạm tạm","Zone":"Huyện Hóc Môn","Ward":"Xã Tân Xuân","AddressNo":"cạnh 47","Street":"Lê Thị Hà","SupportDisability":"","Status":"Đang khai thác","Lng":106.597155,"Lat":10.871529,"Search":"LTH01 c47 LTH","Routes":"122, 85"},{"StopId":1231,"Code":"HHM 050","Name":"Ngã 3 Bùi Môn","StopType":"Trụ dừng","Zone":"Huyện Hóc Môn","Ward":"Xã Xuân Thới Đông","AddressNo":"58/5","Street":"Quốc lộ 22","SupportDisability":"","Status":"Đang khai thác","Lng":106.596758,"Lat":10.869954,"Search":"N3BM 58/5 Ql22","Routes":"122, 13, 62-5, 74, 85, 94"},{"StopId":1235,"Code":"HHM 051","Name":"Trường học Tân Xuân","StopType":"Trụ dừng","Zone":"Huyện Hóc Môn","Ward":"Xã Tân Xuân","AddressNo":"1/4","Street":"Quốc lộ 22","SupportDisability":"","Status":"Đang khai thác","Lng":106.598904,"Lat":10.866919,"Search":"ThTX 1/4 Ql22","Routes":"122, 13, 62-5, 74, 85, 94"},{"StopId":1233,"Code":"HHM 052","Name":"Ngân Hàng Aribank","StopType":"Nhà chờ","Zone":"Huyện Hóc Môn","Ward":"Xã Trung Chánh","AddressNo":"5/1 (gần đường Nguyễn Thị Sóc)","Street":"Quốc lộ 22","SupportDisability":"Có","Status":"Đang khai thác","Lng":106.601978,"Lat":10.862546,"Search":"NHA 5/1(dNTS Ql22","Routes":"122, 13, 62-5, 74, 85, 94"},{"StopId":1234,"Code":"HHM 053","Name":"Ngã 3 Củ Cải","StopType":"Nhà chờ","Zone":"Huyện Hóc Môn","Ward":"Xã Xuân Thới Đông","AddressNo":"43/1 (kế 33/5A), 7/2A","Street":"Quốc lộ 22","SupportDisability":"Có","Status":"Đang khai thác","Lng":106.603324,"Lat":10.860602,"Search":"N3CC 43/1(33/5A),7/2A Ql22","Routes":"122, 13, 62-5, 71, 74, 85, 94"},{"StopId":3635,"Code":"HHM 055","Name":"Chùa Linh Sơn","StopType":"Trụ dừng","Zone":"Huyện Hóc Môn","Ward":null,"AddressNo":"G68A","Street":"Quốc lộ 22","SupportDisability":"","Status":"Đang khai thác","Lng":106.606178,"Lat":10.85662,"Search":"CLS G Ql22","Routes":"122, 13, 62-5, 71, 74, 85, 94"},{"StopId":1393,"Code":"HHM 056","Name":"Ngã tư Trung Chánh","StopType":"Nhà chờ","Zone":"Huyện Hóc Môn","Ward":"Xã Trung Chánh","AddressNo":"30/10B (kế 30)","Street":"Quốc lộ 22","SupportDisability":"Có","Status":"Đang khai thác","Lng":106.608152,"Lat":10.853595,"Search":"NtTC 30/10B(30) Ql22","Routes":"122, 13, 145, 62-5, 71, 74, 85, 94"},{"StopId":1238,"Code":"HHM 057","Name":"Cư xá Bà Điểm","StopType":"Nhà chờ","Zone":"Huyện Hóc Môn","Ward":"Xã Bà Điểm","AddressNo":"3A","Street":"Quốc lộ 22","SupportDisability":"Có","Status":"Đang khai thác","Lng":106.610641,"Lat":10.849713,"Search":"CxBD 3A Ql22","Routes":"122, 13, 145, 62-5, 71, 74, 85, 94"},{"StopId":1239,"Code":"HHM 058","Name":"Bến xe An Sương","StopType":"Trụ dừng","Zone":"Huyện Hóc Môn","Ward":"Xã Bà Điểm","AddressNo":"1B","Street":"Quốc lộ 22","SupportDisability":"","Status":"Đang khai thác","Lng":106.613522,"Lat":10.845187,"Search":"BxAS 1B Ql22","Routes":"04, 122, 13, 145, 151, 33, 41, 62-5, 65, 71, 74, 85, 94"},{"StopId":166,"Code":"BX41","Name":"Bến xe An Sương","StopType":"Bến xe","Zone":"Quận 12","Ward":null,"AddressNo":"Bến xe An Sương","Street":"Quốc lộ 22","SupportDisability":"","Status":"Đang khai thác","Lng":106.61337280273438,"Lat":10.843737602233887,"Search":"BxAS BxAS Ql22","Routes":"04, 104, 122, 151, 27, 33, 41, 61-3, 62-5, 65, 71, 74, 85"}]