[{"StopId":35,"Code":"BX 01","Name":"Bến xe buýt Sài Gòn","StopType":"Bến xe","Zone":"Quận 1","Ward":"Phường Phạm Ngũ Lão","AddressNo":"BẾN XE BUÝT SÀI GÒN","Street":"Lê Lai","SupportDisability":"Có","Status":"Đang khai thác","Lng":106.689362,"Lat":10.767676,"Search":"BxbSG BXBSG LL","Routes":"03, 04, 102, 109, 13, 140, 171, 172, 18, 19, 20, 27, 28, 34, 36, 39, 52, 65, 69, 72, 75, 86, 88, 93, D4, DL03, DL04, DL05"},{"StopId":86,"Code":"Q1 147","Name":"Nhà thờ Huyện Sỹ","StopType":"Trụ dừng","Zone":"Quận 1","Ward":null,"AddressNo":"206Bis","Street":"Nguyễn Trãi","SupportDisability":"","Status":"Đang khai thác","Lng":106.688591,"Lat":10.767692,"Search":"NtHS 206Bis NT","Routes":"27, 46, 53, 72-2B"},{"StopId":88,"Code":"Q1 006","Name":"Chợ Thái Bình","StopType":"Trụ dừng","Zone":"Quận 1","Ward":null,"AddressNo":"244","Street":"Cống Quỳnh","SupportDisability":"","Status":"Đang khai thác","Lng":106.687793,"Lat":10.766943,"Search":"CTB 244 CQ","Routes":"27, 53"},{"StopId":89,"Code":"Q3 072","Name":"Trung ương Hội Chữ thập đỏ TP","StopType":"Nhà chờ","Zone":"Quận 3","Ward":null,"AddressNo":"464 - 466","Street":"Nguyễn Thị Minh Khai","SupportDisability":"","Status":"Đang khai thác","Lng":106.683657,"Lat":10.767723,"Search":"TuHCtdT 464-466 NTMK","Routes":"05, 06, 14, 27, 38, 53"},{"StopId":90,"Code":"Q3 073","Name":"Nhà sách Minh Khai","StopType":"Trụ dừng","Zone":"Quận 3","Ward":null,"AddressNo":"488","Street":"Nguyễn Thị Minh Khai","SupportDisability":"","Status":"Đang khai thác","Lng":106.68238,"Lat":10.766395,"Search":"NsMK 488 NTMK","Routes":"05, 06, 14, 27, 38, 53"},{"StopId":1409,"Code":"Q3 037","Name":"Nhà khách Chính phủ","StopType":"Nhà chờ","Zone":"Quận 3","Ward":null,"AddressNo":"120","Street":"Lý Thái Tổ","SupportDisability":"","Status":"Đang khai thác","Lng":106.680363,"Lat":10.765963,"Search":"NkCp 120 LTT","Routes":"14, 27"},{"StopId":1413,"Code":"Q3 038","Name":"Nguyễn Đình Chiểu","StopType":"Trụ dừng","Zone":"Quận 3","Ward":null,"AddressNo":"170","Street":"Lý Thái Tổ","SupportDisability":"","Status":"Đang khai thác","Lng":106.678099,"Lat":10.76668,"Search":"NDC 170 LTT","Routes":"14, 150, 27, 69"},{"StopId":1416,"Code":"Q3 039","Name":"Hồ Thị Kỷ","StopType":"Biển treo","Zone":"Quận 3","Ward":null,"AddressNo":"306","Street":"Lý Thái Tổ","SupportDisability":"","Status":"Đang khai thác","Lng":106.675664,"Lat":10.767423,"Search":"HTK 306 LTT","Routes":"14, 150, 27, 69"},{"StopId":1411,"Code":"Q10 029","Name":"Chợ Phường 10","StopType":"Trụ dừng","Zone":"Quận 10","Ward":null,"AddressNo":"430","Street":"Lý Thái Tổ","SupportDisability":"","Status":"Đang khai thác","Lng":106.673051,"Lat":10.767865,"Search":"CP10 430 LTT","Routes":"14, 27, 69"},{"StopId":1412,"Code":"Q10 030","Name":"Bện viện Nhi Đồng 1","StopType":"Nhà chờ","Zone":"Quận 10","Ward":null,"AddressNo":"532","Street":"Lý Thái Tổ","SupportDisability":"","Status":"Đang khai thác","Lng":106.669739,"Lat":10.768029,"Search":"BvND1 532 LTT","Routes":"14, 27, 38, 69"},{"StopId":98,"Code":"Q10 008","Name":"Ngã ba Nguyễn Kim","StopType":"Trụ dừng","Zone":"Quận 10","Ward":null,"AddressNo":"626-628","Street":"Đường 3/2","SupportDisability":"","Status":"Đang khai thác","Lng":106.661743,"Lat":10.764972,"Search":"NbNK 626-628 D3/2","Routes":"14, 27"},{"StopId":100,"Code":"Q11 001","Name":"Nhà sách Phương Nam","StopType":"Nhà chờ","Zone":"Quận 11","Ward":null,"AddressNo":"940 (6B)","Street":"Đường 3/2","SupportDisability":"","Status":"Đang khai thác","Lng":106.658409,"Lat":10.763115,"Search":"NsPN 940( D3/2","Routes":"103, 14, 27"},{"StopId":2410,"Code":"Q11 029","Name":"Parkson","StopType":"Nhà chờ","Zone":"Quận 11","Ward":null,"AddressNo":"Đối diện 195 (155)","Street":"Lê Đại Hành","SupportDisability":"","Status":"Đang khai thác","Lng":106.656218,"Lat":10.763655,"Search":"P Dd195( LDH","Routes":"27"},{"StopId":2413,"Code":"Q11 030","Name":"Tôn Thất Hiệp","StopType":"Nhà chờ","Zone":"Quận 11","Ward":null,"AddressNo":"Đối diện 281 (265)","Street":"Lê Đại Hành","SupportDisability":"","Status":"Đang khai thác","Lng":106.65485,"Lat":10.765562,"Search":"TTH Dd281( LDH","Routes":"27"},{"StopId":2412,"Code":"Q11 031","Name":"Trường Đua Phú Thọ","StopType":"Nhà chờ","Zone":"Quận 11","Ward":null,"AddressNo":"Đối diện 349","Street":"Lê Đại Hành","SupportDisability":"","Status":"Đang khai thác","Lng":106.653616,"Lat":10.767344,"Search":"TDPT Dd349 LDH","Routes":"27"},{"StopId":2415,"Code":"Q11 032","Name":"Siêu thị Coopmart","StopType":"Nhà chờ","Zone":"Quận 11","Ward":null,"AddressNo":"2","Street":"Lê Đại Hành","SupportDisability":"","Status":"Đang khai thác","Lng":106.652902,"Lat":10.768466,"Search":"StC 2 LDH","Routes":"27"},{"StopId":2414,"Code":"QTB 040","Name":"Vòng xoay Lê Đại Hành","StopType":"Trụ dừng","Zone":"Quận Tân Bình","Ward":null,"AddressNo":"52","Street":"Âu Cơ","SupportDisability":"","Status":"Đang khai thác","Lng":106.651599,"Lat":10.769647,"Search":"VxLDH 52 AC","Routes":"27, 38"},{"StopId":2417,"Code":"QTB 041","Name":"Chợ Tân Phước","StopType":"Trụ dừng","Zone":"Quận Tân Bình","Ward":null,"AddressNo":"130","Street":"Âu Cơ","SupportDisability":"","Status":"Đang khai thác","Lng":106.65,"Lat":10.771992,"Search":"CTP 130 AC","Routes":"27, 38"},{"StopId":2416,"Code":"QTB 042","Name":"Ngã tư Lạc Long Quân","StopType":"Trụ dừng","Zone":"Quận Tân Bình","Ward":null,"AddressNo":"274 (260)","Street":"Âu Cơ","SupportDisability":"","Status":"Đang khai thác","Lng":106.648423,"Lat":10.7744,"Search":"NtLLQ 274( AC","Routes":"27, 38"},{"StopId":2419,"Code":"QTB 043","Name":"Ủy ban nhân dân Phường 10","StopType":"Nhà chờ","Zone":"Quận Tân Bình","Ward":null,"AddressNo":"290 (Ủy ban nhân dân phường 10)","Street":"Âu Cơ","SupportDisability":"","Status":"Đang khai thác","Lng":106.647162,"Lat":10.776113,"Search":"?bndP10 290(bndp10) AC","Routes":"27"},{"StopId":2418,"Code":"QTB 044","Name":"Chợ Trần Văn Quang","StopType":"Trụ dừng","Zone":"Quận Tân Bình","Ward":null,"AddressNo":"402","Street":"Âu Cơ","SupportDisability":"","Status":"Đang khai thác","Lng":106.645526,"Lat":10.778368,"Search":"CTVQ 402 AC","Routes":"27"},{"StopId":2421,"Code":"QTB 045","Name":"Công ty Bông Bạch Tuyết","StopType":"Trụ dừng","Zone":"Quận Tân Bình","Ward":null,"AddressNo":"548 (Công ty Bạch Tuyết)","Street":"Âu Cơ","SupportDisability":"","Status":"Đang khai thác","Lng":106.643708,"Lat":10.780987,"Search":"CtBBT 548(tBT AC","Routes":"27"},{"StopId":2199,"Code":"QTB 046","Name":"Bệnh Viện Tân Phú","StopType":"Trụ dừng","Zone":"Quận Tân Bình","Ward":null,"AddressNo":"584-590","Street":"Âu Cơ","SupportDisability":"","Status":"Đang khai thác","Lng":106.642785,"Lat":10.78299,"Search":"BVTP 584-590 AC","Routes":"23, 27"},{"StopId":2195,"Code":"QTB 047","Name":"Ngã tư Thoại Ngọc Hầu","StopType":"Nhà chờ","Zone":"Quận Tân Bình","Ward":null,"AddressNo":"678","Street":"Âu Cơ","SupportDisability":"","Status":"Đang khai thác","Lng":106.641991,"Lat":10.785335,"Search":"NtTNH 678 AC","Routes":"23, 27"},{"StopId":2196,"Code":"QTB 048","Name":"Bàu Cát 8","StopType":"Trụ dừng","Zone":"Quận Tân Bình","Ward":null,"AddressNo":"722","Street":"Âu Cơ","SupportDisability":"","Status":"Đang khai thác","Lng":106.641182,"Lat":10.78729,"Search":"BC8 722 AC","Routes":"23, 27, 62, 64"},{"StopId":2420,"Code":"QTB 049","Name":"Chợ Bàu Cát","StopType":"Trụ dừng","Zone":"Quận Tân Bình","Ward":null,"AddressNo":"794","Street":"Âu Cơ","SupportDisability":"","Status":"Đang khai thác","Lng":106.640221,"Lat":10.790294,"Search":"CBC 794 AC","Routes":"27, 62, 64"},{"StopId":2423,"Code":"QTB 050","Name":"Công ty Giấy Mai Lan","StopType":"Trụ dừng","Zone":"Quận Tân Bình","Ward":null,"AddressNo":"129","Street":"Âu Cơ","SupportDisability":"","Status":"Đang khai thác","Lng":106.638982,"Lat":10.793972,"Search":"CtGML 129 AC","Routes":"27, 30, 62"},{"StopId":2422,"Code":"QTB 051","Name":"Ngã ba Ba Vân","StopType":"Trụ dừng","Zone":"Quận Tân Bình","Ward":null,"AddressNo":"928","Street":"Âu Cơ","SupportDisability":"","Status":"Đang khai thác","Lng":106.638349,"Lat":10.796,"Search":"NbBV 928 AC","Routes":"27, 62"},{"StopId":2425,"Code":"QTB 052","Name":"Chợ Võ Thành Trang","StopType":"Trụ dừng","Zone":"Quận Tân Bình","Ward":null,"AddressNo":"988-990","Street":"Âu Cơ","SupportDisability":"","Status":"Đang khai thác","Lng":106.637576,"Lat":10.798709,"Search":"CVTT 988-990 AC","Routes":"27, 62"},{"StopId":2424,"Code":"QTB 053","Name":"Ngã ba Bà Quẹo","StopType":"Trụ dừng","Zone":"Quận Tân Bình","Ward":null,"AddressNo":"1064","Street":"Âu Cơ","SupportDisability":"","Status":"Đang khai thác","Lng":106.637045,"Lat":10.800674,"Search":"NbBQ 1064 AC","Routes":"27, 62"},{"StopId":1302,"Code":"QTB 073","Name":"Ngã tư Tân Kỳ Tân Quý","StopType":"Biển treo","Zone":"Quận Tân Bình","Ward":null,"AddressNo":"638","Street":"Trường Chinh","SupportDisability":"","Status":"Đang khai thác","Lng":106.635629,"Lat":10.804732,"Search":"NtTKTQ 638 TC","Routes":"13, 23, 27, 62, 65, 94"},{"StopId":2202,"Code":"QTB 074","Name":"Siêu thị Big C","StopType":"Nhà chờ","Zone":"Quận Tân Bình","Ward":null,"AddressNo":"680","Street":"Trường Chinh","SupportDisability":"","Status":"Đang khai thác","Lng":106.635184,"Lat":10.806202,"Search":"StBC 680 TC","Routes":"13, 23, 27, 62, 65, 94"},{"StopId":268,"Code":"QTB 075","Name":"Mũi tàu Cộng Hòa","StopType":"Trụ dừng","Zone":"Quận Tân Bình","Ward":null,"AddressNo":"19B1","Street":"Trường Chinh","SupportDisability":"","Status":"Đang khai thác","Lng":106.634638,"Lat":10.808314,"Search":"MtCH 19B1 TC","Routes":"04, 104, 13, 145, 16, 23, 27, 28, 62, 63-1, 65, 94"},{"StopId":267,"Code":"QTB 076","Name":"Ngã ba Chế Lan Viên","StopType":"Nhà chờ","Zone":"Quận Tân Bình","Ward":null,"AddressNo":"Đối diện đường Chế Lan Viên","Street":"Trường Chinh","SupportDisability":"","Status":"Đang khai thác","Lng":106.633349,"Lat":10.812204,"Search":"NbCLV DddCLV TC","Routes":"04, 104, 13, 145, 23, 27, 28, 62, 65, 94"},{"StopId":270,"Code":"QTB 078","Name":"UBND Phường 15","StopType":"Nhà chờ","Zone":"Quận Tân Bình","Ward":null,"AddressNo":"850","Street":"Trường Chinh","SupportDisability":"","Status":"Đang khai thác","Lng":106.631461,"Lat":10.818332,"Search":"UP15 850 TC","Routes":"04, 104, 13, 145, 23, 27, 62, 65, 94"},{"StopId":271,"Code":"QTB 079","Name":"Khu Công Nghiệp Tân Bình","StopType":"Nhà chờ","Zone":"Quận Tân Bình","Ward":null,"AddressNo":"932","Street":"Trường Chinh","SupportDisability":"","Status":"Đang khai thác","Lng":106.630254,"Lat":10.822452,"Search":"KCNTB 932 TC","Routes":"04, 104, 13, 145, 23, 27, 32, 41, 62, 65, 94"},{"StopId":272,"Code":"Q12 128","Name":"Cầu Tham Lương - Siêu thị Thiên Hòa","StopType":"Nhà chờ","Zone":"Quận 12","Ward":null,"AddressNo":"60A-B (1/17A)","Street":"Trường Chinh","SupportDisability":"","Status":"Đang khai thác","Lng":106.625828,"Lat":10.826957,"Search":"CTL-StTH 60A-B( TC","Routes":"04, 104, 13, 145, 23, 27, 41, 62, 65, 94"},{"StopId":273,"Code":"Q12 129","Name":"Chùa Vĩnh Phước","StopType":"Nhà chờ","Zone":"Quận 12","Ward":null,"AddressNo":"110 (189/4)","Street":"Trường Chinh","SupportDisability":"","Status":"Đang khai thác","Lng":106.624594,"Lat":10.828627,"Search":"CVP 110( TC","Routes":"04, 104, 13, 145, 27, 41, 65, 94"},{"StopId":275,"Code":"Q12 132","Name":"Chùa Lạc Quang","StopType":"Nhà chờ","Zone":"Quận 12","Ward":null,"AddressNo":"408","Street":"Trường Chinh","SupportDisability":"","Status":"Đang khai thác","Lng":106.620614,"Lat":10.834781,"Search":"CLQ 408 TC","Routes":"04, 104, 13, 145, 27, 41, 65, 94"},{"StopId":277,"Code":"Q12 131","Name":"Bitis","StopType":"Nhà chờ","Zone":"Quận 12","Ward":null,"AddressNo":"590 (640)","Street":"Trường Chinh","SupportDisability":"","Status":"Đang khai thác","Lng":106.618398,"Lat":10.838222,"Search":"B 590( TC","Routes":"04, 104, 13, 145, 27, 41, 65, 94"},{"StopId":1116,"Code":"Q12 123","Name":"Bến xe An Sương","StopType":"Trụ dừng","Zone":"Quận 12","Ward":null,"AddressNo":"142","Street":"Quốc lộ 22","SupportDisability":"","Status":"Đang khai thác","Lng":106.613361,"Lat":10.846035,"Search":"BxAS 142 Ql22","Routes":"151, 27, 41, 65, 71"},{"StopId":166,"Code":"BX41","Name":"Bến xe An Sương","StopType":"Bến xe","Zone":"Quận 12","Ward":null,"AddressNo":"Bến xe An Sương","Street":"Quốc lộ 22","SupportDisability":"","Status":"Đang khai thác","Lng":106.61337280273438,"Lat":10.843737602233887,"Search":"BxAS BxAS Ql22","Routes":"04, 104, 122, 151, 27, 33, 41, 61-3, 62-5, 65, 71, 74, 85"}]