[{"StopId":946,"Code":"BX37","Name":"Bến xe Ngã tư Ga","StopType":"Bến xe","Zone":"Quận 12","Ward":null,"AddressNo":"Bến xe Ngã Tư Ga","Street":"Quốc lộ 1A","SupportDisability":"","Status":"Đang khai thác","Lng":106.67835998535156,"Lat":10.862156867980957,"Search":"BxNtG BxNTG Ql1A","Routes":"103, 161, 32, 58, 59"},{"StopId":976,"Code":"Q12 071","Name":"Khu QLGTĐT số 3","StopType":"Trụ dừng","Zone":"Quận 12","Ward":null,"AddressNo":"96/2","Street":"Quốc lộ 1A","SupportDisability":"","Status":"Đang khai thác","Lng":106.674564,"Lat":10.861967,"Search":"KQs3 96/2 Ql1A","Routes":"103, 161, 32, 33, 59, 60-1, 61-3"},{"StopId":964,"Code":"Q12 072","Name":"Tô Ngọc Vân","StopType":"Trụ dừng","Zone":"Quận 12","Ward":null,"AddressNo":"972","Street":"Quốc lộ 1A","SupportDisability":"","Status":"Đang khai thác","Lng":106.671935,"Lat":10.861904,"Search":"TNV 972 Ql1A","Routes":"103, 161, 32, 33, 59, 61-3"},{"StopId":937,"Code":"Q12 110","Name":"Cây xăng Thạnh Xuân","StopType":"Trụ dừng","Zone":"Quận 12","Ward":null,"AddressNo":"Cây xăng Thạnh Xuân","Street":"Quốc lộ 1A","SupportDisability":"","Status":"Đang khai thác","Lng":106.671882,"Lat":10.861577,"Search":"CxTX CxTX Ql1A","Routes":"103, 161, 32, 33, 59, 60-1, 61-3"},{"StopId":938,"Code":"Q12 111","Name":"Cầu Cả Bốn","StopType":"Trụ dừng","Zone":"Quận 12","Ward":null,"AddressNo":"109","Street":"Quốc lộ 1A","SupportDisability":"","Status":"Đang khai thác","Lng":106.674446,"Lat":10.861619,"Search":"CCB 109 Ql1A","Routes":"103, 161, 32, 33, 59, 61-3"},{"StopId":944,"Code":"Q12 112","Name":"Bến xe Ngã tư Ga","StopType":"Nhà chờ","Zone":"Quận 12","Ward":null,"AddressNo":"Đối diện Bx Ngã tư Ga","Street":"Quốc lộ 1A","SupportDisability":"","Status":"Đang khai thác","Lng":106.678078,"Lat":10.861472,"Search":"BxNtG DdBNtG Ql1A","Routes":"103, 161, 32, 33, 59, 60-1, 61-3"},{"StopId":208,"Code":"Q12 055","Name":"Ngã tư Ga","StopType":"Trụ dừng","Zone":"Quận 12","Ward":null,"AddressNo":"141-143A","Street":"Hà Huy Giáp","SupportDisability":"","Status":"Đang khai thác","Lng":106.679649,"Lat":10.857984,"Search":"NtG 141-143A HHG","Routes":"03, 161, 32, 59"},{"StopId":211,"Code":"Q12 056","Name":"Nhà hàng Bến Xưa","StopType":"Trụ dừng","Zone":"Quận 12","Ward":null,"AddressNo":"205","Street":"Hà Huy Giáp","SupportDisability":"","Status":"Đang khai thác","Lng":106.679006,"Lat":10.853474,"Search":"NhBX 205 HHG","Routes":"03, 161, 32, 59"},{"StopId":209,"Code":"QGV 112","Name":"Cầu An Lộc","StopType":"Trụ dừng","Zone":"Quận Gò Vấp","Ward":null,"AddressNo":"523-525","Street":"Nguyễn Oanh","SupportDisability":"","Status":"Đang khai thác","Lng":106.678539,"Lat":10.848838,"Search":"CAL 523-525 NO","Routes":"03, 161, 32, 59"},{"StopId":210,"Code":"QGV 113","Name":"Bến Đò","StopType":"Trụ dừng","Zone":"Quận Gò Vấp","Ward":null,"AddressNo":"451","Street":"Nguyễn Oanh","SupportDisability":"","Status":"Đang khai thác","Lng":106.67826,"Lat":10.847015,"Search":"BD 451 NO","Routes":"03, 161, 32, 59"},{"StopId":212,"Code":"QGV 114","Name":"Bưu điện An Nhơn","StopType":"Trụ dừng","Zone":"Quận Gò Vấp","Ward":null,"AddressNo":"357","Street":"Nguyễn Oanh","SupportDisability":"","Status":"Đang khai thác","Lng":106.677214,"Lat":10.843975,"Search":"BdAN 357 NO","Routes":"03, 161, 32, 59"},{"StopId":214,"Code":"QGV 115","Name":"Ngã tư An Nhơn","StopType":"Trụ dừng","Zone":"Quận Gò Vấp","Ward":null,"AddressNo":"257","Street":"Nguyễn Oanh","SupportDisability":"","Status":"Đang khai thác","Lng":106.676313,"Lat":10.841436,"Search":"NtAN 257 NO","Routes":"03, 59"},{"StopId":215,"Code":"QGV 116","Name":"Đài Liệt sĩ","StopType":"Trụ dừng","Zone":"Quận Gò Vấp","Ward":null,"AddressNo":"197","Street":"Nguyễn Oanh","SupportDisability":"","Status":"Đang khai thác","Lng":106.675707,"Lat":10.839518,"Search":"DLs 197 NO","Routes":"03, 59"},{"StopId":216,"Code":"QGV 117","Name":"Trường Vinhempic","StopType":"Nhà chờ","Zone":"Quận Gò Vấp","Ward":null,"AddressNo":"189 (đối diện 234)","Street":"Nguyễn Oanh","SupportDisability":"","Status":"Đang khai thác","Lng":106.675395,"Lat":10.836978,"Search":"TV 189(d234) NO","Routes":"03, 59"},{"StopId":218,"Code":"QGV 118","Name":"Cư xá Lam Sơn","StopType":"Nhà chờ","Zone":"Quận Gò Vấp","Ward":null,"AddressNo":"189 (đối diện A4)","Street":"Nguyễn Oanh","SupportDisability":"","Status":"Đang khai thác","Lng":106.675535,"Lat":10.834939,"Search":"CxLS 189(dA NO","Routes":"03, 59"},{"StopId":217,"Code":"QGV 119","Name":"Ngã tư Phan Văn Trị","StopType":"Trụ dừng","Zone":"Quận Gò Vấp","Ward":null,"AddressNo":"93 (2A)","Street":"Nguyễn Oanh","SupportDisability":"","Status":"Đang khai thác","Lng":106.676919,"Lat":10.83163,"Search":"NtPVT 93( NO","Routes":"03, 59"},{"StopId":220,"Code":"QGV 120","Name":"Cầu vượt ngã sáu Gò Vấp","StopType":"Trụ dừng","Zone":"Quận Gò Vấp","Ward":null,"AddressNo":"27-29","Street":"Nguyễn Oanh","SupportDisability":"","Status":"Đang khai thác","Lng":106.678839,"Lat":10.828532,"Search":"CvnsGV 27-29 NO","Routes":"03, 59"},{"StopId":219,"Code":"QGV 121","Name":"Cầu vượt ngã sáu Gò Vấp","StopType":"Trụ dừng","Zone":"Quận Gò Vấp","Ward":null,"AddressNo":"1001","Street":"Nguyễn Kiệm","SupportDisability":"","Status":"Đang khai thác","Lng":106.678968,"Lat":10.823738,"Search":"CvnsGV 1001 NK","Routes":"03, 07, 103, 148, 55, 59"},{"StopId":222,"Code":"QGV 122","Name":"Xóm Cháy","StopType":"Trụ dừng","Zone":"Quận Gò Vấp","Ward":null,"AddressNo":"629B","Street":"Nguyễn Kiệm","SupportDisability":"","Status":"Đã hủy","Lng":106.678743,"Lat":10.821894,"Search":"XC 629B NK","Routes":"59"},{"StopId":221,"Code":"QGV 123","Name":"Bệnh Viện 175","StopType":"Trụ dừng","Zone":"Quận Gò Vấp","Ward":null,"AddressNo":"883-885","Street":"Nguyễn Kiệm","SupportDisability":"","Status":"Đang khai thác","Lng":106.678727,"Lat":10.820044,"Search":"BV175 883-885 NK","Routes":"03, 07, 103, 148, 55, 59"},{"StopId":223,"Code":"QGV 124","Name":"Chợ Tân Sơn Nhất","StopType":"Trụ dừng","Zone":"Quận Gò Vấp","Ward":null,"AddressNo":"79-81","Street":"Nguyễn Kiệm","SupportDisability":"","Status":"Đang khai thác","Lng":106.678598,"Lat":10.816772,"Search":"CTSN 79-81 NK","Routes":"03, 07, 103, 148, 55, 59"},{"StopId":4729,"Code":"QGV 034","Name":"Đầu công viên Gia Định","StopType":"Nhà chờ","Zone":"Quận Gò Vấp","Ward":"Phường 03","AddressNo":"Rạp xiếc","Street":"Hoàng Minh Giám","SupportDisability":"Có","Status":"Đang khai thác","Lng":106.677681,"Lat":10.813442,"Search":"DcvGD Rx HMG","Routes":"03, 07, 148, 50, 55, 59"},{"StopId":225,"Code":"QPN 035","Name":"Cuối công viên Gia Định","StopType":"Nhà chờ","Zone":"Quận Phú Nhuận","Ward":null,"AddressNo":"Đối diện số 5","Street":"Hoàng Minh Giám","SupportDisability":"","Status":"Đang khai thác","Lng":106.674741,"Lat":10.809906,"Search":"CcvGD Dds5 HMG","Routes":"03, 07, 148, 50, 55, 59"},{"StopId":1772,"Code":"QPN 032 ","Name":"Trường Đại học Kỹ Thuật Công nghệ","StopType":"Trụ dừng","Zone":"Quận Phú Nhuận","Ward":null,"AddressNo":"199","Street":"Phổ Quang","SupportDisability":"","Status":"Đang khai thác","Lng":106.672107,"Lat":10.808426,"Search":"TDhKTCn 199 PQ","Routes":"148, 50, 59"},{"StopId":1773,"Code":"QTB 104","Name":"Cây xăng Quân đội","StopType":"Trụ dừng","Zone":"Quận Tân Bình","Ward":null,"AddressNo":"75","Street":"Phổ Quang","SupportDisability":"","Status":"Đang khai thác","Lng":106.668422,"Lat":10.807467,"Search":"CxQd 75 PQ","Routes":"148, 50, 59"},{"StopId":1775,"Code":"QTB 105","Name":"Bãi xe buýt Phổ Quang","StopType":"Trụ dừng","Zone":"Quận Tân Bình","Ward":null,"AddressNo":"Công ty Waseco","Street":"Phổ Quang","SupportDisability":"","Status":"Đang khai thác","Lng":106.666555,"Lat":10.805359,"Search":"BxbPQ CtW PQ","Routes":"148, 50, 59"},{"StopId":1774,"Code":"QTB 106","Name":"Rạp Tân Sơn Nhất","StopType":"Trụ dừng","Zone":"Quận Tân Bình","Ward":null,"AddressNo":"Rạp Tân Sơn Nhất","Street":"Phổ Quang","SupportDisability":"","Status":"Đang khai thác","Lng":106.665756,"Lat":10.802321,"Search":"RTSN RTSN PQ","Routes":"148, 50, 59"},{"StopId":911,"Code":"QTB 100","Name":"Quán Vườn Dừa","StopType":"Trụ dừng","Zone":"Quận Tân Bình","Ward":null,"AddressNo":"12 (1A)","Street":"Phan Đình Giót","SupportDisability":"","Status":"Đang khai thác","Lng":106.664909,"Lat":10.803641,"Search":"QVD 12( PDG","Routes":"103, 148, 152, 50, 59, 63-1, 72-1, 72-2B"},{"StopId":999,"Code":"QTB 109","Name":"Trần Quốc Hoàn","StopType":"Nhà chờ","Zone":"Quận Tân Bình","Ward":null,"AddressNo":"65","Street":"Trần Quốc Hoàn","SupportDisability":"","Status":"Đang khai thác","Lng":106.663925,"Lat":10.803644,"Search":"TQH 65 TQH","Routes":"103, 148, 152, 50, 59, 63-1, 72-2B"},{"StopId":258,"Code":"QTB 107","Name":"Vòng xoay Lăng Cha Cả","StopType":"Nhà chờ","Zone":"Quận Tân Bình","Ward":null,"AddressNo":"20","Street":"Trần Quốc Hoàn","SupportDisability":"","Status":"Đang khai thác","Lng":106.662312,"Lat":10.801365,"Search":"VxLCC 20 TQH","Routes":"04, 08, 103, 104, 148, 152, 50, 59, 63-1, 64, 72-2B"},{"StopId":600,"Code":"QTB 038","Name":"Vòng xoay Lăng Cha Cả","StopType":"Trụ dừng","Zone":"Quận Tân Bình","Ward":null,"AddressNo":"288-290","Street":"Hoàng Văn Thụ","SupportDisability":"","Status":"Đang khai thác","Lng":106.659071,"Lat":10.798725,"Search":"VxLCC 288-290 HVT","Routes":"08, 103, 145, 148, 50, 59, 63-1, 64"},{"StopId":602,"Code":"QTB 039","Name":"Công an Quận Tân Bình","StopType":"Trụ dừng","Zone":"Quận Tân Bình","Ward":null,"AddressNo":"340H","Street":"Hoàng Văn Thụ","SupportDisability":"","Status":"Đang khai thác","Lng":106.657425,"Lat":10.79717,"Search":"CaQTB 340H HVT","Routes":"08, 103, 145, 148, 50, 59, 63-1, 64"},{"StopId":604,"Code":"QTB 064","Name":"Hội Chợ Triển lãm Tân Bình","StopType":"Trụ dừng","Zone":"Quận Tân Bình","Ward":null,"AddressNo":"20 (B9)","Street":"Xuân Diệu","SupportDisability":"","Status":"Đang khai thác","Lng":106.655145,"Lat":10.796122,"Search":"HCTlTB 20( XD","Routes":"08, 103, 13, 145, 148, 30, 50, 59, 64, 94"},{"StopId":603,"Code":"QTB 065","Name":"Trường Phạm Ngũ Lão","StopType":"Trụ dừng","Zone":"Quận Tân Bình","Ward":null,"AddressNo":"149 (E62)","Street":"Xuân Hồng","SupportDisability":"","Status":"Đang khai thác","Lng":106.654066,"Lat":10.796032,"Search":"TPNL 149( XH","Routes":"08, 103, 13, 145, 148, 30, 50, 59, 64, 65, 94"},{"StopId":606,"Code":"QTB 066","Name":"Cây xăng Đôi","StopType":"Trụ dừng","Zone":"Quận Tân Bình","Ward":null,"AddressNo":"23","Street":"Xuân Hồng","SupportDisability":"","Status":"Đang khai thác","Lng":106.652184,"Lat":10.794256,"Search":"CxD 23 XH","Routes":"08, 103, 13, 145, 148, 30, 50, 59, 64, 65, 94"},{"StopId":605,"Code":"QTB 029","Name":"Bệnh viện Thống Nhất","StopType":"Trụ dừng","Zone":"Quận Tân Bình","Ward":null,"AddressNo":"733-739","Street":"Lý Thường Kiệt","SupportDisability":"","Status":"Đang khai thác","Lng":106.6528,"Lat":10.792122,"Search":"BvTN 733-739 LTK","Routes":"08, 145, 148, 50, 59, 63-1, 94"},{"StopId":608,"Code":"QTB 030","Name":"Bệnh viện chỉnh hình và phục hồi chức năng","StopType":"Trụ dừng","Zone":"Quận Tân Bình","Ward":null,"AddressNo":"589 ","Street":"Lý Thường Kiệt","SupportDisability":"","Status":"Đang khai thác","Lng":106.652806,"Lat":10.788718,"Search":"Bvchvphcn 589 LTK","Routes":"08, 50, 59, 63-1, 94"},{"StopId":607,"Code":"QTB 031","Name":"Chợ Tân Bình","StopType":"Nhà chờ","Zone":"Quận Tân Bình","Ward":null,"AddressNo":"Chợ Tân Bình","Street":"Lý Thường Kiệt","SupportDisability":"","Status":"Đang khai thác","Lng":106.653584,"Lat":10.786131,"Search":"CTB CTB LTK","Routes":"08, 50, 59, 63-1, 94"},{"StopId":610,"Code":"QTB 032","Name":"Siêu thị Nguyễn Kim - CMC Tân Bình","StopType":"Nhà chờ","Zone":"Quận Tân Bình","Ward":null,"AddressNo":"79B (siêu thị CMC Tân Bình)","Street":"Lý Thường Kiệt","SupportDisability":"","Status":"Đang khai thác","Lng":106.654571,"Lat":10.782695,"Search":"StNK-CTB 79B(tCTB LTK","Routes":"08, 50, 59, 63-1, 94"},{"StopId":609,"Code":"QTB 033","Name":"Trường Nguyễn Thái Bình","StopType":"Trụ dừng","Zone":"Quận Tân Bình","Ward":null,"AddressNo":"349 (74)","Street":"Lý Thường Kiệt","SupportDisability":"","Status":"Đang khai thác","Lng":106.655609,"Lat":10.779233,"Search":"TNTB 349( LTK","Routes":"08, 50, 59, 63-1, 94"},{"StopId":612,"Code":"Q11 016","Name":"Bưu Điện Phú Thọ","StopType":"Nhà chờ","Zone":"Quận 11","Ward":null,"AddressNo":"285A","Street":"Lý Thường Kiệt","SupportDisability":"","Status":"Đang khai thác","Lng":106.656693,"Lat":10.775314,"Search":"BDPT 285A LTK","Routes":"08, 50, 59, 63-1, 94"},{"StopId":611,"Code":"Q11 017","Name":"Đại Học Bách Khoa(cổng trước)","StopType":"Trụ dừng","Zone":"Quận 11","Ward":null,"AddressNo":"239","Street":"Lý Thường Kiệt","SupportDisability":"","Status":"Đang khai thác","Lng":106.657829,"Lat":10.771331,"Search":"DHBKt 239 LTK","Routes":"08, 50, 59, 63-1, 94"},{"StopId":900,"Code":"Q10 059","Name":"Bệnh viện Trưng Vương","StopType":"Nhà chờ","Zone":"Quận 10","Ward":null,"AddressNo":"531","Street":"Tô Hiến Thành","SupportDisability":"","Status":"Đang khai thác","Lng":106.658913,"Lat":10.770922,"Search":"BvTV 531 THT","Routes":"103, 38, 50, 59, 69"},{"StopId":898,"Code":"Q10 058","Name":"Đại học Bách Khoa (cổng sau)","StopType":"Nhà chờ","Zone":"Quận 10","Ward":null,"AddressNo":"523","Street":"Tô Hiến Thành","SupportDisability":"","Status":"Đang khai thác","Lng":106.661057,"Lat":10.773046,"Search":"DhBK(s 523 THT","Routes":"103, 38, 50, 59, 69"},{"StopId":902,"Code":"Q10 057","Name":"Ngân hàng Quân Đội","StopType":"Trụ dừng","Zone":"Quận 10","Ward":null,"AddressNo":"405","Street":"Tô Hiến Thành","SupportDisability":"","Status":"Đang khai thác","Lng":106.663017,"Lat":10.775549,"Search":"NhQD 405 THT","Routes":"103, 38, 59, 69"},{"StopId":2835,"Code":"Q10 066","Name":"Quán Hoàng Ty","StopType":"Trụ dừng","Zone":"Quận 10","Ward":null,"AddressNo":"161","Street":"Thành Thái","SupportDisability":"","Status":"Đang khai thác","Lng":106.66407,"Lat":10.775075,"Search":"QHT 161 TT","Routes":"38, 59, 69"},{"StopId":2837,"Code":"Q10 067","Name":"Bệnh viện 115","StopType":"Trụ dừng","Zone":"Quận 10","Ward":null,"AddressNo":"99-101","Street":"Thành Thái","SupportDisability":"","Status":"Đang khai thác","Lng":106.664554,"Lat":10.77382,"Search":"Bv115 99-101 TT","Routes":"38, 59, 69"},{"StopId":2840,"Code":"Q10 068","Name":"Nhà thờ Đồng Tiến","StopType":"Nhà chờ","Zone":"Quận 10","Ward":null,"AddressNo":"Đối diện 52","Street":"Thành Thái","SupportDisability":"","Status":"Đang khai thác","Lng":106.665863,"Lat":10.770474,"Search":"NtDT Dd52 TT","Routes":"38, 59, 69"},{"StopId":564,"Code":"Q10 075","Name":"Học viện Quân y","StopType":"Trụ dừng","Zone":"Quận 10","Ward":null,"AddressNo":"527","Street":"Nguyễn Tri Phương","SupportDisability":"","Status":"Đang khai thác","Lng":106.667259,"Lat":10.766769,"Search":"HvQy 527 NTP","Routes":"07, 10, 59"},{"StopId":567,"Code":"Q10 076","Name":"Chợ Nhật Tảo","StopType":"Trụ dừng","Zone":"Quận 10","Ward":null,"AddressNo":"475","Street":"Nguyễn Tri Phương","SupportDisability":"","Status":"Đang khai thác","Lng":106.667664,"Lat":10.764991,"Search":"CNT 475 NTP","Routes":"07, 10, 59"},{"StopId":570,"Code":"Q10 077","Name":"Trường Hoàng Văn Thụ","StopType":"Trụ dừng","Zone":"Quận 10","Ward":null,"AddressNo":"399","Street":"Nguyễn Tri Phương","SupportDisability":"","Status":"Đang khai thác","Lng":106.668015,"Lat":10.763371,"Search":"THVT 399 NTP","Routes":"07, 10, 59"},{"StopId":571,"Code":"Q10 078","Name":"Đại học kinh tế","StopType":"Trụ dừng","Zone":"Quận 10","Ward":null,"AddressNo":"279","Street":"Nguyễn Tri Phương","SupportDisability":"","Status":"Đang khai thác","Lng":106.668488,"Lat":10.761049,"Search":"Dhkt 279 NTP","Routes":"07, 10, 59"},{"StopId":3340,"Code":"Q5 070","Name":"Trường Trần Khai Nguyên","StopType":"Nhà chờ","Zone":"Quận 5","Ward":null,"AddressNo":"225","Street":"Nguyễn Tri Phương","SupportDisability":"","Status":"Đang khai thác","Lng":106.669103,"Lat":10.758406,"Search":"TTKN 225 NTP","Routes":"59"},{"StopId":1981,"Code":"Q5 071","Name":"Bệnh viện Nguyễn Tri Phương","StopType":"Trụ dừng","Zone":"Quận 5","Ward":null,"AddressNo":"161","Street":"Nguyễn Tri Phương","SupportDisability":"","Status":"Đang khai thác","Lng":106.669473,"Lat":10.755728,"Search":"BvNTP 161 NTP","Routes":"59, 68"},{"StopId":11,"Code":"Q5 072","Name":"Siêu thị Điện máy","StopType":"Trụ dừng","Zone":"Quận 5","Ward":null,"AddressNo":"99","Street":"Nguyễn Tri Phương","SupportDisability":"","Status":"Đang khai thác","Lng":106.669418,"Lat":10.754023,"Search":"StDm 99 NTP","Routes":"59"},{"StopId":14,"Code":"Q5 099","Name":"Nhà Văn hóa Quận 5","StopType":"Trụ dừng","Zone":"Quận 5","Ward":null,"AddressNo":"388","Street":"Trần Phú","SupportDisability":"","Status":"Đang khai thác","Lng":106.668588,"Lat":10.753025,"Search":"NVhQ5 388 TP","Routes":"01, 59"},{"StopId":7672,"Code":"Q8 150 ","Name":"Chùa An Phú","StopType":"Trụ dừng","Zone":"Quận 8","Ward":"Phường 10","AddressNo":"Chùa An Phú","Street":"Phạm Hùng","SupportDisability":"","Status":"Đang khai thác","Lng":106.668985,"Lat":10.747507,"Search":"CAP CAP PH","Routes":"59"},{"StopId":1978,"Code":"Q8 055","Name":"Sân vận động Quận 8","StopType":"Trụ dừng","Zone":"Quận 8","Ward":null,"AddressNo":"302","Street":"Phạm Hùng","SupportDisability":"","Status":"Đang khai thác","Lng":106.668749,"Lat":10.74202,"Search":"SvdQ8 302 PH","Routes":"59"},{"StopId":3339,"Code":"Q8 060","Name":"Đường 1011","StopType":"Trụ dừng","Zone":"Quận 8","Ward":null,"AddressNo":"Đối diện 831","Street":"Tạ Quang Bửu","SupportDisability":"","Status":"Đang khai thác","Lng":106.669121,"Lat":10.736265,"Search":"D1011 Dd831 TQB","Routes":"34, 59"},{"StopId":3344,"Code":"Q8 067","Name":"Đường 1011","StopType":"Trụ dừng","Zone":"Quận 8","Ward":null,"AddressNo":"Đối diện 94","Street":"Dương Quang Đông","SupportDisability":"","Status":"Đang khai thác","Lng":106.667412,"Lat":10.73669,"Search":"D1011 Dd94 DQD","Routes":"59"},{"StopId":3342,"Code":"Q8 068","Name":"Tòa án Quận 8","StopType":"Trụ dừng","Zone":"Quận 8","Ward":null,"AddressNo":"Tòa án Quận 8","Street":"Dương Quang Đông","SupportDisability":"","Status":"Đang khai thác","Lng":106.666131,"Lat":10.741024,"Search":"TaQ8 TaQ8 DQD","Routes":"59"},{"StopId":1459,"Code":"Q8 009","Name":"Quận ủy Quận 8","StopType":"Trụ dừng","Zone":"Quận 8","Ward":null,"AddressNo":"1228","Street":"Phạm Thế Hiển","SupportDisability":"","Status":"Đang khai thác","Lng":106.662987,"Lat":10.742252,"Search":"QuQ8 1228 PTH","Routes":"140, 59"},{"StopId":1460,"Code":"Q8 010","Name":"Cầu Nhị Thiên Đường","StopType":"Trụ dừng","Zone":"Quận 8","Ward":null,"AddressNo":"1436","Street":"Phạm Thế Hiển","SupportDisability":"","Status":"Đang khai thác","Lng":106.659173,"Lat":10.741562,"Search":"CNTD 1436 PTH","Routes":"140, 59"},{"StopId":618,"Code":"Q8 069","Name":"Chùa Pháp Quang","StopType":"Trụ dừng","Zone":"Quận 8","Ward":null,"AddressNo":"94","Street":"Quốc lộ 50","SupportDisability":"","Status":"Đang khai thác","Lng":106.656142,"Lat":10.738642,"Search":"CPQ 94 Ql50","Routes":"08, 25, 45, 47, 59, 62"},{"StopId":619,"Code":"Q8 070","Name":"Bùi Minh Trực","StopType":"Ô sơn","Zone":"Quận 8","Ward":null,"AddressNo":"224","Street":"Quốc lộ 50","SupportDisability":"","Status":"Đang khai thác","Lng":106.656126,"Lat":10.73646,"Search":"BMT 224 Ql50","Routes":"08, 25, 45, 47, 59, 62"},{"StopId":496,"Code":"BX 20","Name":"Bến xe buýt Quận 8","StopType":"Bến xe","Zone":"Quận 8","Ward":null,"AddressNo":"BẾN XE BUÝT QUẬN 8","Street":"Quốc lộ 50","SupportDisability":"","Status":"Đang khai thác","Lng":106.656357,"Lat":10.733545,"Search":"BxbQ8 BXBQ8 Ql50","Routes":"08, 22, 25, 34, 59, 62, 62-11, 62-9"}]