[{"StopId":9335,"Code":"BD BX 0002","Name":"Bến xe Bình Dương","StopType":"Bến xe","Zone":"Bình Dương","Ward":null,"AddressNo":"Bến xe Bình Dương","Street":"30/4","SupportDisability":"","Status":"Đang khai thác","Lng":106.668204,"Lat":10.966152,"Search":"BxBD BxBD 30/4","Routes":"61-2, 61-4"},{"StopId":8318,"Code":"BD-0018","Name":"Ngã ba Lò Chén","StopType":"Trụ - hộp thông tin","Zone":"Bình Dương","Ward":null,"AddressNo":"Ngã ba Lò Chén","Street":"Đường CMT8","SupportDisability":"Có","Status":"Đang khai thác","Lng":106.660462,"Lat":10.968819,"Search":"NbLC NbLC DC","Routes":"61-2, 61-4, 61-51, 61-52, 61-53, 61-9"},{"StopId":8320,"Code":"BD-0020","Name":"Nhà sách Bình Minh","StopType":"Trụ - hộp thông tin","Zone":"Bình Dương","Ward":null,"AddressNo":"Nhà sách Bình Minh","Street":"Đường CMT8","SupportDisability":"Có","Status":"Đang khai thác","Lng":106.657635,"Lat":10.976586,"Search":"NsBM NsBM DC","Routes":"61-2, 61-4, 61-51, 61-52, 61-9"},{"StopId":8322,"Code":"BD-0022","Name":"Công viên Phú Cường","StopType":"Nhà chờ","Zone":"Bình Dương","Ward":null,"AddressNo":"Công viên Phú Cường","Street":"CMT8","SupportDisability":"Có","Status":"Đang khai thác","Lng":106.656443,"Lat":10.978292,"Search":"CvPC CvPC C","Routes":"61-2, 61-4, 61-51, 61-52, 61-53, 61-9"},{"StopId":8324,"Code":"BD-0024","Name":"Chùa Bà Thiên Hậu","StopType":"Nhà chờ","Zone":"Bình Dương","Ward":null,"AddressNo":"Chùa Bà Thiên Hậu","Street":"CMT8","SupportDisability":"Có","Status":"Đang khai thác","Lng":106.654238,"Lat":10.980366,"Search":"CBTH CBTH C","Routes":"61-2, 61-4, 61-51, 61-52, 61-53, 61-9"},{"StopId":8326,"Code":"BD-0026","Name":"Bệnh viện Phụ Sản Nhi Bình Dương","StopType":"Trụ - hộp thông tin","Zone":"Bình Dương","Ward":null,"AddressNo":"Bệnh viện Phụ Sản Nhi Bình Dương","Street":"CMT8","SupportDisability":"Có","Status":"Đang khai thác","Lng":106.652683,"Lat":10.983468,"Search":"BvPSNBD BvPSNBD C","Routes":"61-2, 61-51, 61-52, 61-53"},{"StopId":8332,"Code":"BD-0028","Name":"Chợ Cây Dừa","StopType":"Trụ - hộp thông tin","Zone":"Bình Dương","Ward":null,"AddressNo":"Chợ Cây Dừa","Street":"CMT8","SupportDisability":"Có","Status":"Đang khai thác","Lng":106.651078,"Lat":10.990442,"Search":"CCD CCD C","Routes":"61-2, 61-51, 61-52, 61-53"},{"StopId":8842,"Code":"BD-0521","Name":"Chùa phật học","StopType":"Trụ - hộp thông tin","Zone":"Bình Dương","Ward":null,"AddressNo":"Chùa phật học","Street":"Đường CMT8, ngã tư Phú Văn đi Mũi Tàu","SupportDisability":"","Status":"Đang khai thác","Lng":106.650628,"Lat":10.992366,"Search":"Cph Cph DCntPVdMT","Routes":"61-2, 61-51"},{"StopId":9217,"Code":"BD-0927","Name":"Hãng xe Yamaha","StopType":"Ô sơn","Zone":"Bình Dương","Ward":null,"AddressNo":"Hãng xe Yamaha","Street":"Quốc lộ 13","SupportDisability":"","Status":"Đang khai thác","Lng":106.648686,"Lat":10.997511,"Search":"HxY HxY Ql13","Routes":"61-2"},{"StopId":9218,"Code":"BD-0928","Name":"Trường Nguyễn Đình Chiểu","StopType":"Ô sơn","Zone":"Bình Dương","Ward":null,"AddressNo":"Trường Nguyễn Đình Chiểu","Street":"Quốc lộ 13","SupportDisability":"","Status":"Đang khai thác","Lng":106.647318,"Lat":10.999185,"Search":"TNDC TNDC Ql13","Routes":"61-2"},{"StopId":9219,"Code":"BD-0929","Name":"Chợ Bưng Cầu","StopType":"Ô sơn","Zone":"Bình Dương","Ward":null,"AddressNo":"Chợ Bưng Cầu","Street":"Quốc lộ 13","SupportDisability":"","Status":"Đang khai thác","Lng":106.647424,"Lat":11.026254,"Search":"CBC CBC Ql13","Routes":"61-2"},{"StopId":9220,"Code":"BD-0930","Name":"Nhà thuốc duy lâm","StopType":"Ô sơn","Zone":"Bình Dương","Ward":null,"AddressNo":"Nhà thuốc duy lâm","Street":"Quốc lộ 13","SupportDisability":"","Status":"Đang khai thác","Lng":106.643713,"Lat":11.029426,"Search":"Ntdl Ntdl Ql13","Routes":"61-2"},{"StopId":8918,"Code":"BD-0630","Name":"Cty TNHH chế biến gỗ Nam Sơn","StopType":"Ô sơn","Zone":"Bình Dương","Ward":null,"AddressNo":"Cty TNHH chế biến gỗ Nam Sơn","Street":"Đường Thích Quảng Đức","SupportDisability":"","Status":"Đang khai thác","Lng":106.671613,"Lat":10.981276,"Search":"CTcbgNS CTcbgNS DTQD","Routes":"61-2"},{"StopId":8540,"Code":"BD-0176","Name":"Trường Tiểu học Duy Tân","StopType":"Trụ - hộp thông tin","Zone":"Bình Dương","Ward":null,"AddressNo":"Trường Tiểu học Duy Tân","Street":"Đường D17","SupportDisability":"Có","Status":"Đang khai thác","Lng":106.612498,"Lat":11.123853,"Search":"TThDT TThDT DD","Routes":"61-2, 61-70"},{"StopId":8574,"Code":"BD-0185","Name":"Golden Center City","StopType":"Nhà chờ","Zone":"Bình Dương","Ward":null,"AddressNo":"Golden Center City","Street":"Quốc Lộ 13","SupportDisability":"Có","Status":"Đang khai thác","Lng":106.60014,"Lat":11.145825,"Search":"GCC GCC QL13","Routes":"61-2, 61-70"},{"StopId":8577,"Code":"BD-0187","Name":"Ủy Ban Nhân Dân TP.Bến Cát","StopType":"Nhà chờ","Zone":"Bình Dương","Ward":null,"AddressNo":"Ủy Ban Nhân Dân TP.Bến Cát","Street":"30/4","SupportDisability":"Có","Status":"Đang khai thác","Lng":106.593653,"Lat":11.151322,"Search":"?BNDTC ?BNDTC 30/4","Routes":"61-2, 61-70"},{"StopId":9346,"Code":"BD BX  0013","Name":"Bưu điện Thành phố Bến Cát","StopType":"Bến xe","Zone":"Bình Dương","Ward":null,"AddressNo":"Bưu điện Thành phố Bến Cát","Street":"Đường 30 tháng 4","SupportDisability":"","Status":"Đang khai thác","Lng":106.591904,"Lat":11.152417,"Search":"BdTpBC BdTpBC D30t4","Routes":"61-2, 61-70"},{"StopId":8579,"Code":"BD-0189","Name":"Bưu điện TP Bến Cát","StopType":"Trụ - hộp thông tin","Zone":"Bình Dương","Ward":null,"AddressNo":"Bưu điện TP Bến Cát","Street":"30/4","SupportDisability":"Có","Status":"Đang khai thác","Lng":106.591583,"Lat":11.152639,"Search":"BdTBC BdTBC 30/4","Routes":"61-2"},{"StopId":8533,"Code":"BD-0306","Name":"Đội thuế liên phường xã số 1","StopType":"Trụ - hộp thông tin","Zone":"Bình Dương","Ward":null,"AddressNo":"Đội thuế liên phường xã số 1","Street":"Hùng Vương","SupportDisability":"","Status":"Đang khai thác","Lng":106.591029,"Lat":11.153993,"Search":"Dtlpxs1 Dtlpxs1 HV","Routes":"61-2"},{"StopId":9336,"Code":"BD BX 0003","Name":"Ngã ba Công an Bến Cát","StopType":"Bến xe","Zone":"Bình Dương","Ward":null,"AddressNo":"Ngã ba Công an Bến Cát","Street":"Quốc lộ 13","SupportDisability":"Có","Status":"Đang khai thác","Lng":106.592719,"Lat":11.155688,"Search":"NbCaBC NbCaBC Ql13","Routes":"61-2"}]