[{"StopId":35,"Code":"BX 01","Name":"Bến xe buýt Sài Gòn","StopType":"Bến xe","Zone":"Quận 1","Ward":"Phường Phạm Ngũ Lão","AddressNo":"BẾN XE BUÝT SÀI GÒN","Street":"Lê Lai","SupportDisability":"Có","Status":"Đang khai thác","Lng":106.689362,"Lat":10.767676,"Search":"BxbSG BXBSG LL","Routes":"03, 04, 102, 109, 13, 140, 171, 172, 18, 19, 20, 27, 28, 34, 36, 39, 52, 65, 69, 72, 75, 86, 88, 93, D4, DL01, DL02, DL03, DL04, DL05"},{"StopId":7276,"Code":"Q1 190","Name":"Tôn Thất Tùng","StopType":"Trụ dừng","Zone":"Quận 1","Ward":"Phường Phạm Ngũ Lão","AddressNo":"277-279-275Y","Street":"Phạm Ngũ Lão","SupportDisability":"Có","Status":"Đang khai thác","Lng":106.690941,"Lat":10.76767,"Search":"TTT 277-279-275Y PNL","Routes":"03, 04, 102, 109, 13, 140, 156V, 171, 172, 18, 19, 20, 28, 34, 36, 39, 46, 52, 65, 69, 72, 72-2B, 75, 86, 88, 93, D4, DL01, DL02, DL03"},{"StopId":7277,"Code":"Q1 191","Name":"Nguyễn Thị Nghĩa","StopType":"Trụ dừng","Zone":"Quận 1","Ward":"Phường Phạm Ngũ Lão","AddressNo":"187","Street":"Phạm Ngũ Lão","SupportDisability":"Có","Status":"Đang khai thác","Lng":106.693699,"Lat":10.768788,"Search":"NTN 187 PNL","Routes":"03, 04, 102, 109, 13, 140, 156V, 171, 172, 18, 19, 20, 28, 34, 36, 39, 46, 52, 65, 69, 72, 72-2B, 93, D4, DL01, DL02, DL03, DL05"},{"StopId":7278,"Code":"Q1 192","Name":"Trường Emst Thalmann","StopType":"Nhà chờ","Zone":"Quận 1","Ward":"Phường Phạm Ngũ Lão","AddressNo":"Trường Emst Thalmann","Street":"Phạm Ngũ Lão","SupportDisability":"Có","Status":"Đang khai thác","Lng":106.695587,"Lat":10.769504,"Search":"TET TET PNL","Routes":"03, 04, 109, 13, 156V, 171, 172, 18, 19, 20, 28, 34, 36, 39, 52, 65, 69, 72-2B, 93, D4, DL01, DL02, DL03"},{"StopId":28,"Code":"Q1 016","Name":"Trạm Trung chuyển trên đường Hàm Nghi","StopType":"Nhà chờ","Zone":"Quận 1","Ward":"Phường Nguyễn Thái Bình","AddressNo":"Hàm Nghi 9 (129-133)","Street":"Hàm Nghi","SupportDisability":"","Status":"Đang khai thác","Lng":106.700233,"Lat":10.770822,"Search":"TTctdHN HN9( HN","Routes":"171, 172, 72-2B, 75, DL01, DL02"},{"StopId":9553,"Code":"Q4 061","Name":"UBND Phường Xóm Chiếu","StopType":"Ô sơn","Zone":"Quận 4","Ward":"Phường 12","AddressNo":"Cây xanh số 24 ","Street":"Đoàn Như Hải","SupportDisability":"Có","Status":"Đang khai thác","Lng":106.705404,"Lat":10.766367,"Search":"UPXC Cxs24 DNH","Routes":"155, DL01, DL02"},{"StopId":9552,"Code":"Q4 062","Name":"Ngân hàng Agribank","StopType":"Ô sơn","Zone":"Quận 4","Ward":"Phường 13","AddressNo":"52 ","Street":"Nguyễn Trường Tộ","SupportDisability":"Có","Status":"Đang khai thác","Lng":106.70485,"Lat":10.765296,"Search":"NhA 52 NTT","Routes":"155, DL01, DL02"},{"StopId":856,"Code":"Q4 014","Name":"Chợ Xóm Chiếu","StopType":"Trụ dừng","Zone":"Quận 4","Ward":null,"AddressNo":"51-53","Street":"Hoàng Diệu","SupportDisability":"","Status":"Đang khai thác","Lng":106.706504,"Lat":10.764703,"Search":"CXC 51-53 HD","Routes":"102, 31, 34, DL01, DL02"},{"StopId":5831,"Code":"Q4 035","Name":"Đại học Luật","StopType":"Ô sơn","Zone":"Quận 4","Ward":"Phường 01","AddressNo":"7A","Street":"Nguyễn Tất Thành","SupportDisability":"Có","Status":"Đang khai thác","Lng":106.706842,"Lat":10.766232,"Search":"DhL 7A NTT","Routes":"DL01, DL02"},{"StopId":7699,"Code":"Q4 057","Name":"Bến nhà Rồng","StopType":"Trụ dừng","Zone":"Quận 4","Ward":"Phường 12","AddressNo":"Cột đèn thứ 2 (Cty cảng Sg)","Street":"Nguyễn Tất Thành","SupportDisability":"","Status":"Đang khai thác","Lng":106.705951,"Lat":10.767855,"Search":"BnR Cdt2(cS NTT","Routes":"DL01, DL02, DL05"},{"StopId":31,"Code":"Q1 024","Name":"Bến Bạch Đằng","StopType":"Nhà chờ","Zone":"Quận 1","Ward":null,"AddressNo":"Bến thủy nội địa Thủ Thiêm","Street":"Tôn Đức Thắng","SupportDisability":"","Status":"Đang khai thác","Lng":106.706654,"Lat":10.774094,"Search":"BBD BtndTT TDT","Routes":"01, 03, 19, 45, 53, 56, 88, DL01, DL02, DL05"},{"StopId":34,"Code":"Q1 057","Name":"Công Trường Mê Linh","StopType":"Nhà chờ","Zone":"Quận 1","Ward":null,"AddressNo":"2","Street":"Hai Bà Trưng","SupportDisability":"","Status":"Đang khai thác","Lng":106.705822,"Lat":10.775997,"Search":"CTML 2 HBT","Routes":"03, 19, 45, DL02"},{"StopId":7697,"Code":"Q1 204","Name":"Nhà hát Thành phố","StopType":"Trụ dừng","Zone":"Quận 1","Ward":"Phường Bến Nghé","AddressNo":"Cây xanh số 8","Street":"Công trường Lam Sơn","SupportDisability":"","Status":"Đang khai thác","Lng":106.702926,"Lat":10.776909,"Search":"NhTp Cxs8 CtLS","Routes":"DL02"},{"StopId":7078,"Code":"Q1 174","Name":"Nhà hát Thành phố","StopType":"Ô sơn","Zone":"Quận 1","Ward":"Phường Bến Nghé","AddressNo":"127-129","Street":"Đồng Khởi","SupportDisability":"","Status":"Đang khai thác","Lng":106.703709,"Lat":10.775407,"Search":"NhTp 127-129 DK","Routes":"DL02, DL05"},{"StopId":4261,"Code":"Q1 054","Name":"Lê Lợi","StopType":"Nhà chờ","Zone":"Quận 1","Ward":null,"AddressNo":"92-96","Street":"Nguyễn Huệ","SupportDisability":"","Status":"Đang khai thác","Lng":106.702883,"Lat":10.775127,"Search":"LL 92-96 NH","Routes":"DL01, DL02, DL05"},{"StopId":4267,"Code":"Q1 055","Name":"Nguyễn Huệ","StopType":"Nhà chờ","Zone":"Quận 1","Ward":null,"AddressNo":"Đối diện 92-96","Street":"Nguyễn Huệ","SupportDisability":"","Status":"Đang khai thác","Lng":106.702545,"Lat":10.774711,"Search":"NH Dd92-96 NH","Routes":"DL02"},{"StopId":2568,"Code":"Q1 005","Name":"Nhà Thờ Đức Bà","StopType":"Trụ dừng","Zone":"Quận 1","Ward":null,"AddressNo":"1","Street":"Công xã Paris","SupportDisability":"","Status":"Đang khai thác","Lng":106.699154,"Lat":10.779233,"Search":"NTDB 1 CxP","Routes":"36, DL01, DL02, DL05"},{"StopId":4224,"Code":"Q1 172","Name":"Trung tâm VinCom","StopType":"Ô sơn","Zone":"Quận 1","Ward":"Phường Bến Nghé","AddressNo":"171","Street":"Đồng Khởi","SupportDisability":"","Status":"Đang khai thác","Lng":106.702191,"Lat":10.776782,"Search":"TtV 171 DK","Routes":"DL02"},{"StopId":35,"Code":"BX 01","Name":"Bến xe buýt Sài Gòn","StopType":"Bến xe","Zone":"Quận 1","Ward":"Phường Phạm Ngũ Lão","AddressNo":"BẾN XE BUÝT SÀI GÒN","Street":"Lê Lai","SupportDisability":"Có","Status":"Đang khai thác","Lng":106.689362,"Lat":10.767676,"Search":"BxbSG BXBSG LL","Routes":"03, 04, 102, 109, 13, 140, 171, 172, 18, 19, 20, 27, 28, 34, 36, 39, 52, 65, 69, 72, 75, 86, 88, 93, D4, DL01, DL02, DL03, DL04, DL05"}]