[{"StopId":9335,"Code":"BD BX 0002","Name":"Bến xe Bình Dương","StopType":"Bến xe","Zone":"Bình Dương","Ward":null,"AddressNo":"Bến xe Bình Dương","Street":"30/4","SupportDisability":"","Status":"Đang khai thác","Lng":106.668204,"Lat":10.966152,"Search":"BxBD BxBD 30/4","Routes":"60-15, 61-2, 61-4"},{"StopId":8318,"Code":"BD-0018","Name":"Ngã ba Lò Chén","StopType":"Trụ dừng","Zone":"Bình Dương","Ward":null,"AddressNo":"Số 829, đường CMT8, Phường Thủ Dầu Một","Street":"Đường CMT8","SupportDisability":"","Status":"Đang khai thác","Lng":106.660461,"Lat":10.968838,"Search":"NbLC S829,dCPTDM DC","Routes":"60-18, 61-2, 61-4, 61-51, 61-52, 61-53, 61-9"},{"StopId":8320,"Code":"BD-0020","Name":"Đối diện Nhà sách Bình Minh","StopType":"Trụ dừng","Zone":"Bình Dương","Ward":null,"AddressNo":"Số 567, CMT8 , phường Thủ Dầu Một","Street":"Đường CMT8","SupportDisability":"","Status":"Đang khai thác","Lng":106.657743,"Lat":10.976622,"Search":"DdNsBM S567,C,pTDM DC","Routes":"60-18, 61-2, 61-4, 61-51, 61-52, 61-9"},{"StopId":8322,"Code":"BD-0022","Name":"Công viên Phú Cường","StopType":"Nhà chờ","Zone":"Bình Dương","Ward":null,"AddressNo":"Đối diện số 548, cmt8 , phường Thủ Dầu Một","Street":"CMT8","SupportDisability":"","Status":"Đang khai thác","Lng":106.656222,"Lat":10.978814,"Search":"CvPC Dds548,c,pTDM C","Routes":"60-18, 61-2, 61-4, 61-51, 61-52, 61-53, 61-9"},{"StopId":8324,"Code":"BD-0024","Name":"Chùa Bà Thiên Hậu","StopType":"Nhà chờ","Zone":"Bình Dương","Ward":null,"AddressNo":"Đối diện số 494 - 496, cmt8 , phường Thủ Dầu Một","Street":"CMT8","SupportDisability":"","Status":"Đang khai thác","Lng":106.654247,"Lat":10.98044,"Search":"CBTH Dds494-496,c,pTDM C","Routes":"60-18, 61-2, 61-4, 61-51, 61-52, 61-53, 61-9"},{"StopId":8326,"Code":"BD-0026","Name":"Bệnh viện phụ sản nhi Bình Dương(Ngân hàng Sacombank)","StopType":"Trụ dừng","Zone":"Bình Dương","Ward":null,"AddressNo":"số 425, CMT8, phường Thủ Dầu Một","Street":"CMT8","SupportDisability":"","Status":"Đang khai thác","Lng":106.652674,"Lat":10.983723,"Search":"BvpsnBDhS s425,CpTDM C","Routes":"61-2, 61-51, 61-52, 61-53"},{"StopId":8332,"Code":"BD-0028","Name":"Chợ Cây Dừa","StopType":"Trụ dừng","Zone":"Bình Dương","Ward":null,"AddressNo":"số 183, CMT8, phường Thủ Dầu Một","Street":"CMT8","SupportDisability":"","Status":"Đang khai thác","Lng":106.651073,"Lat":10.990664,"Search":"CCD s183,CpTDM C","Routes":"60-18, 61-2, 61-51, 61-52, 61-53"},{"StopId":8842,"Code":"BD-0521","Name":"Chùa phật học","StopType":"Trụ - hộp thông tin","Zone":"Bình Dương","Ward":null,"AddressNo":"số  162, Ql 13 phường thủ dầu một","Street":"CMT8","SupportDisability":"","Status":"Đang khai thác","Lng":106.650567,"Lat":10.992513,"Search":"Cph s162,Q13ptdm C","Routes":"61-2, 61-51"},{"StopId":9217,"Code":"BD-0927","Name":"Đại lý xe tay ga minh hoàng phương( hãng xe YAMAHA)","StopType":"Ô sơn","Zone":"Bình Dương","Ward":null,"AddressNo":"số 756, Ql 13 , phường Thủ Dầu Một","Street":"Quốc lộ 13","SupportDisability":"","Status":"Đang khai thác","Lng":106.648662,"Lat":10.997555,"Search":"DlxtgmhphxY s756,Q13,pTDM Ql13","Routes":"60-15, 60-18, 61-2"},{"StopId":9218,"Code":"BD-0928","Name":"Trường THPT Nguyễn Đình Chiểu","StopType":"Ô sơn","Zone":"Bình Dương","Ward":null,"AddressNo":"số 814a, Ql 13 , phường Thủ Dầu Một","Street":"Quốc lộ 13","SupportDisability":"","Status":"Đang khai thác","Lng":106.647152,"Lat":10.999778,"Search":"TTNDC s814a,Q13,pTDM Ql13","Routes":"60-15, 60-18, 61-2"},{"StopId":9219,"Code":"BD-0929","Name":"Cty TNHH kim thành phát","StopType":"Ô sơn","Zone":"Bình Dương","Ward":null,"AddressNo":"số 1205 Ql 13 phường thủ dầu một","Street":"Quốc lộ 13","SupportDisability":"","Status":"Đang khai thác","Lng":106.646578,"Lat":11.026472,"Search":"CTktp s1205Q13ptdm Ql13","Routes":"60-18, 61-2"},{"StopId":9220,"Code":"BD-0930","Name":"Nhà thuốc duy lâm","StopType":"Ô sơn","Zone":"Bình Dương","Ward":null,"AddressNo":"Nhà thuốc duy lâm","Street":"Quốc lộ 13","SupportDisability":"","Status":"Đang khai thác","Lng":106.643713,"Lat":11.029426,"Search":"Ntdl Ntdl Ql13","Routes":"60-18, 61-2"},{"StopId":8918,"Code":"BD-0630","Name":"Cty TNHH chế biến gỗ Nam Sơn","StopType":"Ô sơn","Zone":"Bình Dương","Ward":null,"AddressNo":"Cty TNHH chế biến gỗ Nam Sơn","Street":"Đường Thích Quảng Đức","SupportDisability":"","Status":"Đang khai thác","Lng":106.671613,"Lat":10.981276,"Search":"CTcbgNS CTcbgNS DTQD","Routes":"61-2"},{"StopId":8540,"Code":"BD-0176","Name":"Trường Tiểu học Duy Tân","StopType":"Trụ - hộp thông tin","Zone":"Bình Dương","Ward":null,"AddressNo":"Trường Tiểu học Duy Tân","Street":"Đường D17","SupportDisability":"Có","Status":"Đang khai thác","Lng":106.612498,"Lat":11.123853,"Search":"TThDT TThDT DD","Routes":"61-2, 61-70"},{"StopId":8574,"Code":"BD-0185","Name":"Golden Center City","StopType":"Nhà chờ","Zone":"Bình Dương","Ward":null,"AddressNo":"Golden Center City","Street":"Quốc Lộ 13","SupportDisability":"Có","Status":"Đang khai thác","Lng":106.60014,"Lat":11.145825,"Search":"GCC GCC QL13","Routes":"61-2, 61-70"},{"StopId":8577,"Code":"BD-0187","Name":"Ủy Ban Nhân Dân TP.Bến Cát","StopType":"Nhà chờ","Zone":"Bình Dương","Ward":null,"AddressNo":"Ủy Ban Nhân Dân TP.Bến Cát","Street":"30/4","SupportDisability":"Có","Status":"Đang khai thác","Lng":106.593653,"Lat":11.151322,"Search":"?BNDTC ?BNDTC 30/4","Routes":"61-2, 61-70"},{"StopId":9346,"Code":"BD BX  0013","Name":"Bưu điện Thành phố Bến Cát","StopType":"Bến xe","Zone":"Bình Dương","Ward":null,"AddressNo":"Bưu điện Thành phố Bến Cát","Street":"Đường 30 tháng 4","SupportDisability":"","Status":"Đang khai thác","Lng":106.591904,"Lat":11.152417,"Search":"BdTpBC BdTpBC D30t4","Routes":"61-2, 61-70"},{"StopId":8579,"Code":"BD-0189","Name":"Bưu điện TP Bến Cát","StopType":"Trụ - hộp thông tin","Zone":"Bình Dương","Ward":null,"AddressNo":"Bưu điện TP Bến Cát","Street":"30/4","SupportDisability":"Có","Status":"Đang khai thác","Lng":106.591583,"Lat":11.152639,"Search":"BdTBC BdTBC 30/4","Routes":"61-2"},{"StopId":8533,"Code":"BD-0306","Name":"Đội thuế liên phường xã số 1","StopType":"Trụ - hộp thông tin","Zone":"Bình Dương","Ward":null,"AddressNo":"Đội thuế liên phường xã số 1","Street":"Hùng Vương","SupportDisability":"","Status":"Đang khai thác","Lng":106.591029,"Lat":11.153993,"Search":"Dtlpxs1 Dtlpxs1 HV","Routes":"61-2"},{"StopId":9336,"Code":"BD BX 0003","Name":"Ngã ba Công an Bến Cát","StopType":"Bến xe","Zone":"Bình Dương","Ward":null,"AddressNo":"Ngã ba Công an Bến Cát","Street":"Quốc lộ 13","SupportDisability":"Có","Status":"Đang khai thác","Lng":106.592719,"Lat":11.155688,"Search":"NbCaBC NbCaBC Ql13","Routes":"61-2"}]