[{"StopId":1403,"Code":"BX44","Name":"Bến xe Miền Đông","StopType":"Bến xe","Zone":"Quận Bình Thạnh","Ward":null,"AddressNo":"Bến xe Miền Đông","Street":"Đinh Bộ Lĩnh","SupportDisability":"","Status":"Đang khai thác","Lng":106.711294,"Lat":10.814733,"Search":"BxMD BxMD DBL","Routes":"14, 146, 24, 43, 45, 60-3, 61-8, 64, 67"},{"StopId":1408,"Code":"QBTH 071","Name":"Ngã năm Liệt Sĩ","StopType":"Trụ dừng","Zone":"Quận Bình Thạnh","Ward":null,"AddressNo":"222/4 Ter","Street":"Nguyễn Xí","SupportDisability":"","Status":"Đang khai thác","Lng":106.710624,"Lat":10.81204,"Search":"NnLS 222/4T NX","Routes":"14, 19, 43, 45, 61-8, 64"},{"StopId":1410,"Code":"QBTH 131","Name":"Chợ Phường 25","StopType":"Trụ dừng","Zone":"Quận Bình Thạnh","Ward":null,"AddressNo":"đối diện 134/4A","Street":"Ung Văn Khiêm","SupportDisability":"","Status":"Đang khai thác","Lng":106.714674,"Lat":10.808304,"Search":"CP25 dd134/4A UVK","Routes":"14, 158, 19, 43, 44, 45"},{"StopId":1405,"Code":"QBTH 034","Name":"Trường ĐH Giao thông Vận tải Tp. HCM","StopType":"Trụ dừng","Zone":"Quận Bình Thạnh","Ward":null,"AddressNo":"127-129","Street":"Nguyễn Gia Trí","SupportDisability":"","Status":"Đang khai thác","Lng":106.716047,"Lat":10.806602,"Search":"TDGtVtTH 127-129 NGT","Routes":"14, 158, 19, 43, 45"},{"StopId":1407,"Code":"QBTH 035","Name":"Đại học Ngoại Thương","StopType":"Trụ dừng","Zone":"Quận Bình Thạnh","Ward":null,"AddressNo":"211-213 (8A)","Street":"Nguyễn Gia Trí","SupportDisability":"","Status":"Đang khai thác","Lng":106.715875,"Lat":10.804795,"Search":"DhNT 211-213( NGT","Routes":"14, 158, 19, 43, 45"},{"StopId":421,"Code":"QBTH 054","Name":"Đại học Hutech","StopType":"Nhà chờ","Zone":"Quận Bình Thạnh","Ward":null,"AddressNo":"483","Street":"Điện Biên Phủ","SupportDisability":"","Status":"Đang khai thác","Lng":106.714856,"Lat":10.801228,"Search":"DhH 483 DBP","Routes":"06, 10, 104, 14, 150, 157, 159, 161, 19, 30, 43, 44, 45, 52, 55, 60-3, 67, 72-1"},{"StopId":423,"Code":"QBTH 053","Name":"Cây xăng dầu","StopType":"Trụ dừng","Zone":"Quận Bình Thạnh","Ward":null,"AddressNo":"419","Street":"Điện Biên Phủ","SupportDisability":"","Status":"Đang khai thác","Lng":106.712834,"Lat":10.801697,"Search":"Cxd 419 DBP","Routes":"06, 10, 104, 14, 150, 157, 159, 161, 19, 30, 43, 44, 45, 52, 55, 67"},{"StopId":476,"Code":"QBTH 059","Name":"Đại học Hutech","StopType":"Ô sơn","Zone":"Quận Bình Thạnh","Ward":null,"AddressNo":"510-512","Street":"Điện Biên Phủ","SupportDisability":"","Status":"Đang khai thác","Lng":106.714255,"Lat":10.800827,"Search":"DhH 510-512 DBP","Routes":"06, 10, 104, 150, 157, 159, 161, 30, 43, 52, 55, 60-3, 67, 72-1"},{"StopId":473,"Code":"QBTH 058","Name":"Khu Du lịch Văn Thánh","StopType":"Nhà chờ","Zone":"Quận Bình Thạnh","Ward":null,"AddressNo":"600","Street":"Điện Biên Phủ","SupportDisability":"","Status":"Đang khai thác","Lng":106.717404,"Lat":10.799531,"Search":"KDlVT 600 DBP","Routes":"06, 10, 104, 150, 157, 159, 161, 30, 43, 52, 55, 60-3, 67"},{"StopId":475,"Code":"QBTH 057","Name":"Cầu Sài Gòn","StopType":"Trụ dừng","Zone":"Quận Bình Thạnh","Ward":null,"AddressNo":"658","Street":"Điện Biên Phủ","SupportDisability":"","Status":"Đang khai thác","Lng":106.719496,"Lat":10.798525,"Search":"CSG 658 DBP","Routes":"06, 10, 104, 150, 157, 159, 160, 161, 30, 43, 52, 55, 60-3, 67"},{"StopId":2936,"Code":"Q2 015","Name":"Công viên dạ cầu Sài Gòn","StopType":"Trụ dừng","Zone":"TP. Thủ Đức - KV1","Ward":"Phường Bình An","AddressNo":"Đối diện số 3","Street":"Trần Não","SupportDisability":"","Status":"Đang khai thác","Lng":106.732119,"Lat":10.798277,"Search":"CvdcSG Dds3 TN","Routes":"157, 43"},{"StopId":2935,"Code":"Q2 016","Name":"Nhà sách An Bình","StopType":"Trụ dừng","Zone":"TP. Thủ Đức - KV1","Ward":null,"AddressNo":"Đối diện 33","Street":"Trần Não","SupportDisability":"","Status":"Đang khai thác","Lng":106.731079,"Lat":10.796394,"Search":"NsAB Dd33 TN","Routes":"43"},{"StopId":2938,"Code":"Q2 017","Name":"KTX Đại học Giao thông Vận tải","StopType":"Trụ dừng","Zone":"TP. Thủ Đức - KV1","Ward":null,"AddressNo":"156","Street":"Trần Não","SupportDisability":"","Status":"Đang khai thác","Lng":106.7304,"Lat":10.792414,"Search":"KDhGtVt 156 TN","Routes":"43"},{"StopId":2937,"Code":"Q2 018","Name":"Chùa Diệu Giác","StopType":"Trụ dừng","Zone":"TP. Thủ Đức - KV1","Ward":null,"AddressNo":"9G1","Street":"Trần Não","SupportDisability":"","Status":"Đang khai thác","Lng":106.729748,"Lat":10.788613,"Search":"CDG 9G1 TN","Routes":"43"},{"StopId":2940,"Code":"Q2 019","Name":"Lương Định Của","StopType":"Ô sơn","Zone":"TP. Thủ Đức - KV1","Ward":null,"AddressNo":"7","Street":"Trần Não","SupportDisability":"","Status":"Đang khai thác","Lng":106.729335,"Lat":10.785941,"Search":"LDC 7 TN","Routes":"43"},{"StopId":2939,"Code":"Q2 001","Name":"Trần Não","StopType":"Ô sơn","Zone":"TP. Thủ Đức - KV1","Ward":null,"AddressNo":"8B","Street":"Lương Định Của","SupportDisability":"","Status":"Đang khai thác","Lng":106.730418,"Lat":10.785556,"Search":"TN 8B LDC","Routes":"43, 88"},{"StopId":2941,"Code":"Q2 002","Name":"Đình Bình Khánh","StopType":"Trụ dừng","Zone":"TP. Thủ Đức - KV1","Ward":null,"AddressNo":"6/4","Street":"Lương Định Của","SupportDisability":"","Status":"Đang khai thác","Lng":106.732553,"Lat":10.786663,"Search":"DBK 6/4 LDC","Routes":"43, 88"},{"StopId":3990,"Code":"Q2 003","Name":"Đường Số 8","StopType":"Biển treo","Zone":"TP. Thủ Đức - KV1","Ward":null,"AddressNo":"Đối diện 21/2","Street":"Lương Định Của","SupportDisability":"","Status":"Đang khai thác","Lng":106.736094,"Lat":10.788528,"Search":"DS8 Dd21/2 LDC","Routes":"43, 88"},{"StopId":3995,"Code":"Q2 004","Name":"Chùa Huệ Nghiêm","StopType":"Trụ dừng","Zone":"TP. Thủ Đức - KV1","Ward":"Phường An Phú","AddressNo":"Đối diện 22/4B","Street":"Lương Định Của","SupportDisability":"","Status":"Đang khai thác","Lng":106.738856,"Lat":10.789487,"Search":"CHN Dd22/4B LDC","Routes":"157, 43, 88"},{"StopId":3991,"Code":"Q2 005","Name":"Cầu Ông Tranh","StopType":"Trụ dừng","Zone":"TP. Thủ Đức - KV1","Ward":null,"AddressNo":"Cột điện UEB33","Street":"Lương Định Của","SupportDisability":"","Status":"Đang khai thác","Lng":106.741667,"Lat":10.790099,"Search":"COT CdU LDC","Routes":"157, 43, 88"},{"StopId":2944,"Code":"Q2 006","Name":"Siêu thị Chợ Lớn","StopType":"Trụ dừng","Zone":"TP. Thủ Đức - KV1","Ward":null,"AddressNo":"Cột điện UEB38A","Street":"Lương Định Của","SupportDisability":"","Status":"Đang khai thác","Lng":106.744548,"Lat":10.79072,"Search":"StCL CdU LDC","Routes":"154, 157, 43, 88"},{"StopId":2945,"Code":"Q2 007","Name":"Phòng Đào tạo Quận 2","StopType":"Biển treo","Zone":"TP. Thủ Đức - KV1","Ward":null,"AddressNo":"Đối diện 369A","Street":"Lương Định Của","SupportDisability":"","Status":"Đang khai thác","Lng":106.749902,"Lat":10.791917,"Search":"PDtQ2 Dd369A LDC","Routes":"154, 43, 88"},{"StopId":8170,"Code":"TPTĐ 246","Name":"Thân Văn Nhiếp","StopType":"Trụ dừng","Zone":"TP. Thủ Đức - KV1","Ward":"Phường An Phú","AddressNo":"160","Street":"Nguyễn Thị Định","SupportDisability":"","Status":"Đang khai thác","Lng":106.75426,"Lat":10.7901,"Search":"TVN 160 NTD","Routes":"153, 154, 43, 88"},{"StopId":2515,"Code":"Q2 026","Name":"Chùa Thái Nguyên","StopType":"Trụ dừng","Zone":"TP. Thủ Đức - KV1","Ward":null,"AddressNo":"162","Street":"Nguyễn Thị Định","SupportDisability":"","Status":"Đang khai thác","Lng":106.755386,"Lat":10.787828,"Search":"CTN 162 NTD","Routes":"43"},{"StopId":2514,"Code":"Q2 027","Name":"Trường Cấp 3 Giồng Ông Tố","StopType":"Trụ dừng","Zone":"TP. Thủ Đức - KV1","Ward":null,"AddressNo":"254-256","Street":"Nguyễn Thị Định","SupportDisability":"","Status":"Đang khai thác","Lng":106.757299,"Lat":10.784729,"Search":"TC3GOT 254-256 NTD","Routes":"43"},{"StopId":7152,"Code":"Q2 105","Name":"Trung tâm y tế dự phòng Quận 2","StopType":"Trụ dừng","Zone":"TP. Thủ Đức - KV1","Ward":"Phường Bình Trưng Đông","AddressNo":"382 (Đối diện Chợ Chiều)","Street":"Nguyễn Thị Định","SupportDisability":"Có","Status":"Đang khai thác","Lng":106.75944,"Lat":10.78251,"Search":"TtytdpQ2 382(dCC NTD","Routes":"43"},{"StopId":2525,"Code":"Q2 028","Name":"Trung tâm dạy nghề quận 2","StopType":"Trụ dừng","Zone":"TP. Thủ Đức - KV1","Ward":null,"AddressNo":"482","Street":"Nguyễn Thị Định","SupportDisability":"","Status":"Đang khai thác","Lng":106.762927,"Lat":10.779359,"Search":"Ttdnq2 482 NTD","Routes":"43"},{"StopId":2526,"Code":"Q2 029","Name":"Đường số 10","StopType":"Trụ dừng","Zone":"TP. Thủ Đức - KV1","Ward":null,"AddressNo":"558","Street":"Nguyễn Thị Định","SupportDisability":"","Status":"Đang khai thác","Lng":106.764381,"Lat":10.777663,"Search":"Ds10 558 NTD","Routes":"43"},{"StopId":2531,"Code":"Q2 030","Name":"Chợ Cây Xoài","StopType":"Trụ dừng","Zone":"TP. Thủ Đức - KV1","Ward":null,"AddressNo":"676","Street":"Nguyễn Thị Định","SupportDisability":"","Status":"Đang khai thác","Lng":106.766617,"Lat":10.775916,"Search":"CCX 676 NTD","Routes":"154, 29, 43"},{"StopId":2528,"Code":"Q2 031","Name":"UBND Phường Cát Lái","StopType":"Trụ dừng","Zone":"TP. Thủ Đức - KV1","Ward":null,"AddressNo":"Đối diện trường mầm non Cát Lái","Street":"Nguyễn Thị Định","SupportDisability":"","Status":"Đang khai thác","Lng":106.769348,"Lat":10.774142,"Search":"UPCL DdtmnCL NTD","Routes":"154, 29, 43"},{"StopId":2532,"Code":"Q2 032","Name":"Khu Dân Cư Phố Đông","StopType":"Trụ dừng","Zone":"TP. Thủ Đức - KV1","Ward":null,"AddressNo":"918","Street":"Nguyễn Thị Định","SupportDisability":"","Status":"Đang khai thác","Lng":106.778081,"Lat":10.767412,"Search":"KDCPD 918 NTD","Routes":"154, 29, 43"},{"StopId":2533,"Code":"Q2 034","Name":"Trường Hải Quân","StopType":"Trụ dừng","Zone":"TP. Thủ Đức - KV1","Ward":null,"AddressNo":"940","Street":"Nguyễn Thị Định","SupportDisability":"","Status":"Đang khai thác","Lng":106.782909,"Lat":10.763244,"Search":"THQ 940 NTD","Routes":"29, 43"},{"StopId":2542,"Code":"Q2ĐB 001","Name":"Phà Cát Lái","StopType":"Nhà chờ","Zone":"TP. Thủ Đức - KV1","Ward":null,"AddressNo":"1349","Street":"Nguyễn Thị Định","SupportDisability":"","Status":"Đang khai thác","Lng":106.788239,"Lat":10.758901,"Search":"PCL 1349 NTD","Routes":"29, 43"},{"StopId":2469,"Code":"Q2 035","Name":"Trường Hải Quân","StopType":"Nhà chờ","Zone":"TP. Thủ Đức - KV1","Ward":null,"AddressNo":"Đối diện 944","Street":"Nguyễn Thị Định","SupportDisability":"","Status":"Đang khai thác","Lng":106.784019,"Lat":10.762559,"Search":"THQ Dd944 NTD","Routes":"29, 43"},{"StopId":8279,"Code":"TPTĐ 303","Name":"Chung cư Citihomes","StopType":"Ô sơn","Zone":"TP. Thủ Đức - KV1","Ward":"Phường Cát Lái","AddressNo":"Số 14-16","Street":"Đường 35-CL","SupportDisability":"Có","Status":"Đang khai thác","Lng":106.78394,"Lat":10.76663,"Search":"CcC S14-16 D35-CL","Routes":"154, 43"},{"StopId":8277,"Code":"TPTĐ 301","Name":"Chung cư Citisoho","StopType":"Trụ dừng","Zone":"TP. Thủ Đức - KV1","Ward":"Phường Cát Lái","AddressNo":"Số 126-128","Street":"Đường 35-CL","SupportDisability":"Có","Status":"Đang khai thác","Lng":106.78736,"Lat":10.76984,"Search":"CcC S126-128 D35-CL","Routes":"154, 43"},{"StopId":7719,"Code":"H05_01","Name":"Ventura","StopType":"Nhà chờ","Zone":"TP. Thủ Đức - KV1","Ward":"Phường Cát Lái","AddressNo":"Đường số 70CL","Street":"Đường số 70CL","SupportDisability":"Có","Status":"Chưa khai thác","Lng":106.78892,"Lat":10.76958,"Search":"V Ds70CL Ds70CL","Routes":"154, 43"},{"StopId":8275,"Code":"TPTĐ 299","Name":"Trường mầm non Sơn Ca","StopType":"Ô sơn","Zone":"TP. Thủ Đức - KV1","Ward":"Phường Cát Lái","AddressNo":"Cây xanh 140 (phía công viên)","Street":"Đường 43-CL","SupportDisability":"Có","Status":"Đang khai thác","Lng":106.78992,"Lat":10.76999,"Search":"TmnSC Cx140(cv D43-CL","Routes":"154, 43"},{"StopId":8273,"Code":"TPTĐ 297","Name":"Trường THCS Cát Lái","StopType":"Ô sơn","Zone":"TP. Thủ Đức - KV1","Ward":"Phường Cát Lái","AddressNo":"số 10","Street":"Đường 46-CL","SupportDisability":"Có","Status":"Đang khai thác","Lng":106.79157,"Lat":10.77049,"Search":"TTCL s10 D46-CL","Routes":"154, 43"},{"StopId":8271,"Code":"TPTĐ 295","Name":"Trường Đại học Quản lý và Công nghệ TP.HCM","StopType":"Ô sơn","Zone":"TP. Thủ Đức - KV1","Ward":"Phường Cát Lái","AddressNo":"Đối diện chùa Đông Thạnh (trụ CS 24)","Street":"Đường 46-CL","SupportDisability":"Có","Status":"Đang khai thác","Lng":106.7956,"Lat":10.77466,"Search":"TDhQlvCnT DdcDT(C24) D46-CL","Routes":"154, 43"},{"StopId":8259,"Code":"BX96","Name":"Trường Đại học Quản lý và Công nghệ TP. HCM","StopType":"Bến xe","Zone":"TP. Thủ Đức - KV1","Ward":"Phường Cát Lái","AddressNo":"Khuôn viên Trường ĐH Quản lý và Công nghệ TP. HCM","Street":"Đường 46-CL","SupportDisability":"Có","Status":"Đang khai thác","Lng":106.79635,"Lat":10.77524,"Search":"TDhQlvCnTH KvTDQlvCnTH D46-CL","Routes":"154, 43"}]