[{"StopId":35,"Code":"BX 01","Name":"Bến xe buýt Sài Gòn","StopType":"Bến xe","Zone":"Quận 1","Ward":"Phường Phạm Ngũ Lão","AddressNo":"BẾN XE BUÝT SÀI GÒN","Street":"Lê Lai","SupportDisability":"Có","Status":"Đang khai thác","Lng":106.689362,"Lat":10.767676,"Search":"BxbSG BXBSG LL","Routes":"03, 04, 102, 109, 13, 140, 171, 172, 18, 19, 20, 27, 28, 34, 36, 39, 52, 65, 69, 72, 75, 86, 88, 93, D4, DL03, DL04, DL05"},{"StopId":7276,"Code":"Q1 190","Name":"Tôn Thất Tùng","StopType":"Trụ dừng","Zone":"Quận 1","Ward":"Phường Phạm Ngũ Lão","AddressNo":"277-279-275Y","Street":"Phạm Ngũ Lão","SupportDisability":"Có","Status":"Đang khai thác","Lng":106.690941,"Lat":10.76767,"Search":"TTT 277-279-275Y PNL","Routes":"03, 04, 102, 109, 13, 140, 156V, 171, 172, 18, 19, 20, 28, 34, 36, 39, 46, 52, 65, 69, 72, 72-2B, 75, 86, 88, 93, D4"},{"StopId":7277,"Code":"Q1 191","Name":"Nguyễn Thị Nghĩa","StopType":"Trụ dừng","Zone":"Quận 1","Ward":"Phường Phạm Ngũ Lão","AddressNo":"187","Street":"Phạm Ngũ Lão","SupportDisability":"Có","Status":"Đang khai thác","Lng":106.693699,"Lat":10.768788,"Search":"NTN 187 PNL","Routes":"03, 04, 102, 109, 13, 140, 156V, 171, 172, 18, 19, 20, 28, 34, 36, 39, 46, 52, 65, 69, 72, 72-2B, 93, D4, DL01, DL02, DL05"},{"StopId":7278,"Code":"Q1 192","Name":"Trường Emst Thalmann","StopType":"Nhà chờ","Zone":"Quận 1","Ward":"Phường Phạm Ngũ Lão","AddressNo":"Trường Emst Thalmann","Street":"Phạm Ngũ Lão","SupportDisability":"Có","Status":"Đang khai thác","Lng":106.695587,"Lat":10.769504,"Search":"TET TET PNL","Routes":"03, 04, 109, 13, 156V, 171, 172, 18, 19, 20, 28, 34, 36, 39, 52, 65, 69, 72-2B, 93, D4"},{"StopId":7264,"Code":"Q1 178","Name":"Trạm Trung chuyển trên đường Hàm Nghi","StopType":"Nhà chờ","Zone":"Quận 1","Ward":"Phường Nguyễn Thái Bình","AddressNo":"Hàm nghi 3","Street":"Hàm Nghi","SupportDisability":"Có","Status":"Đang khai thác","Lng":106.700758,"Lat":10.770985,"Search":"TTctdHN Hn3 HN","Routes":"18, 31, 36, 44, 65"},{"StopId":7693,"Code":"Q1 1950","Name":"Nam Kỳ Khởi Nghĩa","StopType":"Nhà chờ","Zone":"Quận 1","Ward":"Phường Nguyễn Thái Bình","AddressNo":"93-95","Street":"Hàm Nghi","SupportDisability":"Có","Status":"Đang khai thác","Lng":106.701354,"Lat":10.770875,"Search":"NKKN 93-95 HN","Routes":"01, 03, 04, 109, 152, 18, 19, 20, 31, 36, 45, 52, 53, 56, 75, 88, 93"},{"StopId":1256,"Code":"Q1 195","Name":"Chợ Cũ","StopType":"Nhà chờ","Zone":"Quận 1","Ward":"Phường Nguyễn Thái Bình","AddressNo":"89A","Street":"Hàm Nghi","SupportDisability":"","Status":"Đang khai thác","Lng":106.701998,"Lat":10.770811,"Search":"CC 89A HN","Routes":"01, 03, 04, 109, 152, 18, 19, 20, 31, 36, 45, 52, 53, 56, 75, 86, 88, 93"},{"StopId":4271,"Code":"Q1 078","Name":"Đền Thờ Ấn Giáo, Pasteur","StopType":"Nhà chờ","Zone":"Quận 1","Ward":null,"AddressNo":"Đền Thờ Ấn Giáo","Street":"Pasteur","SupportDisability":"","Status":"Đang khai thác","Lng":106.70139,"Lat":10.773595,"Search":"DTAGP DTAG P","Routes":"04, 109, 152, 155, 171, 18, 31, 36, 52, 93"},{"StopId":2724,"Code":"Q1 079","Name":"Lê Thánh Tôn","StopType":"Trụ dừng","Zone":"Quận 1","Ward":null,"AddressNo":"144","Street":"Pasteur","SupportDisability":"","Status":"Đang khai thác","Lng":106.700768,"Lat":10.775088,"Search":"LTT 144 P","Routes":"04, 109, 152, 155, 171, 18, 31, 36, 52, 93"},{"StopId":4272,"Code":"Q1 080","Name":"Lý Tự Trọng","StopType":"Nhà chờ","Zone":"Quận 1","Ward":"Phường Bến Nghé","AddressNo":"158D","Street":"Pasteur","SupportDisability":"","Status":"Đang khai thác","Lng":106.699657,"Lat":10.777089,"Search":"LTT 158D P","Routes":"04, 109, 152, 171, 18, 31, 36, 52, 72-2B, 93"},{"StopId":4273,"Code":"Q1 081","Name":"Lê Duẫn","StopType":"Trụ dừng","Zone":"Quận 1","Ward":null,"AddressNo":"178","Street":"Pasteur","SupportDisability":"","Status":"Đang khai thác","Lng":106.698333,"Lat":10.778307999999999,"Search":"LD 178 P","Routes":"04, 109, 152, 171, 18, 31, 36, 52, 72-2B, 93"},{"StopId":2692,"Code":"Q1 083","Name":"Diamond Plaza","StopType":"Trụ dừng","Zone":"Quận 1","Ward":null,"AddressNo":"47","Street":"Lê Duẩn","SupportDisability":"","Status":"Đang khai thác","Lng":106.699058,"Lat":10.780898,"Search":"DP 47 LD","Routes":"18, 30"},{"StopId":2029,"Code":"Q1 084","Name":"Khách sạn Sofitel","StopType":"Trụ dừng","Zone":"Quận 1","Ward":null,"AddressNo":"Sofitel Plaza","Street":"Lê Duẩn","SupportDisability":"","Status":"Đang khai thác","Lng":106.702303,"Lat":10.78417,"Search":"KsS SP LD","Routes":"18, 19, 30"},{"StopId":1096,"Code":"Q1 011","Name":"Đại học Khoa học xã hội nhân văn","StopType":"Nhà chờ","Zone":"Quận 1","Ward":null,"AddressNo":"10","Street":"Đinh Tiên Hoàng","SupportDisability":"","Status":"Đang khai thác","Lng":106.702663,"Lat":10.785778,"Search":"DhKhxhnv 10 DTH","Routes":"18, 19, DL05"},{"StopId":2030,"Code":"Q1 012","Name":"SVĐ Hoa Lư","StopType":"Nhà chờ","Zone":"Quận 1","Ward":null,"AddressNo":"2","Street":"Đinh Tiên Hoàng","SupportDisability":"","Status":"Đang khai thác","Lng":106.701027,"Lat":10.7872,"Search":"SHL 2 DTH","Routes":"18, 45"},{"StopId":2031,"Code":"Q1 013","Name":"Trường Trung cấp kỹ thuật nông nghiệp Tp HCM","StopType":"Nhà chờ","Zone":"Quận 1","Ward":"Phường Đa Kao","AddressNo":"40","Street":"Đinh Tiên Hoàng","SupportDisability":"Có","Status":"Đang khai thác","Lng":106.698747,"Lat":10.789292,"Search":"TTcktnnTH 40 DTH","Routes":"18, 45"},{"StopId":2033,"Code":"QBTH 043","Name":"Cầu Bông","StopType":"Trụ dừng","Zone":"Quận Bình Thạnh","Ward":null,"AddressNo":"96","Street":"Lê Văn Duyệt","SupportDisability":"","Status":"Đang khai thác","Lng":106.696225,"Lat":10.796032,"Search":"CB 96 LVD","Routes":"18, 31, 36, 91"},{"StopId":2727,"Code":"QBTH 044","Name":"Bệnh viện Bình Thạnh","StopType":"Nhà chờ","Zone":"Quận Bình Thạnh","Ward":null,"AddressNo":"114","Street":"Lê Văn Duyệt","SupportDisability":"","Status":"Đang khai thác","Lng":106.696419,"Lat":10.79864,"Search":"BvBT 114 LVD","Routes":"18, 31, 36, 91"},{"StopId":2109,"Code":"QBTH 045","Name":"Lăng Ông Bà Chiểu","StopType":"Nhà chờ","Zone":"Quận Bình Thạnh","Ward":null,"AddressNo":"Đối diện 129","Street":"Lê Văn Duyệt","SupportDisability":"","Status":"Đang khai thác","Lng":106.696579,"Lat":10.80107,"Search":"LOBC Dd129 LVD","Routes":"18, 31, 36, 91, DL05"},{"StopId":591,"Code":"QBTH 115","Name":"UBND Quận Bình Thạnh","StopType":"Trụ dừng","Zone":"Quận Bình Thạnh","Ward":"Phường 14","AddressNo":"6-8","Street":"Phan Đăng Lưu","SupportDisability":"","Status":"Đang khai thác","Lng":106.695786,"Lat":10.802819,"Search":"UQBT 6-8 PDL","Routes":"08, 104, 18, 31, 36, 55, 91"},{"StopId":2039,"Code":"QBTH 097","Name":"Bệnh Viện Gia Định","StopType":"Nhà chờ","Zone":"Quận Bình Thạnh","Ward":null,"AddressNo":"2","Street":"Nơ Trang Long","SupportDisability":"","Status":"Đang khai thác","Lng":106.695013,"Lat":10.803488,"Search":"BVGD 2 NTL","Routes":"146, 18, 31, 36, 64, 91"},{"StopId":2035,"Code":"QBTH 098","Name":"Hồ bơi Đại Đồng","StopType":"Trụ dừng","Zone":"Quận Bình Thạnh","Ward":null,"AddressNo":"48","Street":"Nơ Trang Long","SupportDisability":"","Status":"Đang khai thác","Lng":106.695131,"Lat":10.806355,"Search":"HbDD 48 NTL","Routes":"18, 31, 36, 64"},{"StopId":2041,"Code":"QBTH 094","Name":"Ngã Tư Bình Hòa","StopType":"Trụ dừng","Zone":"Quận Bình Thạnh","Ward":null,"AddressNo":"276","Street":"Lê Quang Định","SupportDisability":"","Status":"Đang khai thác","Lng":106.694418,"Lat":10.80871,"Search":"NTBH 276 LQD","Routes":"18, 24"},{"StopId":2036,"Code":"QBTH 093","Name":"Chùa Hưng Gia Tự ","StopType":"Trụ dừng","Zone":"Quận Bình Thạnh","Ward":null,"AddressNo":"336","Street":"Lê Quang Định","SupportDisability":"","Status":"Đang khai thác","Lng":106.692637,"Lat":10.810033,"Search":"CHGT 336 LQD","Routes":"18, 24"},{"StopId":2038,"Code":"QBTH 092","Name":"Ngã Tư Xóm Gà","StopType":"Trụ dừng","Zone":"Quận Bình Thạnh","Ward":null,"AddressNo":"424","Street":"Lê Quang Định","SupportDisability":"","Status":"Đang khai thác","Lng":106.69085,"Lat":10.811666,"Search":"NTXG 424 LQD","Routes":"146, 18, 24"},{"StopId":2043,"Code":"QBTH 091","Name":"Chùa Già Lam","StopType":"Trụ dừng","Zone":"Quận Bình Thạnh","Ward":null,"AddressNo":"488","Street":"Lê Quang Định","SupportDisability":"","Status":"Đang khai thác","Lng":106.68974,"Lat":10.814522,"Search":"CGL 488 LQD","Routes":"146, 18, 24"},{"StopId":2047,"Code":"QGV 185","Name":"Ngã Ba Nguyên Hồng","StopType":"Trụ dừng","Zone":"Quận Gò Vấp","Ward":null,"AddressNo":"566","Street":"Lê Quang Định","SupportDisability":"","Status":"Đang khai thác","Lng":106.689,"Lat":10.817294,"Search":"NBNH 566 LQD","Routes":"146, 18, 24"},{"StopId":2046,"Code":"QGV 152","Name":"Trường Đại học Công nghiệp","StopType":"Trụ dừng","Zone":"Quận Gò Vấp","Ward":null,"AddressNo":"28","Street":"Nguyễn Văn Nghi","SupportDisability":"","Status":"Đang khai thác","Lng":106.688774,"Lat":10.821598,"Search":"TDhCn 28 NVN","Routes":"146, 18, 24"},{"StopId":2040,"Code":"QGV 153","Name":"Chùa Bà Thiên Hậu","StopType":"Trụ dừng","Zone":"Quận Gò Vấp","Ward":null,"AddressNo":"250","Street":"Nguyễn Văn Nghi","SupportDisability":"","Status":"Đang khai thác","Lng":106.685035,"Lat":10.825292,"Search":"CBTH 250 NVN","Routes":"18, 24"},{"StopId":2042,"Code":"QGV 154","Name":"Chi cục Thuế Quận Gò Vấp","StopType":"Trụ dừng","Zone":"Quận Gò Vấp","Ward":null,"AddressNo":"308","Street":"Nguyễn Văn Nghi","SupportDisability":"","Status":"Đang khai thác","Lng":106.682852,"Lat":10.826362,"Search":"CcTQGV 308 NVN","Routes":"18, 24"},{"StopId":921,"Code":"QGV 155 ","Name":"Siêu thị Văn Lang","StopType":"Trụ dừng","Zone":"Quận Gò Vấp","Ward":null,"AddressNo":"Siêu thị Văn Lang","Street":"Quang Trung","SupportDisability":"","Status":"Đang khai thác","Lng":106.679209,"Lat":10.826846,"Search":"StVL StVL QT","Routes":"103, 18, 24, 55"},{"StopId":920,"Code":"QGV 156","Name":"Công ty 32","StopType":"Trụ dừng","Zone":"Quận Gò Vấp","Ward":null,"AddressNo":"138","Street":"Quang Trung","SupportDisability":"","Status":"Đang khai thác","Lng":106.675487,"Lat":10.8281,"Search":"Ct32 138 QT","Routes":"103, 18, 24, 55"},{"StopId":922,"Code":"QGV 157","Name":"Nhà thờ Xóm Thuốc","StopType":"Nhà chờ","Zone":"Quận Gò Vấp","Ward":null,"AddressNo":"190","Street":"Quang Trung","SupportDisability":"","Status":"Đang khai thác","Lng":106.672606,"Lat":10.829186,"Search":"NtXT 190 QT","Routes":"103, 18, 24, 55"},{"StopId":923,"Code":"QGV 158","Name":"UBND Quận Gò Vấp","StopType":"Trụ dừng","Zone":"Quận Gò Vấp","Ward":null,"AddressNo":"328","Street":"Quang Trung","SupportDisability":"","Status":"Đang khai thác","Lng":106.669232,"Lat":10.83103,"Search":"UQGV 328 QT","Routes":"103, 18, 24, 55"},{"StopId":924,"Code":"QGV 159","Name":"VKSND Quận Gò Vấp","StopType":"Trụ dừng","Zone":"Quận Gò Vấp","Ward":null,"AddressNo":"402 - 404","Street":"Quang Trung","SupportDisability":"","Status":"Đang khai thác","Lng":106.666791,"Lat":10.832948,"Search":"VQGV 402-404 QT","Routes":"103, 18, 24, 55"},{"StopId":4745,"Code":"QGV 160","Name":"Chùa Huỳnh Kim","StopType":"Trụ dừng","Zone":"Quận Gò Vấp","Ward":"Phường 01","AddressNo":"548","Street":"Quang Trung","SupportDisability":"Có","Status":"Đang khai thác","Lng":106.663368,"Lat":10.835203,"Search":"CHK 548 QT","Routes":"103, 18, 24, 55"},{"StopId":925,"Code":"QGV 161","Name":"City Mart","StopType":"Trụ dừng","Zone":"Quận Gò Vấp","Ward":null,"AddressNo":"628A","Street":"Quang Trung","SupportDisability":"","Status":"Đang khai thác","Lng":106.66104,"Lat":10.835888,"Search":"CM 628A QT","Routes":"103, 18, 24, 55"},{"StopId":2049,"Code":"QGV 162","Name":"Chợ Hạnh Thông Tây","StopType":"Trụ dừng","Zone":"Quận Gò Vấp","Ward":null,"AddressNo":"734","Street":"Quang Trung","SupportDisability":"","Status":"Đang khai thác","Lng":106.657076,"Lat":10.836894,"Search":"CHTT 734 QT","Routes":"18, 24, 55"},{"StopId":2044,"Code":"QGV 163","Name":"Trường THPT Nguyễn Công Trứ","StopType":"Trụ dừng","Zone":"Quận Gò Vấp","Ward":null,"AddressNo":"872 (96H)","Street":"Quang Trung","SupportDisability":"","Status":"Đang khai thác","Lng":106.652629,"Lat":10.838,"Search":"TTNCT 872( QT","Routes":"18, 24, 55"},{"StopId":2045,"Code":"QGV 164","Name":"Dệt may Phương Đông","StopType":"Nhà chờ","Zone":"Quận Gò Vấp","Ward":null,"AddressNo":"930 (Kho 97)","Street":"Quang Trung","SupportDisability":"","Status":"Đang khai thác","Lng":106.650499,"Lat":10.838538,"Search":"DmPD 930(97) QT","Routes":"18, 24, 55"},{"StopId":2051,"Code":"QGV 165","Name":"Làng SOS","StopType":"Trụ dừng","Zone":"Quận Gò Vấp","Ward":null,"AddressNo":"1010","Street":"Quang Trung","SupportDisability":"","Status":"Đang khai thác","Lng":106.646508,"Lat":10.839929,"Search":"LS 1010 QT","Routes":"18, 24, 55"},{"StopId":2048,"Code":"QGV 166","Name":"Công ty Đồng Tâm","StopType":"Trụ dừng","Zone":"Quận Gò Vấp","Ward":null,"AddressNo":"1134","Street":"Quang Trung","SupportDisability":"","Status":"Đang khai thác","Lng":106.643322,"Lat":10.842273,"Search":"CtDT 1134 QT","Routes":"18, 24, 55"},{"StopId":2053,"Code":"QGV 167","Name":"Ngã tư Cầu cống","StopType":"Trụ dừng","Zone":"Quận Gò Vấp","Ward":null,"AddressNo":"1246","Street":"Quang Trung","SupportDisability":"","Status":"Đang khai thác","Lng":106.640747,"Lat":10.844007,"Search":"NtCc 1246 QT","Routes":"18, 24, 55"},{"StopId":2050,"Code":"QGV 168","Name":"Chợ Cầu","StopType":"Trụ dừng","Zone":"Quận Gò Vấp","Ward":null,"AddressNo":"1324","Street":"Quang Trung","SupportDisability":"","Status":"Đang khai thác","Lng":106.638488,"Lat":10.845514,"Search":"CC 1324 QT","Routes":"18, 24, 55"},{"StopId":2092,"Code":"Q12 060","Name":"Chợ Cầu","StopType":"Trụ dừng","Zone":"Quận 12","Ward":null,"AddressNo":"84A","Street":"Tô Ký","SupportDisability":"","Status":"Đang khai thác","Lng":106.634363,"Lat":10.848253,"Search":"CC 84A TK","Routes":"18, 24, 55, 62"},{"StopId":2052,"Code":"Q12 059","Name":"Cầu vượt Quang Trung","StopType":"Trụ dừng","Zone":"Quận 12","Ward":null,"AddressNo":"170","Street":"Tô Ký","SupportDisability":"","Status":"Đang khai thác","Lng":106.632185,"Lat":10.849823,"Search":"CvQT 170 TK","Routes":"18, 24, 55, 62"},{"StopId":2057,"Code":"Q12 018","Name":"Công viên Phần mềm Quang Trung","StopType":"Nhà chờ","Zone":"Quận 12","Ward":null,"AddressNo":"Công viên Phần mềm Quang Trung","Street":"Tô Ký","SupportDisability":"","Status":"Đang khai thác","Lng":106.626531,"Lat":10.852726,"Search":"CvPmQT CvPmQT TK","Routes":"18, 24, 55, 62"},{"StopId":2054,"Code":"Q12 019","Name":"Đông Bắc","StopType":"Trụ dừng","Zone":"Quận 12","Ward":null,"AddressNo":"288","Street":"Tô Ký","SupportDisability":"","Status":"Đang khai thác","Lng":106.622819,"Lat":10.855803,"Search":"DB 288 TK","Routes":"18, 24, 48"},{"StopId":2055,"Code":"Q12 020","Name":"Điện lực Hóc Môn","StopType":"Trụ dừng","Zone":"Quận 12","Ward":null,"AddressNo":"Điền lực Hóc Môn","Street":"Tô Ký","SupportDisability":"","Status":"Đang khai thác","Lng":106.620823,"Lat":10.856751,"Search":"DlHM DlHM TK","Routes":"18, 24, 48"},{"StopId":2058,"Code":"Q12 021","Name":"Chiếc nón Kỳ Diệu","StopType":"Biển treo","Zone":"Quận 12","Ward":null,"AddressNo":"312","Street":"Tô Ký","SupportDisability":"","Status":"Đang khai thác","Lng":106.619069,"Lat":10.857984,"Search":"CnKD 312 TK","Routes":"18, 24, 48"},{"StopId":2059,"Code":"Q12 022","Name":"Chợ Tân Chánh Hiệp","StopType":"Trụ dừng","Zone":"Quận 12","Ward":null,"AddressNo":"414 (4A)","Street":"Tô Ký","SupportDisability":"","Status":"Đang khai thác","Lng":106.617588,"Lat":10.860497,"Search":"CTCH 414( TK","Routes":"18, 24, 48"},{"StopId":2060,"Code":"Q12 023","Name":"Doanh trại Quân Đội","StopType":"Trụ dừng","Zone":"Quận 12","Ward":null,"AddressNo":"504A (A49)","Street":"Tô Ký","SupportDisability":"","Status":"Đang khai thác","Lng":106.61709,"Lat":10.862915,"Search":"DtQD 504A( TK","Routes":"18, 24, 48"},{"StopId":2061,"Code":"Q12 024","Name":"Trường ĐH Lao động Xã hội","StopType":"Trụ dừng","Zone":"Quận 12","Ward":null,"AddressNo":"1018 (12/8)","Street":"Tô Ký","SupportDisability":"","Status":"Đang khai thác","Lng":106.616242,"Lat":10.865634,"Search":"TDLdXh 1018( TK","Routes":"18, 24, 48"},{"StopId":1695,"Code":"Q12 161","Name":"Tô Ký","StopType":"Trụ dừng","Zone":"Quận 12","Ward":null,"AddressNo":"Lô A4D","Street":"Nguyễn Ảnh Thủ","SupportDisability":"","Status":"Đang khai thác","Lng":106.616639,"Lat":10.868284,"Search":"TK LA NAT","Routes":"145, 18"},{"StopId":1696,"Code":"Q12 162","Name":"Bùi Văn Ngữ","StopType":"Trụ dừng","Zone":"Quận 12","Ward":null,"AddressNo":"1045 (cũ 772)","Street":"Nguyễn Ảnh Thủ","SupportDisability":"","Status":"Đang khai thác","Lng":106.618409,"Lat":10.870038,"Search":"BVN 1045(772) NAT","Routes":"145, 18"},{"StopId":1698,"Code":"Q12 163","Name":"Tân Chánh Hiệp 10","StopType":"Trụ dừng","Zone":"Quận 12","Ward":null,"AddressNo":"933","Street":"Nguyễn Ảnh Thủ","SupportDisability":"","Status":"Đang khai thác","Lng":106.621145,"Lat":10.872946,"Search":"TCH10 933 NAT","Routes":"145, 18"},{"StopId":1697,"Code":"Q12 164","Name":"Tân Chánh Hiệp 07","StopType":"Trụ dừng","Zone":"Quận 12","Ward":null,"AddressNo":"785","Street":"Nguyễn Ảnh Thủ","SupportDisability":"","Status":"Đang khai thác","Lng":106.623307,"Lat":10.875322,"Search":"TCH07 785 NAT","Routes":"145, 18"},{"StopId":6839,"Code":"Q12 165","Name":"Tân Chánh Hiệp 39","StopType":"Trụ dừng","Zone":"Quận 12","Ward":"Phường Hiệp Thành","AddressNo":"727","Street":"Nguyễn Ảnh Thủ","SupportDisability":"Có","Status":"Đang khai thác","Lng":106.625082,"Lat":10.877308,"Search":"TCH39 727 NAT","Routes":"145, 18"},{"StopId":1700,"Code":"Q12 166","Name":"Trường Tiểu học Nguyễn Trãi","StopType":"Trụ dừng","Zone":"Quận 12","Ward":null,"AddressNo":"Trường Nguyễn Trãi","Street":"Nguyễn Ảnh Thủ","SupportDisability":"","Status":"Đang khai thác","Lng":106.626348,"Lat":10.878846,"Search":"TThNT TNT NAT","Routes":"145, 18"},{"StopId":1699,"Code":"Q12 1660","Name":"Cây xăng Sài Gòn Petro","StopType":"Trụ dừng","Zone":"Quận 12","Ward":null,"AddressNo":"581","Street":"Nguyễn Ảnh Thủ","SupportDisability":"","Status":"Đang khai thác","Lng":106.628741,"Lat":10.88226,"Search":"CxSGP 581 NAT","Routes":"145, 18"},{"StopId":1703,"Code":"Q12 167","Name":"Ngã ba Đông Quang","StopType":"Trụ dừng","Zone":"Quận 12","Ward":null,"AddressNo":"529","Street":"Nguyễn Ảnh Thủ","SupportDisability":"","Status":"Đang khai thác","Lng":106.630243,"Lat":10.882839,"Search":"NbDQ 529 NAT","Routes":"145, 18"},{"StopId":1624,"Code":"Q12 1670","Name":"KCN Tân Thới Hiệp","StopType":"Trụ dừng","Zone":"Quận 12","Ward":null,"AddressNo":"86H","Street":"Nguyễn Ảnh Thủ","SupportDisability":"","Status":"Đang khai thác","Lng":106.632797,"Lat":10.881333,"Search":"KTTH 86H NAT","Routes":"145, 18"},{"StopId":1701,"Code":"Q12 168","Name":"Hiệp Thành 11","StopType":"Trụ dừng","Zone":"Quận 12","Ward":null,"AddressNo":"64H","Street":"Nguyễn Ảnh Thủ","SupportDisability":"","Status":"Đang khai thác","Lng":106.634513,"Lat":10.880437,"Search":"HT11 64H NAT","Routes":"145, 18"},{"StopId":1704,"Code":"Q12 169","Name":"Nhà Văn hóa Lao động Quận 12","StopType":"Trụ dừng","Zone":"Quận 12","Ward":null,"AddressNo":"Đối diện nhà văn hóa lao động Quận 12","Street":"Nguyễn Ảnh Thủ","SupportDisability":"","Status":"Đang khai thác","Lng":106.638579,"Lat":10.87814,"Search":"NVhLdQ12 DdnvhldQ12 NAT","Routes":"145, 18"},{"StopId":1706,"Code":"Q12 171","Name":"Trường Mầm non Họa Mi 2","StopType":"Trụ dừng","Zone":"Quận 12","Ward":null,"AddressNo":"88A","Street":"Nguyễn Ảnh Thủ","SupportDisability":"","Status":"Đang khai thác","Lng":106.640645,"Lat":10.877192,"Search":"TMnHM2 88A NAT","Routes":"145, 18"},{"StopId":1615,"Code":"BX34","Name":"Bến xe buýt Hiệp Thành","StopType":"Bến xe","Zone":"Quận 12","Ward":null,"AddressNo":"BẾN XE BUÝT HIỆP THÀNH","Street":"Hiệp Thành 17","SupportDisability":"","Status":"Đang khai thác","Lng":106.641739,"Lat":10.877756,"Search":"BxbHT BXBHT HT17","Routes":"145, 146, 18, 48"}]