[{"StopId":1615,"Code":"BX34","Name":"Bến xe buýt Hiệp Thành","StopType":"Bến xe","Zone":"Quận 12","Ward":null,"AddressNo":"BẾN XE BUÝT HIỆP THÀNH","Street":"Hiệp Thành 17","SupportDisability":"","Status":"Đang khai thác","Lng":106.641739,"Lat":10.877756,"Search":"BxbHT BXBHT HT17","Routes":"145, 146, 18, 48"},{"StopId":1618,"Code":"Q12 176","Name":"Trường Mầm non Họa Mi 2","StopType":"Trụ dừng","Zone":"Quận 12","Ward":null,"AddressNo":"272","Street":"Nguyễn Ảnh Thủ","SupportDisability":"","Status":"Đang khai thác","Lng":106.640773,"Lat":10.877308,"Search":"TMnHM2 272 NAT","Routes":"145, 18"},{"StopId":1620,"Code":"Q12 177","Name":"Nhà Văn hóa Lao động Quận 12","StopType":"Trụ dừng","Zone":"Quận 12","Ward":null,"AddressNo":"NVH Lao động Q.12","Street":"Nguyễn Ảnh Thủ","SupportDisability":"","Status":"Đang khai thác","Lng":106.63888,"Lat":10.878145,"Search":"NVhLdQ12 NLdQ NAT","Routes":"145, 18"},{"StopId":1622,"Code":"Q12 178","Name":"Hiệp Thành 11","StopType":"Trụ dừng","Zone":"Quận 12","Ward":null,"AddressNo":"61H","Street":"Nguyễn Ảnh Thủ","SupportDisability":"","Status":"Đang khai thác","Lng":106.634685,"Lat":10.880495,"Search":"HT11 61H NAT","Routes":"145, 18"},{"StopId":6836,"Code":"Q12 179","Name":"KCN Tân Thới Hiệp","StopType":"Ô sơn","Zone":"Quận 12","Ward":"Phường Hiệp Thành","AddressNo":"77H (434C)","Street":"Nguyễn Ảnh Thủ","SupportDisability":"Có","Status":"Đang khai thác","Lng":106.633108,"Lat":10.881375,"Search":"KTTH 77H( NAT","Routes":"145, 18"},{"StopId":1625,"Code":"Q12 180","Name":"Ngã ba Đông Quang","StopType":"Trụ dừng","Zone":"Quận 12","Ward":null,"AddressNo":"544","Street":"Nguyễn Ảnh Thủ","SupportDisability":"","Status":"Đang khai thác","Lng":106.630077,"Lat":10.88305,"Search":"NbDQ 544 NAT","Routes":"145, 18"},{"StopId":1627,"Code":"Q12 181","Name":"Cây xăng Sài Gòn Petro","StopType":"Trụ dừng","Zone":"Quận 12","Ward":null,"AddressNo":"38/7 (38/4C)","Street":"Nguyễn Ảnh Thủ","SupportDisability":"","Status":"Đang khai thác","Lng":106.628349,"Lat":10.881949,"Search":"CxSGP 38/7( NAT","Routes":"145, 18"},{"StopId":6837,"Code":"Q12 182","Name":"Trường Tiểu học Nguyễn Trãi","StopType":"Trụ dừng","Zone":"Quận 12","Ward":"Phường Hiệp Thành","AddressNo":"50 (360)","Street":"Nguyễn Ảnh Thủ","SupportDisability":"Có","Status":"Đang khai thác","Lng":106.626102,"Lat":10.878799,"Search":"TThNT 50( NAT","Routes":"145, 18"},{"StopId":1631,"Code":"QHMT112","Name":"Tân Chánh Hiệp 39","StopType":"Trụ dừng","Zone":"Huyện Hóc Môn","Ward":"Xã Thới Tam Thôn","AddressNo":"100","Street":"Nguyễn Ánh Thủ","SupportDisability":"","Status":"Đang khai thác","Lng":106.624417,"Lat":10.876886,"Search":"TCH39 100 NAT","Routes":"145, 18"},{"StopId":1628,"Code":"QHMT111","Name":"Tân Chánh Hiệp 07","StopType":"Trụ dừng","Zone":"Huyện Hóc Môn","Ward":"Xã Thới Tam Thôn","AddressNo":"139","Street":"Nguyễn Ánh Thủ","SupportDisability":"","Status":"Đang khai thác","Lng":106.622914,"Lat":10.87514,"Search":"TCH07 139 NAT","Routes":"145, 18"},{"StopId":1632,"Code":"QHMT113","Name":"Cây xăng Hiệp Thành","StopType":"Trụ dừng","Zone":"Huyện Hóc Môn","Ward":"Xã Thới Tam Thôn","AddressNo":"180","Street":"Nguyễn Ánh Thủ","SupportDisability":"","Status":"Đang khai thác","Lng":106.620308,"Lat":10.872335,"Search":"CxHT 180 NAT","Routes":"145, 18"},{"StopId":6840,"Code":"Q12 185","Name":"Bùi Văn Ngữ","StopType":"Trụ dừng","Zone":"Quận 12","Ward":"Phường Hiệp Thành","AddressNo":"160","Street":"Nguyễn Ảnh Thủ","SupportDisability":"Có","Status":"Đang khai thác","Lng":106.618667,"Lat":10.870575,"Search":"BVN 160 NAT","Routes":"145, 18"},{"StopId":2256,"Code":"Q12 236","Name":"Tô Ký","StopType":"Trụ dừng","Zone":"Quận 12","Ward":null,"AddressNo":"Ct dệt Sài Gòn (kế 652)","Street":"Nguyễn Ảnh Thủ","SupportDisability":"","Status":"Đang khai thác","Lng":106.616119,"Lat":10.867994,"Search":"TK CdSG(652) NAT","Routes":"145, 18"},{"StopId":2062,"Code":"Q12 025","Name":"Trường ĐH Lao động Xã hội","StopType":"Trụ dừng","Zone":"Quận 12","Ward":null,"AddressNo":"1A (Đối diện 12/8)","Street":"Tô Ký","SupportDisability":"","Status":"Đang khai thác","Lng":106.615861,"Lat":10.866255,"Search":"TDLdXh 1A(d12/8) TK","Routes":"18, 24, 48"},{"StopId":2085,"Code":"Q12 026","Name":"Doanh trại Quân Đội","StopType":"Trụ dừng","Zone":"Quận 12","Ward":null,"AddressNo":"583","Street":"Tô Ký","SupportDisability":"","Status":"Đang khai thác","Lng":106.616714,"Lat":10.863358,"Search":"DtQD 583 TK","Routes":"18, 24, 48"},{"StopId":2086,"Code":"Q12 027","Name":"Chợ Tân Chánh Hiệp","StopType":"Trụ dừng","Zone":"Quận 12","Ward":null,"AddressNo":"Chung cư Toky tower","Street":"Tô Ký","SupportDisability":"","Status":"Đang khai thác","Lng":106.617562,"Lat":10.859976,"Search":"CTCH CcTt TK","Routes":"18, 24, 48"},{"StopId":2087,"Code":"Q12 028","Name":"Chiếc nón Kỳ Diệu","StopType":"Biển treo","Zone":"Quận 12","Ward":null,"AddressNo":"535","Street":"Tô Ký","SupportDisability":"","Status":"Đang khai thác","Lng":106.618463,"Lat":10.858295,"Search":"CnKD 535 TK","Routes":"18, 24, 48"},{"StopId":2088,"Code":"Q12 029","Name":"Điện lực Hóc Môn","StopType":"Ô sơn","Zone":"Quận 12","Ward":null,"AddressNo":"Đối diện điện lực Hóc Môn","Street":"Tô Ký","SupportDisability":"","Status":"Đang khai thác","Lng":106.621016,"Lat":10.85653,"Search":"DlHM DddlHM TK","Routes":"18, 24, 48"},{"StopId":2089,"Code":"Q12 030","Name":"Đông Bắc","StopType":"Trụ dừng","Zone":"Quận 12","Ward":null,"AddressNo":"79 (A93-A95)","Street":"Tô Ký","SupportDisability":"","Status":"Đang khai thác","Lng":106.623881,"Lat":10.855118,"Search":"DB 79( TK","Routes":"18, 24, 55"},{"StopId":2090,"Code":"Q12 031","Name":"Công viên Phần mềm Quang Trung","StopType":"Trụ dừng","Zone":"Quận 12","Ward":null,"AddressNo":"389","Street":"Tô Ký","SupportDisability":"","Status":"Đang khai thác","Lng":106.625914,"Lat":10.853248,"Search":"CvPmQT 389 TK","Routes":"18, 24, 55, 62"},{"StopId":2091,"Code":"Q12 057","Name":"Cầu vượt Quang Trung","StopType":"Trụ dừng","Zone":"Quận 12","Ward":null,"AddressNo":"B45","Street":"Tô Ký","SupportDisability":"","Status":"Đang khai thác","Lng":106.632174,"Lat":10.84946,"Search":"CvQT B TK","Routes":"18, 24, 55, 62"},{"StopId":2056,"Code":"Q12 058","Name":"Chợ Cầu","StopType":"Trụ dừng","Zone":"Quận 12","Ward":null,"AddressNo":"B79","Street":"Tô Ký","SupportDisability":"","Status":"Đang khai thác","Lng":106.634068,"Lat":10.848148,"Search":"CC B TK","Routes":"18, 24, 55, 62"},{"StopId":2093,"Code":"QGV 169","Name":"Chợ Cầu","StopType":"Trụ dừng","Zone":"Quận Gò Vấp","Ward":null,"AddressNo":"927","Street":"Quang Trung","SupportDisability":"","Status":"Đang khai thác","Lng":106.638901,"Lat":10.844987,"Search":"CC 927 QT","Routes":"18, 24, 55"},{"StopId":2094,"Code":"QGV 170","Name":"Ngã tư Cầu cống","StopType":"Trụ dừng","Zone":"Quận Gò Vấp","Ward":null,"AddressNo":"869-871 (Kế A4-A5)","Street":"Quang Trung","SupportDisability":"","Status":"Đang khai thác","Lng":106.640822,"Lat":10.84367,"Search":"NtCc 869-871(A QT","Routes":"18, 24, 55"},{"StopId":2095,"Code":"QGV 171","Name":"Công ty Đồng Tâm","StopType":"Trụ dừng","Zone":"Quận Gò Vấp","Ward":null,"AddressNo":"819","Street":"Quang Trung","SupportDisability":"","Status":"Đang khai thác","Lng":106.643359,"Lat":10.841973,"Search":"CtDT 819 QT","Routes":"18, 24, 55"},{"StopId":2098,"Code":"QGV 172","Name":"Làng SOS","StopType":"Nhà chờ","Zone":"Quận Gò Vấp","Ward":null,"AddressNo":"751 (364)","Street":"Quang Trung","SupportDisability":"","Status":"Đang khai thác","Lng":106.64492,"Lat":10.840909,"Search":"LS 751( QT","Routes":"18, 24, 55"},{"StopId":2096,"Code":"QGV 173","Name":"Ngã ba Tân Sơn","StopType":"Nhà chờ","Zone":"Quận Gò Vấp","Ward":null,"AddressNo":"Đối diện 972 (Công ty ISUZU)","Street":"Quang Trung","SupportDisability":"","Status":"Đang khai thác","Lng":106.647736,"Lat":10.839012,"Search":"NbTS Dd972(tI QT","Routes":"18, 24, 55"},{"StopId":2099,"Code":"QGV 174","Name":"Dệt may Phương Đông","StopType":"Nhà chờ","Zone":"Quận Gò Vấp","Ward":null,"AddressNo":"695 (đối diện 97)","Street":"Quang Trung","SupportDisability":"","Status":"Đang khai thác","Lng":106.649839,"Lat":10.838469,"Search":"DmPD 695(d97) QT","Routes":"18, 24, 55"},{"StopId":2097,"Code":"QGV 175","Name":"Trường THPT Nguyễn Công Trứ","StopType":"Nhà chờ","Zone":"Quận Gò Vấp","Ward":null,"AddressNo":"Đối diện 842","Street":"Quang Trung","SupportDisability":"","Status":"Đang khai thác","Lng":106.653702,"Lat":10.837495,"Search":"TTNCT Dd842 QT","Routes":"18, 24, 55"},{"StopId":4627,"Code":"QGV 176","Name":"Chợ Hạnh Thông Tây","StopType":"Nhà chờ","Zone":"Quận Gò Vấp","Ward":null,"AddressNo":"Đối diện 746 (12B)","Street":"Quang Trung","SupportDisability":"","Status":"Đang khai thác","Lng":106.657376,"Lat":10.836552,"Search":"CHTT Dd746( QT","Routes":"18, 24, 55"},{"StopId":4628,"Code":"QGV 177","Name":"City Mart","StopType":"Trụ dừng","Zone":"Quận Gò Vấp","Ward":null,"AddressNo":"645","Street":"Quang Trung","SupportDisability":"","Status":"Đang khai thác","Lng":106.661164,"Lat":10.835614,"Search":"CM 645 QT","Routes":"103, 18, 24, 55"},{"StopId":926,"Code":"QGV 178","Name":"Chùa Huỳnh Kim","StopType":"Trụ dừng","Zone":"Quận Gò Vấp","Ward":null,"AddressNo":"621","Street":"Quang Trung","SupportDisability":"","Status":"Đang khai thác","Lng":106.663127,"Lat":10.835034,"Search":"CHK 621 QT","Routes":"103, 18, 24, 55"},{"StopId":1665,"Code":"QGV 179","Name":"VKSND Quận Gò Vấp","StopType":"Trụ dừng","Zone":"Quận Gò Vấp","Ward":null,"AddressNo":"523","Street":"Quang Trung","SupportDisability":"","Status":"Đang khai thác","Lng":106.666126,"Lat":10.83318,"Search":"VQGV 523 QT","Routes":"103, 18, 24, 55"},{"StopId":987,"Code":"QGV 180","Name":"UBND Quận Gò Vấp","StopType":"Nhà chờ","Zone":"Quận Gò Vấp","Ward":null,"AddressNo":"387","Street":"Quang Trung","SupportDisability":"","Status":"Đang khai thác","Lng":106.669414,"Lat":10.830593,"Search":"UQGV 387 QT","Routes":"103, 18, 24, 55"},{"StopId":984,"Code":"QGV 181","Name":"Nhà Thờ Xóm Thuốc","StopType":"Trụ dừng","Zone":"Quận Gò Vấp","Ward":null,"AddressNo":"305","Street":"Quang Trung","SupportDisability":"","Status":"Đang khai thác","Lng":106.671903,"Lat":10.82918,"Search":"NTXT 305 QT","Routes":"103, 18, 24, 55"},{"StopId":986,"Code":"QGV 182","Name":"Xóm thuốc","StopType":"Trụ dừng","Zone":"Quận Gò Vấp","Ward":null,"AddressNo":"205","Street":"Quang Trung","SupportDisability":"","Status":"Đang khai thác","Lng":106.673995,"Lat":10.82839,"Search":"Xt 205 QT","Routes":"103, 18, 24, 55"},{"StopId":988,"Code":"QGV 183","Name":"Công ty 32","StopType":"Trụ dừng","Zone":"Quận Gò Vấp","Ward":null,"AddressNo":"67","Street":"Quang Trung","SupportDisability":"","Status":"Đang khai thác","Lng":106.676688,"Lat":10.827468,"Search":"Ct32 67 QT","Routes":"103, 18, 24, 55"},{"StopId":991,"Code":"QGV 184","Name":"Siêu thị Văn Lang","StopType":"Nhà chờ","Zone":"Quận Gò Vấp","Ward":null,"AddressNo":"Đối diện Siêu thị Văn Lang","Street":"Quang Trung","SupportDisability":"","Status":"Đang khai thác","Lng":106.678813,"Lat":10.826757,"Search":"StVL DdStVL QT","Routes":"103, 18, 24, 55"},{"StopId":2100,"Code":"QGV 198","Name":"Chi cục Thuế Quận Gò Vấp","StopType":"Trụ dừng","Zone":"Quận Gò Vấp","Ward":null,"AddressNo":"159","Street":"Nguyễn Văn Nghi","SupportDisability":"","Status":"Đang khai thác","Lng":106.68267,"Lat":10.826267,"Search":"CcTQGV 159 NVN","Routes":"18, 24"},{"StopId":2103,"Code":"QGV 199","Name":"Chùa Bà Thiên Hậu","StopType":"Biển treo","Zone":"Quận Gò Vấp","Ward":null,"AddressNo":"87","Street":"Nguyễn Văn Nghi","SupportDisability":"","Status":"Đang khai thác","Lng":106.684821,"Lat":10.82526,"Search":"CBTH 87 NVN","Routes":"18, 24"},{"StopId":2101,"Code":"QGV 200","Name":"Trường Đại học Công nghiệp","StopType":"Trụ dừng","Zone":"Quận Gò Vấp","Ward":null,"AddressNo":"5","Street":"Nguyễn Văn Nghi","SupportDisability":"","Status":"Đang khai thác","Lng":106.688254,"Lat":10.822394,"Search":"TDhCn 5 NVN","Routes":"146, 18, 24"},{"StopId":2104,"Code":"QGV 186","Name":"Ngã Ba Nguyên Hồng","StopType":"Trụ dừng","Zone":"Quận Gò Vấp","Ward":null,"AddressNo":"497","Street":"Lê Quang Định","SupportDisability":"","Status":"Đang khai thác","Lng":106.689091,"Lat":10.817789,"Search":"NBNH 497 LQD","Routes":"146, 18, 24"},{"StopId":2106,"Code":"QBTH 090","Name":"Chùa Già Lam","StopType":"Trụ dừng","Zone":"Quận Bình Thạnh","Ward":null,"AddressNo":"435","Street":"Lê Quang Định","SupportDisability":"","Status":"Đang khai thác","Lng":106.689016,"Lat":10.81517,"Search":"CGL 435 LQD","Routes":"146, 18, 24"},{"StopId":2105,"Code":"QBTH 089","Name":"Ngã Tư Xóm Gà","StopType":"Trụ dừng","Zone":"Quận Bình Thạnh","Ward":null,"AddressNo":"337","Street":"Lê Quang Định","SupportDisability":"","Status":"Đang khai thác","Lng":106.690426,"Lat":10.812019,"Search":"NTXG 337 LQD","Routes":"146, 18, 24"},{"StopId":2108,"Code":"QBTH 088","Name":"Chùa Hưng Gia Tự","StopType":"Trụ dừng","Zone":"Quận Bình Thạnh","Ward":null,"AddressNo":"235","Street":"Lê Quang Định","SupportDisability":"","Status":"Đang khai thác","Lng":106.693071,"Lat":10.809379,"Search":"CHGT 235 LQD","Routes":"18, 24"},{"StopId":2107,"Code":"QBTH 111","Name":"Hồ bơi Đại Đồng","StopType":"Trụ dừng","Zone":"Quận Bình Thạnh","Ward":null,"AddressNo":"27","Street":"Nơ Trang Long","SupportDisability":"","Status":"Đang khai thác","Lng":106.694954,"Lat":10.806992,"Search":"HbDD 27 NTL","Routes":"18, 31, 36, 64"},{"StopId":2110,"Code":"QBTH 112","Name":"Bệnh Viện Gia Định","StopType":"Nhà chờ","Zone":"Quận Bình Thạnh","Ward":"Phường 12","AddressNo":"1","Street":"Nơ Trang Long","SupportDisability":"","Status":"Đang khai thác","Lng":106.694884,"Lat":10.803984,"Search":"BVGD 1 NTL","Routes":"146, 18, 31, 36, 64, 91"},{"StopId":2037,"Code":"QBTH 046","Name":"Lăng Ông Bà Chiểu","StopType":"Nhà chờ","Zone":"Quận Bình Thạnh","Ward":null,"AddressNo":"129","Street":"Lê Văn Duyệt","SupportDisability":"","Status":"Đang khai thác","Lng":106.696435,"Lat":10.801807,"Search":"LOBC 129 LVD","Routes":"18, 31, 36, 91"},{"StopId":2034,"Code":"QBTH 047","Name":"Bệnh viện Bình Thạnh","StopType":"Trụ dừng","Zone":"Quận Bình Thạnh","Ward":null,"AddressNo":"95","Street":"Lê Văn Duyệt","SupportDisability":"","Status":"Đang khai thác","Lng":106.69615,"Lat":10.797571,"Search":"BvBT 95 LVD","Routes":"18, 31, 36, 91"},{"StopId":2112,"Code":"QBTH 048","Name":"Cầu Bông","StopType":"Trụ dừng","Zone":"Quận Bình Thạnh","Ward":null,"AddressNo":"51","Street":"Lê Văn Duyệt","SupportDisability":"","Status":"Đang khai thác","Lng":106.696011,"Lat":10.795247,"Search":"CB 51 LVD","Routes":"18, 31, 36, 91"},{"StopId":726,"Code":"Q1 073","Name":"Đền Trần Hưng Đạo","StopType":"Trụ dừng","Zone":"Quận 1","Ward":null,"AddressNo":"18","Street":"Võ Thị Sáu","SupportDisability":"","Status":"Đang khai thác","Lng":106.695238,"Lat":10.791369,"Search":"DTHD 18 VTS","Routes":"10, 18, 91"},{"StopId":2111,"Code":"Q1 074","Name":"Công viên Lê Văn Tám","StopType":"Nhà chờ","Zone":"Quận 1","Ward":null,"AddressNo":"78","Street":"Võ Thị Sáu","SupportDisability":"","Status":"Đang khai thác","Lng":106.692818,"Lat":10.788896,"Search":"CvLVT 78 VTS","Routes":"10, 18, 91"},{"StopId":233,"Code":"Q3 031","Name":"Công viên Lê Văn Tám","StopType":"Trụ dừng","Zone":"Quận 3","Ward":"Phường 06","AddressNo":"243","Street":"Hai Bà Trưng","SupportDisability":"","Status":"Đang khai thác","Lng":106.692653,"Lat":10.787174,"Search":"CvLVT 243 HBT","Routes":"03, 18, 31, DL05"},{"StopId":235,"Code":"Q3 032","Name":"Trần Cao Vân","StopType":"Trụ dừng","Zone":"Quận 3","Ward":null,"AddressNo":"157","Street":"Hai Bà Trưng","SupportDisability":"","Status":"Đang khai thác","Lng":106.696625,"Lat":10.784023,"Search":"TCV 157 HBT","Routes":"03, 18"},{"StopId":236,"Code":"Q1 065","Name":"Lê Duẩn","StopType":"Nhà chờ","Zone":"Quận 1","Ward":"Phường Bến Nghé","AddressNo":"Đối diện Lãnh sự quán Pháp","Street":"Hai Bà Trưng","SupportDisability":"","Status":"Đang khai thác","Lng":106.69902,"Lat":10.78191,"Search":"LD DdLsqP HBT","Routes":"03, 18"},{"StopId":2696,"Code":"Q1 086","Name":"Diamond Plaza","StopType":"Trụ dừng","Zone":"Quận 1","Ward":null,"AddressNo":"34","Street":"Lê Duẩn","SupportDisability":"","Status":"Đang khai thác","Lng":106.698704,"Lat":10.780914,"Search":"DP 34 LD","Routes":"171, 18, 30"},{"StopId":200,"Code":"Q1 075","Name":"Tòa án Nhân dân Thành Phố","StopType":"Nhà chờ","Zone":"Quận 1","Ward":null,"AddressNo":"131","Street":"Nam Kỳ Khởi Nghĩa","SupportDisability":"","Status":"Đang khai thác","Lng":106.698647,"Lat":10.776052,"Search":"TaNdTP 131 NKKN","Routes":"04, 109, 152, 171, 18, 31, 36, 52, 72-2B, 93"},{"StopId":199,"Code":"Q1 076","Name":"Chùa Ông","StopType":"Trụ dừng","Zone":"Quận 1","Ward":null,"AddressNo":"Đối diện 96A","Street":"Nam Kỳ Khởi Nghĩa","SupportDisability":"","Status":"Đang khai thác","Lng":106.699722,"Lat":10.773957,"Search":"CO Dd96A NKKN","Routes":"04, 109, 152, 156D, 171, 18, 31, 36, 44, 52, 93"},{"StopId":201,"Code":"Q1 077","Name":"Trường CĐKT Cao Thắng","StopType":"Trụ dừng","Zone":"Quận 1","Ward":null,"AddressNo":"Đối diện 86","Street":"Nam Kỳ Khởi Nghĩa","SupportDisability":"","Status":"Đang khai thác","Lng":106.700851,"Lat":10.771416,"Search":"TCCT Dd86 NKKN","Routes":"04, 109, 152, 171, 18, 31, 36, 44, 52, 93"},{"StopId":82,"Code":"Q1 023","Name":"Trạm Trung chuyển trên đường Hàm Nghi","StopType":"Nhà chờ","Zone":"Quận 1","Ward":"Phường Bến Thành","AddressNo":"Hàm Nghi 16 (140)","Street":"Hàm Nghi","SupportDisability":"","Status":"Đang khai thác","Lng":106.699326,"Lat":10.771243,"Search":"TTctdHN HN16( HN","Routes":"04, 18, 20"},{"StopId":7273,"Code":"Q1 187","Name":"Khách sạn New World","StopType":"Nhà chờ","Zone":"Quận 1","Ward":"Phường Bến Thành","AddressNo":"Số 76","Street":"Lê Lai","SupportDisability":"Có","Status":"Đang khai thác","Lng":106.695946,"Lat":10.770964,"Search":"KsNW S76 LL","Routes":"03, 04, 102, 109, 171, 172, 18, 19, 20, 34, 36, 39, 52, 53, 72-2B, 86, 88, 93, D4"},{"StopId":7274,"Code":"Q1 188","Name":"Nguyễn Thị Nghĩa","StopType":"Trụ dừng","Zone":"Quận 1","Ward":"Phường Bến Thành","AddressNo":"94-96","Street":"Lê Lai","SupportDisability":"Có","Status":"Đang khai thác","Lng":106.693495,"Lat":10.769952,"Search":"NTN 94-96 LL","Routes":"03, 04, 102, 109, 13, 140, 156D, 171, 172, 18, 19, 20, 34, 36, 39, 52, 53, 69, 72, 72-2B, 75, 86, 88, 93, D4"},{"StopId":7275,"Code":"Q1 189","Name":"Tôn Thất Tùng","StopType":"Trụ dừng","Zone":"Quận 1","Ward":"Phường Bến Thành","AddressNo":"202-204","Street":"Lê Lai","SupportDisability":"Có","Status":"Đang khai thác","Lng":106.690469,"Lat":10.768761,"Search":"TTT 202-204 LL","Routes":"03, 04, 102, 109, 13, 140, 156D, 171, 172, 18, 19, 20, 34, 36, 39, 52, 53, 69, 72, 72-2B, 75, 86, 88, 93, D4"},{"StopId":35,"Code":"BX 01","Name":"Bến xe buýt Sài Gòn","StopType":"Bến xe","Zone":"Quận 1","Ward":"Phường Phạm Ngũ Lão","AddressNo":"BẾN XE BUÝT SÀI GÒN","Street":"Lê Lai","SupportDisability":"Có","Status":"Đang khai thác","Lng":106.689362,"Lat":10.767676,"Search":"BxbSG BXBSG LL","Routes":"03, 04, 102, 109, 13, 140, 171, 172, 18, 19, 20, 27, 28, 34, 36, 39, 52, 65, 69, 72, 75, 86, 88, 93, D4, DL03, DL04, DL05"}]