[{"StopId":7595,"Code":"VT BX 0001","Name":"BẾN XE VŨNG TÀU","StopType":"Bến xe","Zone":"Bà Rịa - Vũng Tàu","Ward":null,"AddressNo":"Bến xe Vũng Tàu","Street":"Nam Kỳ Khởi Nghĩa","SupportDisability":"Có","Status":"Đang khai thác","Lng":107.086723,"Lat":10.350457,"Search":"BXVT BxVT NKKN","Routes":"172, 72-1"},{"StopId":8244,"Code":"COVT","Name":"Co.opmart Vũng Tàu","StopType":"Bến xe","Zone":"Bà Rịa - Vũng Tàu","Ward":null,"AddressNo":"36","Street":"Nguyễn Thái Học","SupportDisability":"Có","Status":"Đang khai thác","Lng":107.085347,"Lat":10.367141,"Search":"CVT 36 NTH","Routes":"172"},{"StopId":8254,"Code":"VT DRCB01 002","Name":"Chung cư Gateway","StopType":"Ô sơn","Zone":"Bà Rịa - Vũng Tàu","Ward":null,"AddressNo":"Chung cư Gateway","Street":"Nguyễn Hữu Cảnh","SupportDisability":"Có","Status":"Đang khai thác","Lng":107.112996,"Lat":10.376304,"Search":"CcG CcG NHC","Routes":"172"},{"StopId":8255,"Code":"VT DRCB01 004","Name":"Chung cư Gateway","StopType":"Ô sơn","Zone":"Bà Rịa - Vũng Tàu","Ward":null,"AddressNo":"Đối diện Chung cư Gateway","Street":"Nguyễn Hữu Cảnh","SupportDisability":"Có","Status":"Đang khai thác","Lng":107.113207,"Lat":10.376377,"Search":"CcG DdCcG NHC","Routes":"172"},{"StopId":8252,"Code":"VT DRCB01 003","Name":"Trung Tâm Hành Chính BR-VT","StopType":"Ô sơn","Zone":"Bà Rịa - Vũng Tàu","Ward":null,"AddressNo":"Trung Tâm Hành Chính BR-VT","Street":"Bạch Đằng","SupportDisability":"Có","Status":"Đang khai thác","Lng":107.179956,"Lat":10.490352,"Search":"TTHCB TTHCB BD","Routes":"172"},{"StopId":7813,"Code":"Q2 112","Name":"Đường Đồng Văn Cống","StopType":"Trụ dừng","Zone":"TP. Thủ Đức - KV1","Ward":"Phường An Phú","AddressNo":"Cây xanh 821","Street":"Mai Chí Thọ","SupportDisability":"","Status":"Đang khai thác","Lng":106.750784,"Lat":10.789643,"Search":"DDVC Cx821 MCT","Routes":"154, 172, 72-2B, 99, D4"},{"StopId":7815,"Code":"Q2 114","Name":"Chung cư NEWCITY","StopType":"Trụ dừng","Zone":"TP. Thủ Đức - KV1","Ward":"Phường Bình Khánh","AddressNo":"Cây xanh 379","Street":"Mai Chí Thọ","SupportDisability":"","Status":"Đang khai thác","Lng":106.736367,"Lat":10.780682,"Search":"CcN Cx379 MCT","Routes":"157, 172, 72-2B, D4"},{"StopId":8075,"Code":"TPTĐ 205","Name":"Nút giao Trần Não – Mai Chí Thọ","StopType":"Nhà chờ","Zone":"TP. Thủ Đức - KV1","Ward":"Phường An Lợi Đông","AddressNo":"Mai Chí Thọ","Street":"Mai Chí Thọ","SupportDisability":"Có","Status":"Đang khai thác","Lng":106.728634,"Lat":10.776719,"Search":"NgTN–MCT MCT MCT","Routes":"157, 172, 72-2B"},{"StopId":3989,"Code":"Q2 084","Name":"Khu đô thị Sala","StopType":"Nhà chờ","Zone":"TP. Thủ Đức - KV1","Ward":null,"AddressNo":"Đối diện Khu đô thị Sala","Street":"Mai Chí Thọ","SupportDisability":"","Status":"Đang khai thác","Lng":106.721642,"Lat":10.773183,"Search":"KdtS DdKdtS MCT","Routes":"172, 72-2B, D4"},{"StopId":7805,"Code":"Q2 111","Name":"Trung tâm Quản lý điều hành giao thông đô thị","StopType":"Nhà chờ","Zone":"TP. Thủ Đức - KV1","Ward":"Phường Thủ Thiêm","AddressNo":"Cây xanh 17-19","Street":"Mai Chí Thọ","SupportDisability":"Có","Status":"Đang khai thác","Lng":106.71777,"Lat":10.7718,"Search":"TtQldhgtdt Cx17-19 MCT","Routes":"172, 72-2B, D4"},{"StopId":2888,"Code":"Q1 168","Name":"Chợ Dân Sinh","StopType":"Trụ dừng","Zone":"Quận 1","Ward":null,"AddressNo":"48 - 50","Street":"Ký Con","SupportDisability":"","Status":"Đang khai thác","Lng":106.699466,"Lat":10.766237,"Search":"CDS 48-50 KC","Routes":"172, 72-2B, D4"},{"StopId":7567,"Code":"Q1 199","Name":"Sở Giao dịch chứng khoáng","StopType":"Trụ dừng","Zone":"Quận 1","Ward":"Phường Bến Nghé","AddressNo":"đối diện 162-164","Street":"Nguyễn Công Trứ","SupportDisability":"Có","Status":"Đang khai thác","Lng":106.701504,"Lat":10.76873,"Search":"SGdck dd162-164 NCT","Routes":"155, 172, D4"},{"StopId":2028,"Code":"Q1 194","Name":"Trường Cao Thắng","StopType":"Nhà chờ","Zone":"Quận 1","Ward":"Phường Bến Nghé","AddressNo":"Trường Cao Thắng","Street":"Hàm Nghi","SupportDisability":"","Status":"Đang khai thác","Lng":106.701853,"Lat":10.771043,"Search":"TCT TCT HN","Routes":"01, 03, 102, 172, 19, 20, 34, 38, 39, 45, 56, 72-2B, 75, 86, 88, D4"},{"StopId":7270,"Code":"Q1 184","Name":"Trạm Trung chuyển trên đường Hàm Nghi","StopType":"Nhà chờ","Zone":"Quận 1","Ward":"Phường Bến Thành","AddressNo":"Hàm Nghi 6","Street":"Hàm Nghi","SupportDisability":"Có","Status":"Đang khai thác","Lng":106.699948,"Lat":10.771096,"Search":"TTctdHN HN6 HN","Routes":"03, 172, 53, 72-2B, D4"},{"StopId":7273,"Code":"Q1 187","Name":"Khách sạn New World","StopType":"Nhà chờ","Zone":"Quận 1","Ward":"Phường Bến Thành","AddressNo":"Số 76","Street":"Lê Lai","SupportDisability":"Có","Status":"Đang khai thác","Lng":106.695946,"Lat":10.770964,"Search":"KsNW S76 LL","Routes":"03, 04, 102, 109, 171, 172, 18, 19, 20, 34, 36, 39, 52, 53, 72-2B, 86, 88, 93, D4"},{"StopId":7274,"Code":"Q1 188","Name":"Nguyễn Thị Nghĩa","StopType":"Trụ dừng","Zone":"Quận 1","Ward":"Phường Bến Thành","AddressNo":"94-96","Street":"Lê Lai","SupportDisability":"Có","Status":"Đang khai thác","Lng":106.693495,"Lat":10.769952,"Search":"NTN 94-96 LL","Routes":"03, 04, 102, 109, 13, 140, 156D, 171, 172, 18, 19, 20, 34, 36, 39, 52, 53, 69, 72, 72-2B, 75, 86, 88, 93, D4"},{"StopId":7275,"Code":"Q1 189","Name":"Tôn Thất Tùng","StopType":"Trụ dừng","Zone":"Quận 1","Ward":"Phường Bến Thành","AddressNo":"202-204","Street":"Lê Lai","SupportDisability":"Có","Status":"Đang khai thác","Lng":106.690469,"Lat":10.768761,"Search":"TTT 202-204 LL","Routes":"03, 04, 102, 109, 13, 140, 156D, 171, 172, 18, 19, 20, 34, 36, 39, 52, 53, 69, 72, 72-2B, 75, 86, 88, 93, D4"},{"StopId":35,"Code":"BX 01","Name":"Bến xe buýt Sài Gòn","StopType":"Bến xe","Zone":"Quận 1","Ward":"Phường Phạm Ngũ Lão","AddressNo":"BẾN XE BUÝT SÀI GÒN","Street":"Lê Lai","SupportDisability":"Có","Status":"Đang khai thác","Lng":106.689362,"Lat":10.767676,"Search":"BxbSG BXBSG LL","Routes":"03, 04, 102, 109, 13, 140, 171, 172, 18, 19, 20, 27, 28, 34, 36, 39, 52, 65, 69, 72, 75, 86, 88, 93, D4, DL03, DL04, DL05"}]