[{"StopId":35,"Code":"BX 01","Name":"Bến xe buýt Sài Gòn","StopType":"Bến xe","Zone":"Quận 1","Ward":"Phường Phạm Ngũ Lão","AddressNo":"BẾN XE BUÝT SÀI GÒN","Street":"Lê Lai","SupportDisability":"Có","Status":"Đang khai thác","Lng":106.689362,"Lat":10.767676,"Search":"BxbSG BXBSG LL","Routes":"03, 04, 102, 109, 13, 140, 171, 172, 18, 19, 20, 27, 28, 34, 36, 39, 52, 65, 69, 72, 75, 86, 88, 93, D4, DL03, DL04, DL05"},{"StopId":7276,"Code":"Q1 190","Name":"Tôn Thất Tùng","StopType":"Trụ dừng","Zone":"Quận 1","Ward":"Phường Phạm Ngũ Lão","AddressNo":"277-279-275Y","Street":"Phạm Ngũ Lão","SupportDisability":"Có","Status":"Đang khai thác","Lng":106.690941,"Lat":10.76767,"Search":"TTT 277-279-275Y PNL","Routes":"03, 04, 102, 109, 13, 140, 156V, 171, 172, 18, 19, 20, 28, 34, 36, 39, 46, 52, 65, 69, 72, 72-2B, 75, 86, 88, 93, D4"},{"StopId":7277,"Code":"Q1 191","Name":"Nguyễn Thị Nghĩa","StopType":"Trụ dừng","Zone":"Quận 1","Ward":"Phường Phạm Ngũ Lão","AddressNo":"187","Street":"Phạm Ngũ Lão","SupportDisability":"Có","Status":"Đang khai thác","Lng":106.693699,"Lat":10.768788,"Search":"NTN 187 PNL","Routes":"03, 04, 102, 109, 13, 140, 156V, 171, 172, 18, 19, 20, 28, 34, 36, 39, 46, 52, 65, 69, 72, 72-2B, 93, D4, DL01, DL02, DL05"},{"StopId":7278,"Code":"Q1 192","Name":"Trường Emst Thalmann","StopType":"Nhà chờ","Zone":"Quận 1","Ward":"Phường Phạm Ngũ Lão","AddressNo":"Trường Emst Thalmann","Street":"Phạm Ngũ Lão","SupportDisability":"Có","Status":"Đang khai thác","Lng":106.695587,"Lat":10.769504,"Search":"TET TET PNL","Routes":"03, 04, 109, 13, 156V, 171, 172, 18, 19, 20, 28, 34, 36, 39, 52, 65, 69, 72-2B, 93, D4"},{"StopId":7264,"Code":"Q1 178","Name":"Trạm Trung chuyển trên đường Hàm Nghi","StopType":"Nhà chờ","Zone":"Quận 1","Ward":"Phường Nguyễn Thái Bình","AddressNo":"Hàm nghi 3","Street":"Hàm Nghi","SupportDisability":"Có","Status":"Đang khai thác","Lng":106.700758,"Lat":10.770985,"Search":"TTctdHN Hn3 HN","Routes":"18, 31, 36, 44, 65"},{"StopId":4223,"Code":"Q1 102","Name":"Trạm Trung chuyển trên đường Hàm Nghi","StopType":"Nhà chờ","Zone":"Quận 1","Ward":"Phường Bến Thành","AddressNo":"Hàm Nghi 4","Street":"Hàm Nghi","SupportDisability":"","Status":"Đang khai thác","Lng":106.699514,"Lat":10.771043,"Search":"TTctdHN HN4 HN","Routes":"01, 102, 44, 65, 86"},{"StopId":1944,"Code":"Q1 040","Name":"Khách sạn New world","StopType":"Trụ dừng","Zone":"Quận 1","Ward":"Phường Bến Thành","AddressNo":"40","Street":"Phạm Hồng Thái","SupportDisability":"","Status":"Đang khai thác","Lng":106.695824,"Lat":10.77129,"Search":"KsNw 40 PHT","Routes":"13, 152, 31, 38, 56, 65"},{"StopId":1297,"Code":"Q1 003","Name":"Trống Đồng","StopType":"Nhà chờ","Zone":"Quận 1","Ward":null,"AddressNo":"Đối diện số 89","Street":"Cách Mạng Tháng Tám","SupportDisability":"","Status":"Đang khai thác","Lng":106.690813,"Lat":10.773046,"Search":"TD Dds89 CMTT","Routes":"13, 28, 38, 65, 69"},{"StopId":3478,"Code":"Q3 006","Name":"Võ Văn Tần","StopType":"Trụ dừng","Zone":"Quận 3","Ward":"Phường 06","AddressNo":"40 - 42","Street":"Cách Mạng Tháng Tám","SupportDisability":"","Status":"Đang khai thác","Lng":106.688946,"Lat":10.774068,"Search":"VVT 40-42 CMTT","Routes":"13, 65, 69"},{"StopId":1296,"Code":"Q3 007","Name":"Bệnh viện Mắt - Bình Dân - Da Liễu","StopType":"Trụ dừng","Zone":"Quận 3","Ward":null,"AddressNo":"108","Street":"Cách Mạng Tháng Tám","SupportDisability":"","Status":"Đang khai thác","Lng":106.684467,"Lat":10.776461,"Search":"BvM-BD-DL 108 CMTT","Routes":"13, 65"},{"StopId":3477,"Code":"Q3 008","Name":"Công trường Dân Chủ","StopType":"Nhà chờ","Zone":"Quận 3","Ward":null,"AddressNo":"126","Street":"Cách Mạng Tháng Tám","SupportDisability":"","Status":"Đang khai thác","Lng":106.682455,"Lat":10.77753,"Search":"CtDC 126 CMTT","Routes":"13, 65"},{"StopId":1299,"Code":"Q3 009","Name":"Công trường Dân Chủ","StopType":"Trụ dừng","Zone":"Quận 3","Ward":"Phường 10","AddressNo":"132C - 132D","Street":"Cách Mạng Tháng Tám","SupportDisability":"","Status":"Đang khai thác","Lng":106.680481,"Lat":10.778516,"Search":"CtDC 132C-132D CMTT","Routes":"13, 30, 65"},{"StopId":1298,"Code":"Q3 010","Name":"Ngã Ba Chí Hòa","StopType":"Trụ dừng","Zone":"Quận 3","Ward":"Phường 10","AddressNo":"276 Bis","Street":"Cách Mạng Tháng Tám","SupportDisability":"","Status":"Đang khai thác","Lng":106.676345,"Lat":10.780703,"Search":"NBCH 276B CMTT","Routes":"13, 30, 65"},{"StopId":2711,"Code":"Q3 011","Name":"Chùa Bửu Đà","StopType":"Biển treo","Zone":"Quận 3","Ward":"Phường 10","AddressNo":"338 - 340","Street":"Cách Mạng Tháng Tám","SupportDisability":"","Status":"Đang khai thác","Lng":106.674741,"Lat":10.78163,"Search":"CBD 338-340 CMTT","Routes":"13, 30, 65"},{"StopId":2709,"Code":"Q3 012","Name":"Rạp hát Thanh Vân","StopType":"Trụ dừng","Zone":"Quận 3","Ward":"Phường 10","AddressNo":"366","Street":"Cách Mạng Tháng Tám","SupportDisability":"","Status":"Đang khai thác","Lng":106.670755,"Lat":10.783738,"Search":"RhTV 366 CMTT","Routes":"13, 30, 65"},{"StopId":2712,"Code":"Q3 013","Name":"Chợ Hòa Hưng","StopType":"Trụ dừng","Zone":"Quận 3","Ward":null,"AddressNo":"442","Street":"Cách Mạng Tháng Tám","SupportDisability":"","Status":"Đang khai thác","Lng":106.669945,"Lat":10.784146,"Search":"CHH 442 CMTT","Routes":"13, 30, 65"},{"StopId":1300,"Code":"Q3 014","Name":"Công viên Lê Thị Riêng","StopType":"Trụ dừng","Zone":"Quận 3","Ward":"Phường 11","AddressNo":"542","Street":"Cách Mạng Tháng Tám","SupportDisability":"","Status":"Đang khai thác","Lng":106.66693,"Lat":10.785814,"Search":"CvLTR 542 CMTT","Routes":"13, 30, 65"},{"StopId":906,"Code":"QTB 054","Name":"Bắc Hải","StopType":"Trụ dừng","Zone":"Quận Tân Bình","Ward":null,"AddressNo":"690","Street":"Cách Mạng Tháng Tám","SupportDisability":"","Status":"Đang khai thác","Lng":106.663727,"Lat":10.787486,"Search":"BH 690 CMTT","Routes":"103, 13, 30, 65"},{"StopId":907,"Code":"QTB 055","Name":"Ngã ba Bành Văn Trân","StopType":"Biển treo","Zone":"Quận Tân Bình","Ward":null,"AddressNo":"814","Street":"Cách Mạng Tháng Tám","SupportDisability":"","Status":"Đang khai thác","Lng":106.661453,"Lat":10.788692,"Search":"NbBVT 814 CMTT","Routes":"103, 13, 30, 65"},{"StopId":910,"Code":"QTB 056","Name":"Ông Tạ","StopType":"Biển treo","Zone":"Quận Tân Bình","Ward":null,"AddressNo":"962","Street":"Cách Mạng Tháng Tám","SupportDisability":"","Status":"Đang khai thác","Lng":106.659694,"Lat":10.78963,"Search":"OT 962 CMTT","Routes":"103, 13, 30, 65"},{"StopId":909,"Code":"QTB 057","Name":"Cư xá Tự Do","StopType":"Biển treo","Zone":"Quận Tân Bình","Ward":null,"AddressNo":"1130","Street":"Cách Mạng Tháng Tám","SupportDisability":"","Status":"Đang khai thác","Lng":106.656218,"Lat":10.791448,"Search":"CxTD 1130 CMTT","Routes":"103, 13, 30, 65"},{"StopId":908,"Code":"QTB 058","Name":"Bệnh viện Thống Nhất","StopType":"Nhà chờ","Zone":"Quận Tân Bình","Ward":null,"AddressNo":"1236 (544)","Street":"Cách Mạng Tháng Tám","SupportDisability":"","Status":"Đang khai thác","Lng":106.653991,"Lat":10.792649,"Search":"BvTN 1236( CMTT","Routes":"103, 13, 30, 65"},{"StopId":510,"Code":"QTB 034","Name":"Bệnh viện Quận Tân Bình","StopType":"Nhà chờ","Zone":"Quận Tân Bình","Ward":null,"AddressNo":"605","Street":"Hoàng Văn Thụ","SupportDisability":"","Status":"Đang khai thác","Lng":106.655198,"Lat":10.79472,"Search":"BvQTB 605 HVT","Routes":"08, 103, 13, 145, 148, 30, 50, 59, 63-1, 64, 65, 94"},{"StopId":603,"Code":"QTB 065","Name":"Trường Phạm Ngũ Lão","StopType":"Trụ dừng","Zone":"Quận Tân Bình","Ward":null,"AddressNo":"149 (E62)","Street":"Xuân Hồng","SupportDisability":"","Status":"Đang khai thác","Lng":106.654066,"Lat":10.796032,"Search":"TPNL 149( XH","Routes":"08, 103, 13, 145, 148, 30, 50, 59, 64, 65, 94"},{"StopId":606,"Code":"QTB 066","Name":"Cây xăng Đôi","StopType":"Trụ dừng","Zone":"Quận Tân Bình","Ward":null,"AddressNo":"23","Street":"Xuân Hồng","SupportDisability":"","Status":"Đang khai thác","Lng":106.652184,"Lat":10.794256,"Search":"CxD 23 XH","Routes":"08, 103, 13, 145, 148, 30, 50, 59, 64, 65, 94"},{"StopId":1719,"Code":"QTB 067","Name":"Ngã tư Bảy Hiền","StopType":"Biển treo","Zone":"Quận Tân Bình","Ward":null,"AddressNo":"106","Street":"Trường Chinh","SupportDisability":"","Status":"Đang khai thác","Lng":106.651191,"Lat":10.794182,"Search":"NtBH 106 TC","Routes":"13, 30, 64, 65, 94"},{"StopId":1720,"Code":"QTB 068","Name":"Nhà Thở Đắc Lộ","StopType":"Trụ dừng","Zone":"Quận Tân Bình","Ward":null,"AddressNo":"150","Street":"Trường Chinh","SupportDisability":"","Status":"Đang khai thác","Lng":106.649576,"Lat":10.795068,"Search":"NTDL 150 TC","Routes":"13, 30, 64, 65, 94"},{"StopId":1301,"Code":"QTB 069","Name":"Ngã ba Hoàng Hoa Thám","StopType":"Nhà chờ","Zone":"Quận Tân Bình","Ward":null,"AddressNo":"162T","Street":"Trường Chinh","SupportDisability":"","Status":"Đang khai thác","Lng":106.647747,"Lat":10.796053,"Search":"NbHHT 162T TC","Routes":"13, 30, 64, 65, 94"},{"StopId":2713,"Code":"QTB 070","Name":"Ngã ba Bình Giã","StopType":"Trụ dừng","Zone":"Quận Tân Bình","Ward":null,"AddressNo":"298","Street":"Trường Chinh","SupportDisability":"","Status":"Đang khai thác","Lng":106.644453,"Lat":10.797792,"Search":"NbBG 298 TC","Routes":"13, 30, 65, 94"},{"StopId":2200,"Code":"QTB 071","Name":"Ngã ba Ấp Bắc","StopType":"Trụ dừng","Zone":"Quận Tân Bình","Ward":null,"AddressNo":"366A","Street":"Trường Chinh","SupportDisability":"","Status":"Đang khai thác","Lng":106.641036,"Lat":10.799642,"Search":"NbAB 366A TC","Routes":"13, 23, 65, 94"},{"StopId":2205,"Code":"QTB 072","Name":"Chợ Võ Thành Trang","StopType":"Nhà chờ","Zone":"Quận Tân Bình","Ward":null,"AddressNo":"510","Street":"Trường Chinh","SupportDisability":"","Status":"Đang khai thác","Lng":106.637823,"Lat":10.801365,"Search":"CVTT 510 TC","Routes":"13, 23, 65, 94"},{"StopId":1302,"Code":"QTB 073","Name":"Ngã tư Tân Kỳ Tân Quý","StopType":"Biển treo","Zone":"Quận Tân Bình","Ward":null,"AddressNo":"638","Street":"Trường Chinh","SupportDisability":"","Status":"Đang khai thác","Lng":106.635629,"Lat":10.804732,"Search":"NtTKTQ 638 TC","Routes":"13, 23, 27, 62, 65, 94"},{"StopId":2202,"Code":"QTB 074","Name":"Siêu thị Big C","StopType":"Nhà chờ","Zone":"Quận Tân Bình","Ward":null,"AddressNo":"680","Street":"Trường Chinh","SupportDisability":"","Status":"Đang khai thác","Lng":106.635184,"Lat":10.806202,"Search":"StBC 680 TC","Routes":"13, 23, 27, 62, 65, 94"},{"StopId":268,"Code":"QTB 075","Name":"Mũi tàu Cộng Hòa","StopType":"Trụ dừng","Zone":"Quận Tân Bình","Ward":null,"AddressNo":"19B1","Street":"Trường Chinh","SupportDisability":"","Status":"Đang khai thác","Lng":106.634638,"Lat":10.808314,"Search":"MtCH 19B1 TC","Routes":"04, 104, 13, 145, 16, 23, 27, 28, 62, 63-1, 65, 94"},{"StopId":267,"Code":"QTB 076","Name":"Ngã ba Chế Lan Viên","StopType":"Nhà chờ","Zone":"Quận Tân Bình","Ward":null,"AddressNo":"Đối diện đường Chế Lan Viên","Street":"Trường Chinh","SupportDisability":"","Status":"Đang khai thác","Lng":106.633349,"Lat":10.812204,"Search":"NbCLV DddCLV TC","Routes":"04, 104, 13, 145, 23, 27, 28, 62, 65, 94"},{"StopId":270,"Code":"QTB 078","Name":"UBND Phường 15","StopType":"Nhà chờ","Zone":"Quận Tân Bình","Ward":null,"AddressNo":"850","Street":"Trường Chinh","SupportDisability":"","Status":"Đang khai thác","Lng":106.631461,"Lat":10.818332,"Search":"UP15 850 TC","Routes":"04, 104, 13, 145, 23, 27, 62, 65, 94"},{"StopId":271,"Code":"QTB 079","Name":"Khu Công Nghiệp Tân Bình","StopType":"Nhà chờ","Zone":"Quận Tân Bình","Ward":null,"AddressNo":"932","Street":"Trường Chinh","SupportDisability":"","Status":"Đang khai thác","Lng":106.630254,"Lat":10.822452,"Search":"KCNTB 932 TC","Routes":"04, 104, 13, 145, 23, 27, 32, 41, 62, 65, 94"},{"StopId":272,"Code":"Q12 128","Name":"Cầu Tham Lương - Siêu thị Thiên Hòa","StopType":"Nhà chờ","Zone":"Quận 12","Ward":null,"AddressNo":"60A-B (1/17A)","Street":"Trường Chinh","SupportDisability":"","Status":"Đang khai thác","Lng":106.625828,"Lat":10.826957,"Search":"CTL-StTH 60A-B( TC","Routes":"04, 104, 13, 145, 23, 27, 41, 62, 65, 94"},{"StopId":273,"Code":"Q12 129","Name":"Chùa Vĩnh Phước","StopType":"Nhà chờ","Zone":"Quận 12","Ward":null,"AddressNo":"110 (189/4)","Street":"Trường Chinh","SupportDisability":"","Status":"Đang khai thác","Lng":106.624594,"Lat":10.828627,"Search":"CVP 110( TC","Routes":"04, 104, 13, 145, 27, 41, 65, 94"},{"StopId":275,"Code":"Q12 132","Name":"Chùa Lạc Quang","StopType":"Nhà chờ","Zone":"Quận 12","Ward":null,"AddressNo":"408","Street":"Trường Chinh","SupportDisability":"","Status":"Đang khai thác","Lng":106.620614,"Lat":10.834781,"Search":"CLQ 408 TC","Routes":"04, 104, 13, 145, 27, 41, 65, 94"},{"StopId":277,"Code":"Q12 131","Name":"Bitis","StopType":"Nhà chờ","Zone":"Quận 12","Ward":null,"AddressNo":"590 (640)","Street":"Trường Chinh","SupportDisability":"","Status":"Đang khai thác","Lng":106.618398,"Lat":10.838222,"Search":"B 590( TC","Routes":"04, 104, 13, 145, 27, 41, 65, 94"},{"StopId":1116,"Code":"Q12 123","Name":"Bến xe An Sương","StopType":"Trụ dừng","Zone":"Quận 12","Ward":null,"AddressNo":"142","Street":"Quốc lộ 22","SupportDisability":"","Status":"Đang khai thác","Lng":106.613361,"Lat":10.846035,"Search":"BxAS 142 Ql22","Routes":"151, 27, 41, 65, 71"},{"StopId":1239,"Code":"HHM 058","Name":"Bến xe An Sương","StopType":"Trụ dừng","Zone":"Huyện Hóc Môn","Ward":"Xã Bà Điểm","AddressNo":"1B","Street":"Quốc lộ 22","SupportDisability":"","Status":"Đang khai thác","Lng":106.613522,"Lat":10.845187,"Search":"BxAS 1B Ql22","Routes":"04, 122, 13, 145, 151, 33, 41, 62-5, 65, 71, 74, 85, 94"},{"StopId":166,"Code":"BX41","Name":"Bến xe An Sương","StopType":"Bến xe","Zone":"Quận 12","Ward":null,"AddressNo":"Bến xe An Sương","Street":"Quốc lộ 22","SupportDisability":"","Status":"Đang khai thác","Lng":106.61337280273438,"Lat":10.843737602233887,"Search":"BxAS BxAS Ql22","Routes":"04, 104, 122, 151, 27, 33, 41, 61-3, 62-5, 65, 71, 74, 85"}]