[{"StopId":9351,"Code":"BD BX 0018","Name":"Nhà ở An Sinh xã hội Hòa Lợi","StopType":"Bến xe","Zone":"Bình Dương","Ward":null,"AddressNo":"Nhà ở An Sinh xã hội Hòa Lợi","Street":"Lê Lợi","SupportDisability":"","Status":"Đang khai thác","Lng":106.667176,"Lat":11.080703,"Search":"NoASxhHL NoASxhHL LL","Routes":"61-39, 61-68"},{"StopId":8462,"Code":"BD-0151","Name":"VSIP2 Dân Chủ - Vành Đai 1","StopType":"Trụ - hộp thông tin","Zone":"Bình Dương","Ward":null,"AddressNo":"VSIP2 Dân Chủ - Vành Đai 1","Street":"Dân Chủ","SupportDisability":"Có","Status":"Đang khai thác","Lng":106.67629,"Lat":11.084955,"Search":"VDC-VD1 VDC-VD1 DC","Routes":"61-39, 61-68"},{"StopId":8458,"Code":"BD-0147","Name":"VSIP2 Thống Nhất - Dân Chủ","StopType":"Trụ - hộp thông tin","Zone":"Bình Dương","Ward":null,"AddressNo":"VSIP2 Thống Nhất - Dân Chủ","Street":"Thống Nhất","SupportDisability":"Có","Status":"Đang khai thác","Lng":106.682045,"Lat":11.085311,"Search":"VTN-DC VTN-DC TN","Routes":"61-39, 61-68"},{"StopId":8456,"Code":"BD-0145","Name":"VSIP2 Thống Nhất - Đường số 4","StopType":"Trụ - hộp thông tin","Zone":"Bình Dương","Ward":null,"AddressNo":"VSIP2 Thống Nhất - Đường số 4","Street":"Thống Nhất","SupportDisability":"Có","Status":"Đang khai thác","Lng":106.6827,"Lat":11.082368,"Search":"VTN-Ds4 VTN-Ds4 TN","Routes":"61-39, 61-68"},{"StopId":8454,"Code":"BD-0143","Name":"VSIP2 Thống Nhất - Đường số 2","StopType":"Trụ - hộp thông tin","Zone":"Bình Dương","Ward":null,"AddressNo":"VSIP2 Thống Nhất - Đường số 2","Street":"Thống Nhất","SupportDisability":"Có","Status":"Đang khai thác","Lng":106.684133,"Lat":11.076222,"Search":"VTN-Ds2 VTN-Ds2 TN","Routes":"61-39, 61-68"},{"StopId":8451,"Code":"BD-0140","Name":"Trường tiểu học Hòa Phú","StopType":"Trụ - hộp thông tin","Zone":"Bình Dương","Ward":null,"AddressNo":"Trường tiểu học Hòa Phú","Street":"Võ Nguyên Giáp","SupportDisability":"Có","Status":"Đang khai thác","Lng":106.69128,"Lat":11.075169,"Search":"TthHP TthHP VNG","Routes":"171, 61-39, 61-68"},{"StopId":8452,"Code":"BD-0141","Name":"Chợ Phú Chánh","StopType":"Trụ - hộp thông tin","Zone":"Bình Dương","Ward":null,"AddressNo":"Chợ Phú Chánh","Street":"Võ Nguyên Giáp","SupportDisability":"Có","Status":"Đang khai thác","Lng":106.692591,"Lat":11.075748,"Search":"CPC CPC VNG","Routes":"171, 61-39, 61-68"},{"StopId":8450,"Code":"BD-0139","Name":"Phố Thương Mại Uni-town","StopType":"Trụ - hộp thông tin","Zone":"Bình Dương","Ward":null,"AddressNo":"Phố Thương Mại Uni-town","Street":"Võ Nguyên Giáp","SupportDisability":"Có","Status":"Đang khai thác","Lng":106.683498,"Lat":11.073385,"Search":"PTMU PTMU VNG","Routes":"61-39, 61-68"},{"StopId":8446,"Code":"BD-0135","Name":"MIDORI PARK","StopType":"Trụ - hộp thông tin","Zone":"Bình Dương","Ward":null,"AddressNo":"MIDORI PARK","Street":"Lý Thái Tổ","SupportDisability":"Có","Status":"Đang khai thác","Lng":106.680185,"Lat":11.070125,"Search":"MP MP LTT","Routes":"61-39, 61-68, 61-70"},{"StopId":8444,"Code":"BD-0133","Name":"Trường Quốc Tế Việt Hoa","StopType":"Trụ - hộp thông tin","Zone":"Bình Dương","Ward":null,"AddressNo":"Trường Quốc Tế Việt Hoa","Street":"Lý Thái Tổ","SupportDisability":"Có","Status":"Đang khai thác","Lng":106.68062,"Lat":11.068166,"Search":"TQTVH TQTVH LTT","Routes":"61-39, 61-68, 61-70"},{"StopId":8425,"Code":"BD-0114","Name":"Trạm trung chuyển Hikari 3","StopType":"Trụ - hộp thông tin","Zone":"Bình Dương","Ward":null,"AddressNo":"Trạm trung chuyển Hikari 3","Street":"Lý Thái Tổ","SupportDisability":"Có","Status":"Đang khai thác","Lng":106.683812,"Lat":11.05791,"Search":"TtcH3 TtcH3 LTT","Routes":"61-39, 61-68, 61-70"},{"StopId":8419,"Code":"BD-0108","Name":"Khách sạn Becamex Thành phố Mới","StopType":"Nhà chờ","Zone":"Bình Dương","Ward":null,"AddressNo":"Khách sạn Becamex Thành phố Mới","Street":"Đường Lý Thái Tổ","SupportDisability":"Có","Status":"Đang khai thác","Lng":106.684672,"Lat":11.056832,"Search":"KsBTpM KsBTpM DLTT","Routes":"61-37, 61-39, 61-51, 61-52, 61-67, 61-68, 61-70, 61-73"},{"StopId":8408,"Code":"BD-0097","Name":"Ngã tư Đại lộ Hùng Vương - Lê Lợi","StopType":"Nhà chờ","Zone":"Bình Dương","Ward":null,"AddressNo":"Ngã tư Đại lộ Hùng Vương - Lê Lợi","Street":"Đại Lộ Hùng Vương","SupportDisability":"Có","Status":"Đang khai thác","Lng":106.681825,"Lat":11.052003,"Search":"NtDlHV-LL NtDlHV-LL DLHV","Routes":"171, 61-39, 61-51, 61-53, 61-67, 61-68, 61-70, 61-73"},{"StopId":8406,"Code":"BD-0095","Name":"SORA gardens","StopType":"Nhà chờ","Zone":"Bình Dương","Ward":null,"AddressNo":"SORA gardens","Street":"Đường nội bộ SORA gardens","SupportDisability":"Có","Status":"Đang khai thác","Lng":106.678817,"Lat":11.045967,"Search":"Sg Sg DnbSg","Routes":"61-39, 61-52, 61-53, 61-55, 61-68, 61-70, 61-73"},{"StopId":8407,"Code":"BD-0096","Name":"Ngã tư Đại lộ Hùng Vương - Lê Lợi","StopType":"Nhà chờ","Zone":"Bình Dương","Ward":null,"AddressNo":"Ngã tư Đại lộ Hùng Vương - Lê Lợi","Street":"Đại Lộ Hùng Vương","SupportDisability":"Có","Status":"Đang khai thác","Lng":106.68201,"Lat":11.051961,"Search":"NtDlHV-LL NtDlHV-LL DLHV","Routes":"171, 61-68"},{"StopId":9349,"Code":"BD BX 0016","Name":"Trạm trung chuyển Hikari","StopType":"Bến xe","Zone":"Bình Dương","Ward":null,"AddressNo":"Trạm trung chuyển Hikari","Street":"Lý Thái Tổ","SupportDisability":"","Status":"Đang khai thác","Lng":106.68389,"Lat":11.057973,"Search":"TtcH TtcH LTT","Routes":"61-67, 61-68, 61-70"}]