[{"StopId":9349,"Code":"BD BX 0016","Name":"Trạm trung chuyển Hikari","StopType":"Bến xe","Zone":"Bình Dương","Ward":null,"AddressNo":"Trạm trung chuyển Hikari","Street":"Lý Thái Tổ","SupportDisability":"","Status":"Đang khai thác","Lng":106.68389,"Lat":11.057973,"Search":"TtcH TtcH LTT","Routes":"61-67, 61-68, 61-70"},{"StopId":8419,"Code":"BD-0108","Name":"Khách sạn Becamex Thành phố Mới","StopType":"Nhà chờ","Zone":"Bình Dương","Ward":null,"AddressNo":"Khách sạn Becamex Thành phố Mới","Street":"Đường Lý Thái Tổ","SupportDisability":"Có","Status":"Đang khai thác","Lng":106.684672,"Lat":11.056832,"Search":"KsBTpM KsBTpM DLTT","Routes":"61-37, 61-39, 61-51, 61-52, 61-67, 61-68, 61-70, 61-73"},{"StopId":8408,"Code":"BD-0097","Name":"Ngã tư Đại lộ Hùng Vương - Lê Lợi","StopType":"Nhà chờ","Zone":"Bình Dương","Ward":null,"AddressNo":"Ngã tư Đại lộ Hùng Vương - Lê Lợi","Street":"Đại Lộ Hùng Vương","SupportDisability":"Có","Status":"Đang khai thác","Lng":106.681825,"Lat":11.052003,"Search":"NtDlHV-LL NtDlHV-LL DLHV","Routes":"171, 61-39, 61-51, 61-53, 61-67, 61-68, 61-70, 61-73"},{"StopId":8406,"Code":"BD-0095","Name":"SORA gardens","StopType":"Nhà chờ","Zone":"Bình Dương","Ward":null,"AddressNo":"SORA gardens","Street":"Đường nội bộ SORA gardens","SupportDisability":"Có","Status":"Đang khai thác","Lng":106.678817,"Lat":11.045967,"Search":"Sg Sg DnbSg","Routes":"61-39, 61-52, 61-53, 61-55, 61-68, 61-70, 61-73"},{"StopId":8425,"Code":"BD-0114","Name":"Trạm trung chuyển Hikari 3","StopType":"Trụ - hộp thông tin","Zone":"Bình Dương","Ward":null,"AddressNo":"Trạm trung chuyển Hikari 3","Street":"Lý Thái Tổ","SupportDisability":"Có","Status":"Đang khai thác","Lng":106.683812,"Lat":11.05791,"Search":"TtcH3 TtcH3 LTT","Routes":"61-39, 61-68, 61-70"},{"StopId":8429,"Code":"BD-0118","Name":"Bảo hiểm xã hội tỉnh Bình Dương","StopType":"Nhà chờ","Zone":"Bình Dương","Ward":null,"AddressNo":"Bảo hiểm xã hội tỉnh Bình Dương","Street":"Lê Duẩn","SupportDisability":"Có","Status":"Đang khai thác","Lng":106.681325,"Lat":11.058946,"Search":"BhxhtBD BhxhtBD LD","Routes":"171, 61-51, 61-55, 61-67, 61-70"},{"StopId":8443,"Code":"BD-0132","Name":"Trường Quốc Tế Việt Hoa","StopType":"Trụ - hộp thông tin","Zone":"Bình Dương","Ward":null,"AddressNo":"Trường Quốc Tế Việt Hoa","Street":" Lý Thái Tổ","SupportDisability":"Có","Status":"Đang khai thác","Lng":106.680866,"Lat":11.068177,"Search":"TQTVH TQTVH LTT","Routes":"61-68, 61-70"},{"StopId":8445,"Code":"BD-0134","Name":"MIDORI PARK","StopType":"Trụ - hộp thông tin","Zone":"Bình Dương","Ward":null,"AddressNo":"MIDORI PARK","Street":"Lý Thái Tổ","SupportDisability":"Có","Status":"Đang khai thác","Lng":106.680397,"Lat":11.07016,"Search":"MP MP LTT","Routes":"61-68, 61-70"},{"StopId":8448,"Code":"BD-0137","Name":"Chung cư The View","StopType":"Nhà chờ","Zone":"Bình Dương","Ward":null,"AddressNo":"Chung cư The View","Street":"Sảnh Chung Cư The View","SupportDisability":"Có","Status":"Đang khai thác","Lng":106.681185,"Lat":11.072435,"Search":"CcTV CcTV SCCTV","Routes":"61-39, 61-68, 61-70"},{"StopId":8465,"Code":"BD-0154","Name":"Trạm xăng Phụng Tân Tiến","StopType":"Trụ - hộp thông tin","Zone":"Bình Dương","Ward":null,"AddressNo":"Trạm xăng Phụng Tân Tiến","Street":"NE14","SupportDisability":"Có","Status":"Đang khai thác","Lng":106.668524,"Lat":11.09726,"Search":"TxPTT TxPTT N","Routes":"61-70"},{"StopId":8467,"Code":"BD-0156","Name":"Ngã Tư NE8 - Nguyễn Văn Thành","StopType":"Trụ - hộp thông tin","Zone":"Bình Dương","Ward":null,"AddressNo":"Ngã Tư NE8 - Nguyễn Văn Thành","Street":"NE8 ","SupportDisability":"Có","Status":"Đang khai thác","Lng":106.660456,"Lat":11.096505,"Search":"NTN-NVT NTN-NVT N","Routes":"61-70"},{"StopId":8469,"Code":"BD-0158","Name":"Lốp Xe Kumho Việt Nam","StopType":"Nhà chờ","Zone":"Bình Dương","Ward":null,"AddressNo":"Lốp Xe Kumho Việt Nam","Street":"NE8 ","SupportDisability":"Có","Status":"Đang khai thác","Lng":106.650531,"Lat":11.097199,"Search":"LXKVN LXKVN N","Routes":"61-70"},{"StopId":8471,"Code":"BD-0160","Name":"Bưu điện KCN Mỹ Phước 3","StopType":"Trụ - hộp thông tin","Zone":"Bình Dương","Ward":null,"AddressNo":"Bưu điện KCN Mỹ Phước 3","Street":"NE8 ","SupportDisability":"Có","Status":"Đang khai thác","Lng":106.640362,"Lat":11.097283,"Search":"BdKMP3 BdKMP3 N","Routes":"61-70"},{"StopId":8473,"Code":"BD-0162","Name":"CLB Bóng Đá Becamex BD","StopType":"Trụ - hộp thông tin","Zone":"Bình Dương","Ward":null,"AddressNo":"CLB Bóng Đá Becamex BD","Street":"NE8 ","SupportDisability":"Có","Status":"Đang khai thác","Lng":106.635582,"Lat":11.097359,"Search":"CBDBB CBDBB N","Routes":"61-70"},{"StopId":8475,"Code":"BD-0164","Name":"Công ty Becamex ITC","StopType":"Trụ - hộp thông tin","Zone":"Bình Dương","Ward":null,"AddressNo":"Công ty Becamex ITC","Street":"NE8 ","SupportDisability":"Có","Status":"Đang khai thác","Lng":106.630395,"Lat":11.097404,"Search":"CtBI CtBI N","Routes":"61-70"},{"StopId":8526,"Code":"BD-0168","Name":"Trạm Xăng Thới Hòa","StopType":"Trụ - hộp thông tin","Zone":"Bình Dương","Ward":null,"AddressNo":"Trạm Xăng Thới Hòa","Street":"Quốc Lộ 13","SupportDisability":"Có","Status":"Đang khai thác","Lng":106.623845,"Lat":11.103394,"Search":"TXTH TXTH QL13","Routes":"61-70"},{"StopId":8534,"Code":"BD-0171","Name":"EcoLakes Mỹ Phước","StopType":"Nhà chờ","Zone":"Bình Dương","Ward":null,"AddressNo":"EcoLakes Mỹ Phước","Street":"Quốc Lộ 13","SupportDisability":"Có","Status":"Đang khai thác","Lng":106.61843,"Lat":11.111283,"Search":"EMP EMP QL13","Routes":"61-70"},{"StopId":8536,"Code":"BD-0173","Name":"Giáo Xứ Thới Hòa","StopType":"Trụ - hộp thông tin","Zone":"Bình Dương","Ward":null,"AddressNo":"Giáo Xứ Thới Hòa","Street":"Quốc Lộ 13","SupportDisability":"Có","Status":"Đang khai thác","Lng":106.615517,"Lat":11.119274,"Search":"GXTH GXTH QL13","Routes":"61-70"},{"StopId":8538,"Code":"BD-0175","Name":"Trường Tiểu học Duy Tân","StopType":"Trụ - hộp thông tin","Zone":"Bình Dương","Ward":null,"AddressNo":"Trường Tiểu học Duy Tân","Street":"Đường D17","SupportDisability":"Có","Status":"Đang khai thác","Lng":106.612434,"Lat":11.123957,"Search":"TThDT TThDT DD","Routes":"61-2, 61-70"},{"StopId":8552,"Code":"BD-0179","Name":"Công an phường Mỹ Phước","StopType":"Trụ - hộp thông tin","Zone":"Bình Dương","Ward":null,"AddressNo":"Công an phường Mỹ Phước","Street":"Đường D1","SupportDisability":"Có","Status":"Đang khai thác","Lng":106.605169,"Lat":11.130379,"Search":"CapMP CapMP DD","Routes":"61-70"},{"StopId":8568,"Code":"BD-0181","Name":"Ủy Ban Nhân Dân Phường Mỹ Phước","StopType":"Trụ - hộp thông tin","Zone":"Bình Dương","Ward":null,"AddressNo":"Ủy Ban Nhân Dân Phường Mỹ Phước","Street":"Quốc Lộ 13","SupportDisability":"Có","Status":"Đang khai thác","Lng":106.606418,"Lat":11.132822,"Search":"?BNDPMP ?BNDPMP QL13","Routes":"61-70"},{"StopId":8570,"Code":"BD-0183","Name":"Ngã ba Bệnh viện Mỹ Phước","StopType":"Trụ - hộp thông tin","Zone":"Bình Dương","Ward":null,"AddressNo":"Ngã ba Bệnh viện Mỹ Phước","Street":"Quốc Lộ 13","SupportDisability":"Có","Status":"Đang khai thác","Lng":106.603911,"Lat":11.14023,"Search":"NbBvMP NbBvMP QL13","Routes":"61-70"},{"StopId":8574,"Code":"BD-0185","Name":"Golden Center City","StopType":"Nhà chờ","Zone":"Bình Dương","Ward":null,"AddressNo":"Golden Center City","Street":"Quốc Lộ 13","SupportDisability":"Có","Status":"Đang khai thác","Lng":106.60014,"Lat":11.145825,"Search":"GCC GCC QL13","Routes":"61-2, 61-70"},{"StopId":8577,"Code":"BD-0187","Name":"Ủy Ban Nhân Dân TP.Bến Cát","StopType":"Nhà chờ","Zone":"Bình Dương","Ward":null,"AddressNo":"Ủy Ban Nhân Dân TP.Bến Cát","Street":"30/4","SupportDisability":"Có","Status":"Đang khai thác","Lng":106.593653,"Lat":11.151322,"Search":"?BNDTC ?BNDTC 30/4","Routes":"61-2, 61-70"},{"StopId":9346,"Code":"BD BX  0013","Name":"Bưu điện Thành phố Bến Cát","StopType":"Bến xe","Zone":"Bình Dương","Ward":null,"AddressNo":"Bưu điện Thành phố Bến Cát","Street":"Đường 30 tháng 4","SupportDisability":"","Status":"Đang khai thác","Lng":106.591904,"Lat":11.152417,"Search":"BdTpBC BdTpBC D30t4","Routes":"61-2, 61-70"}]