[{"StopId":8260,"Code":"BX97","Name":"Trường Đại học Ngân hàng cơ sở Thủ Đức","StopType":"Bến xe","Zone":"TP. Thủ Đức - KV3","Ward":"Phường Linh Chiểu","AddressNo":"Trường ĐH Ngân hàng cơ sở Thủ Đức","Street":"Đường số 17","SupportDisability":"Có","Status":"Đang khai thác","Lng":106.7617,"Lat":10.85636,"Search":"TDhNhcsTD TDNhcsTD Ds17","Routes":"168D, 168V"},{"StopId":8282,"Code":"TPTĐ 306","Name":"Ký túc xá Cao đẳng nghề Thành phố Hồ Chí Minh","StopType":"Ô sơn","Zone":"TP. Thủ Đức - KV3","Ward":"Phường Linh Chiểu","AddressNo":"Số 2A","Street":"Đường 17","SupportDisability":"Có","Status":"Đang khai thác","Lng":106.75949,"Lat":10.85409,"Search":"KtxCdnTpHCM S2A D17","Routes":"168V"},{"StopId":8281,"Code":"TPTĐ 305","Name":"Trường Cao đẳng Công Nghệ Thủ Đức","StopType":"Trụ dừng","Zone":"TP. Thủ Đức - KV3","Ward":"Phường Linh Chiểu","AddressNo":"Cạnh CX số 5 (đối diện 26)","Street":"Chương Dương","SupportDisability":"Có","Status":"Đang khai thác","Lng":106.75999,"Lat":10.85201,"Search":"TCdCNTD CCs5(d26) CD","Routes":"168V"},{"StopId":493,"Code":"QTD 070","Name":"Ngã ba Chương Dương","StopType":"Trụ dừng","Zone":"TP. Thủ Đức - KV3","Ward":"Phường Bình Thọ","AddressNo":"120","Street":"Võ Văn Ngân","SupportDisability":"","Status":"Đang khai thác","Lng":106.760931,"Lat":10.850419,"Search":"NbCD 120 VVN","Routes":"06, 08, 141, 168V, 169V, 56, 57, 89"},{"StopId":490,"Code":"QTD 071","Name":"Cao đẳng xây dựng 2","StopType":"Nhà chờ","Zone":"TP. Thủ Đức - KV3","Ward":null,"AddressNo":"190","Street":"Võ Văn Ngân","SupportDisability":"","Status":"Đang khai thác","Lng":106.764439,"Lat":10.85065,"Search":"Cdxd2 190 VVN","Routes":"06, 08, 141, 168V, 169V, 56, 57, 89"},{"StopId":492,"Code":"QTD 072","Name":"Siêu thị Nguyễn Kim","StopType":"Trụ dừng","Zone":"TP. Thủ Đức - KV3","Ward":"Phường Linh Chiểu","AddressNo":"275-274","Street":"Võ Văn Ngân","SupportDisability":"","Status":"Đang khai thác","Lng":106.769112,"Lat":10.849686,"Search":"StNK 275-274 VVN","Routes":"06, 08, 141, 168V, 56, 57, 89"},{"StopId":497,"Code":"QTD 073","Name":"Trường ĐHSP Kỹ Thuật","StopType":"Trụ dừng","Zone":"TP. Thủ Đức - KV3","Ward":"Phường Bình Thọ","AddressNo":"366-368","Street":"Võ Văn Ngân","SupportDisability":"","Status":"Đang khai thác","Lng":106.771917,"Lat":10.849597,"Search":"TDKT 366-368 VVN","Routes":"06, 08, 141, 168V, 56, 57, 89"},{"StopId":8065,"Code":"TPTĐ 195","Name":"Đường Chu Mạnh Trinh","StopType":"Trụ dừng","Zone":"TP. Thủ Đức - KV3","Ward":"Phường Bình Thọ","AddressNo":"99 - 101","Street":"Thống Nhất","SupportDisability":"Có","Status":"Đang khai thác","Lng":106.770703,"Lat":10.847105,"Search":"DCMT 99-101 TN","Routes":"162, 168D, 168V"},{"StopId":8063,"Code":"TPTĐ 193","Name":"Công viên Bình Thọ","StopType":"Nhà chờ","Zone":"TP. Thủ Đức - KV3","Ward":"Phường Bình Thọ","AddressNo":"Cạnh Trường THCS Bình Thọ","Street":"Thống Nhất","SupportDisability":"Có","Status":"Đang khai thác","Lng":106.76967,"Lat":10.845235,"Search":"CvBT CTTBT TN","Routes":"168D, 168V"},{"StopId":8286,"Code":"TPTĐ 310","Name":"Ga metro Thủ Đức","StopType":"Ô sơn","Zone":"TP. Thủ Đức - KV3","Ward":"Phường Bình Thọ","AddressNo":"Bãi xe máy ga metro Thủ Đức","Street":"Nguyễn Văn Bá","SupportDisability":"Có","Status":"Đang khai thác","Lng":106.7712,"Lat":10.84569,"Search":"GmTD BxmgmTD NVB","Routes":"168D, 168V"},{"StopId":8066,"Code":"TPTĐ 196","Name":"Đường Nguyễn Công Trứ","StopType":"Trụ dừng","Zone":"TP. Thủ Đức - KV3","Ward":"Phường Bình Thọ","AddressNo":"Đối diện 123","Street":"Thống Nhất","SupportDisability":"Có","Status":"Đang khai thác","Lng":106.771249,"Lat":10.847884,"Search":"DNCT Dd123 TN","Routes":"168D, 168V, 89"},{"StopId":1031,"Code":"QTD 084","Name":"Đầu đường Lê Văn Chí","StopType":"Nhà chờ","Zone":"TP. Thủ Đức - KV3","Ward":null,"AddressNo":"116/6","Street":"Lê Văn Chí","SupportDisability":"","Status":"Đang khai thác","Lng":106.774025,"Lat":10.850485,"Search":"DdLVC 116/6 LVC","Routes":"168V, 53, 89"},{"StopId":1033,"Code":"QTD 085","Name":"Nhà máy nước Thủ Đức","StopType":"Nhà chờ","Zone":"TP. Thủ Đức - KV3","Ward":null,"AddressNo":"Nhà máy nước Thủ Đức","Street":"Lê Văn Chí","SupportDisability":"","Status":"Đang khai thác","Lng":106.773173,"Lat":10.853954,"Search":"NmnTD NmnTD LVC","Routes":"168V, 53, 89"},{"StopId":1032,"Code":"QTD 094","Name":"Ngã ba Lê Văn Chí","StopType":"Trụ dừng","Zone":"TP. Thủ Đức - KV3","Ward":null,"AddressNo":"225","Street":"Hoàng Diệu 2","SupportDisability":"","Status":"Đang khai thác","Lng":106.77195,"Lat":10.854117,"Search":"NbLVC 225 HD2","Routes":"168V, 53"},{"StopId":1035,"Code":"QTD 095","Name":"Tô Vĩnh Diện","StopType":"Trụ dừng","Zone":"TP. Thủ Đức - KV3","Ward":null,"AddressNo":"151","Street":"Hoàng Diệu 2","SupportDisability":"","Status":"Đang khai thác","Lng":106.76843,"Lat":10.854728,"Search":"TVD 151 HD2","Routes":"168V, 53"},{"StopId":8205,"Code":"TPTĐ 281","Name":"UBND Phường Linh Chiểu","StopType":"Trụ dừng","Zone":"TP. Thủ Đức - KV3","Ward":"Phường Linh Chiểu","AddressNo":"101B","Street":"Hoàng Diệu 2","SupportDisability":"Có","Status":"Đang khai thác","Lng":106.76549,"Lat":10.85665,"Search":"UPLC 101B HD2","Routes":"168V, 53"},{"StopId":8284,"Code":"TPTĐ 308","Name":"Trường ĐH Ngân Hàng TP. HCM","StopType":"Ô sơn","Zone":"TP. Thủ Đức - KV3","Ward":"Phường Linh Chiểu","AddressNo":"Đối diện 84","Street":"Đường 17","SupportDisability":"Có","Status":"Đang khai thác","Lng":106.76244,"Lat":10.85644,"Search":"TDNHTH Dd84 D17","Routes":"168V"},{"StopId":8260,"Code":"BX97","Name":"Trường Đại học Ngân hàng cơ sở Thủ Đức","StopType":"Bến xe","Zone":"TP. Thủ Đức - KV3","Ward":"Phường Linh Chiểu","AddressNo":"Trường ĐH Ngân hàng cơ sở Thủ Đức","Street":"Đường số 17","SupportDisability":"Có","Status":"Đang khai thác","Lng":106.7617,"Lat":10.85636,"Search":"TDhNhcsTD TDNhcsTD Ds17","Routes":"168D, 168V"}]