[{"StopId":2972,"Code":"BX45","Name":"Bến đò Bình Quới","StopType":"Bến xe","Zone":"Quận Bình Thạnh","Ward":null,"AddressNo":"ĐẦU BẾN BẾN ĐÒ BÌNH QUỚI","Street":"Bình Quới","SupportDisability":"","Status":"Đang khai thác","Lng":106.742713,"Lat":10.831815,"Search":"BdBQ DBBDBQ BQ","Routes":"44"},{"StopId":3044,"Code":"QBTH 023","Name":"Nhà hàng Hàn Quốc","StopType":"Ô sơn","Zone":"Quận Bình Thạnh","Ward":null,"AddressNo":"401","Street":"Bình Quới","SupportDisability":"","Status":"Đang khai thác","Lng":106.739441,"Lat":10.829586,"Search":"NhHQ 401 BQ","Routes":"44"},{"StopId":3046,"Code":"QBTH 024","Name":"Khu du lịch Bình Quới","StopType":"Ô sơn","Zone":"Quận Bình Thạnh","Ward":null,"AddressNo":"387-389","Street":"Bình Quới","SupportDisability":"","Status":"Đang khai thác","Lng":106.737285,"Lat":10.827911,"Search":"KdlBQ 387-389 BQ","Routes":"44"},{"StopId":3045,"Code":"QBTH 025","Name":"Chợ Bình Quới","StopType":"Trụ dừng","Zone":"Quận Bình Thạnh","Ward":null,"AddressNo":"357","Street":"Bình Quới","SupportDisability":"","Status":"Đang khai thác","Lng":106.735913,"Lat":10.826511,"Search":"CBQ 357 BQ","Routes":"44"},{"StopId":3047,"Code":"QBTH 026","Name":"UBND Phường 28, Quận Bình Thạnh","StopType":"Trụ dừng","Zone":"Quận Bình Thạnh","Ward":null,"AddressNo":"1075","Street":"Bình Quới","SupportDisability":"","Status":"Đang khai thác","Lng":106.733004,"Lat":10.824185,"Search":"UP28,QBT 1075 BQ","Routes":"44"},{"StopId":3048,"Code":"QBTH 027","Name":"Trung tâm cai nghiện Ma túy","StopType":"Trụ dừng","Zone":"Quận Bình Thạnh","Ward":null,"AddressNo":"1051","Street":"Bình Quới","SupportDisability":"","Status":"Đang khai thác","Lng":106.730147,"Lat":10.822328,"Search":"TtcnMt 1051 BQ","Routes":"44"},{"StopId":3049,"Code":"QBTH 028","Name":"Cư xá Thanh Đa","StopType":"Trụ dừng","Zone":"Quận Bình Thạnh","Ward":null,"AddressNo":"1027","Street":"Bình Quới","SupportDisability":"","Status":"Đang khai thác","Lng":106.728484,"Lat":10.821391,"Search":"CxTD 1027 BQ","Routes":"44"},{"StopId":3051,"Code":"QBTH 029","Name":"Trung tâm TDTT Thanh Đa","StopType":"Trụ dừng","Zone":"Quận Bình Thạnh","Ward":null,"AddressNo":"1017","Street":"Bình Quới","SupportDisability":"","Status":"Đang khai thác","Lng":106.726293,"Lat":10.820197,"Search":"TtTTD 1017 BQ","Routes":"44"},{"StopId":3050,"Code":"QBTH 030","Name":"Chung cư Thanh Đa","StopType":"Trụ dừng","Zone":"Quận Bình Thạnh","Ward":null,"AddressNo":"131","Street":"Bình Quới","SupportDisability":"","Status":"Đang khai thác","Lng":106.722801,"Lat":10.818342,"Search":"CcTD 131 BQ","Routes":"44"},{"StopId":3053,"Code":"QBTH 031","Name":"Chợ Thanh Đa","StopType":"Nhà chờ","Zone":"Quận Bình Thạnh","Ward":null,"AddressNo":"130","Street":"Bình Quới","SupportDisability":"","Status":"Đang khai thác","Lng":106.719705,"Lat":10.816672,"Search":"CTD 130 BQ","Routes":"158, 44"},{"StopId":3052,"Code":"QBTH 032","Name":"Coop Mart Cầu kinh","StopType":"Trụ dừng","Zone":"Quận Bình Thạnh","Ward":null,"AddressNo":"689","Street":"Xô Viết Nghệ Tĩnh","SupportDisability":"","Status":"Đang khai thác","Lng":106.715162,"Lat":10.812355,"Search":"CMCk 689 XVNT","Routes":"158, 44"},{"StopId":3054,"Code":"QBTH 033","Name":"Chùa Bửu Liên","StopType":"Trụ dừng","Zone":"Quận Bình Thạnh","Ward":null,"AddressNo":"609","Street":"Xô Viết Nghệ Tĩnh","SupportDisability":"","Status":"Đang khai thác","Lng":106.713442,"Lat":10.810862,"Search":"CBL 609 XVNT","Routes":"158, 44"},{"StopId":1410,"Code":"QBTH 131","Name":"Chợ Phường 25","StopType":"Trụ dừng","Zone":"Quận Bình Thạnh","Ward":null,"AddressNo":"đối diện 134/4A","Street":"Ung Văn Khiêm","SupportDisability":"","Status":"Đang khai thác","Lng":106.714674,"Lat":10.808304,"Search":"CP25 dd134/4A UVK","Routes":"14, 158, 19, 43, 44, 45"},{"StopId":3055,"Code":"QBTH 132","Name":"Ngã Tư D2","StopType":"Trụ dừng","Zone":"Quận Bình Thạnh","Ward":null,"AddressNo":"88","Street":"Ung Văn Khiêm","SupportDisability":"","Status":"Đang khai thác","Lng":106.716948,"Lat":10.807382,"Search":"NTD 88 UVK","Routes":"44"},{"StopId":3057,"Code":"QBTH 133","Name":"Ngã Ba Cảng than","StopType":"Trụ dừng","Zone":"Quận Bình Thạnh","Ward":null,"AddressNo":"214","Street":"Ung Văn Khiêm","SupportDisability":"","Status":"Đang khai thác","Lng":106.720859,"Lat":10.80538,"Search":"NBCt 214 UVK","Routes":"44"},{"StopId":3056,"Code":"QBTH 036","Name":"Trường THPT Hồng Đức","StopType":"Trụ dừng","Zone":"Quận Bình Thạnh","Ward":null,"AddressNo":"175","Street":"Nguyễn Văn Thương","SupportDisability":"","Status":"Đang khai thác","Lng":106.720628,"Lat":10.803415,"Search":"TTHD 175 NVT","Routes":"44"},{"StopId":3060,"Code":"QBTH 037","Name":"Chợ Văn Thánh","StopType":"Trụ dừng","Zone":"Quận Bình Thạnh","Ward":null,"AddressNo":"57-59","Street":"Nguyễn Văn Thương","SupportDisability":"","Status":"Đang khai thác","Lng":106.718831,"Lat":10.801533,"Search":"CVT 57-59 NVT","Routes":"44"},{"StopId":420,"Code":"QBTH 055","Name":"Khu Du lịch Văn Thánh","StopType":"Nhà chờ","Zone":"Quận Bình Thạnh","Ward":null,"AddressNo":"152/72c(559)","Street":"Điện Biên Phủ","SupportDisability":"","Status":"Đang khai thác","Lng":106.717227,"Lat":10.800274,"Search":"KDlVT 152/72c(559) DBP","Routes":"06, 10, 104, 150, 157, 158, 161, 30, 43, 44, 52, 55, 60-3, 67"},{"StopId":421,"Code":"QBTH 054","Name":"Đại học Hutech","StopType":"Nhà chờ","Zone":"Quận Bình Thạnh","Ward":null,"AddressNo":"483","Street":"Điện Biên Phủ","SupportDisability":"","Status":"Đang khai thác","Lng":106.714856,"Lat":10.801228,"Search":"DhH 483 DBP","Routes":"06, 10, 104, 14, 150, 157, 161, 19, 30, 43, 44, 45, 52, 55, 60-3, 67, 72-1"},{"StopId":423,"Code":"QBTH 053","Name":"Cây xăng dầu","StopType":"Trụ dừng","Zone":"Quận Bình Thạnh","Ward":null,"AddressNo":"419","Street":"Điện Biên Phủ","SupportDisability":"","Status":"Đang khai thác","Lng":106.712834,"Lat":10.801697,"Search":"Cxd 419 DBP","Routes":"06, 10, 104, 14, 150, 157, 161, 19, 30, 43, 44, 45, 52, 55, 67"},{"StopId":368,"Code":"QBTH 130","Name":"Trường trung học Gia Định","StopType":"Trụ dừng","Zone":"Quận Bình Thạnh","Ward":null,"AddressNo":"221","Street":"Xô Viết Nghệ Tĩnh","SupportDisability":"","Status":"Đang khai thác","Lng":106.711037,"Lat":10.79981,"Search":"TthGD 221 XVNT","Routes":"05, 06, 14, 19, 44, 52"},{"StopId":367,"Code":"QBTH 129","Name":"Trường Tiểu học Hồng Hà","StopType":"Nhà chờ","Zone":"Quận Bình Thạnh","Ward":null,"AddressNo":"153","Street":"Xô Viết Nghệ Tĩnh","SupportDisability":"","Status":"Đang khai thác","Lng":106.710591,"Lat":10.797328,"Search":"TThHH 153 XVNT","Routes":"05, 06, 14, 19, 44, 52"},{"StopId":3058,"Code":"QBTH 066","Name":"Trường khiếm thính Hy vọng","StopType":"Trụ dừng","Zone":"Quận Bình Thạnh","Ward":null,"AddressNo":"25","Street":"Nguyễn Văn Lạc","SupportDisability":"","Status":"Đang khai thác","Lng":106.709776,"Lat":10.794836,"Search":"TktHv 25 NVL","Routes":"44"},{"StopId":3061,"Code":"QBTH 083","Name":"Đại học Tôn Đức Thắng","StopType":"Ô sơn","Zone":"Quận Bình Thạnh","Ward":null,"AddressNo":"12C","Street":"Ngô Tất Tố","SupportDisability":"","Status":"Đang khai thác","Lng":106.710028,"Lat":10.793097,"Search":"DhTDT 12C NTT","Routes":"44"},{"StopId":3059,"Code":"QBTH 084","Name":"Trường Trung học cơ sở Phú Mỹ","StopType":"Nhà chờ","Zone":"Quận Bình Thạnh","Ward":null,"AddressNo":"010 Lô A","Street":"Ngô Tất Tố","SupportDisability":"","Status":"Đang khai thác","Lng":106.712587,"Lat":10.792433,"Search":"TThcsPM 010LA NTT","Routes":"44"},{"StopId":3062,"Code":"QBTH 085","Name":"Cầu vượt Thủ Thiêm","StopType":"Trụ dừng","Zone":"Quận Bình Thạnh","Ward":null,"AddressNo":"120","Street":"Ngô Tất Tố","SupportDisability":"","Status":"Đang khai thác","Lng":106.714856,"Lat":10.790826,"Search":"CvTT 120 NTT","Routes":"44"},{"StopId":2702,"Code":"QBTH 076","Name":"Hồ Bơi Hải Quân","StopType":"Trụ dừng","Zone":"Quận Bình Thạnh","Ward":null,"AddressNo":"22","Street":"Nguyễn Hữu Cảnh","SupportDisability":"","Status":"Đang khai thác","Lng":106.710522,"Lat":10.789477,"Search":"HBHQ 22 NHC","Routes":"30, 44, 53, 56, 88"},{"StopId":2703,"Code":"Q1 034","Name":"Mầm non Hoa Lư","StopType":"Nhà chờ","Zone":"Quận 1","Ward":null,"AddressNo":"1","Street":"Nguyễn Hữu Cảnh","SupportDisability":"","Status":"Đang khai thác","Lng":106.707555,"Lat":10.784149,"Search":"MnHL 1 NHC","Routes":"30, 44, 53, 56, 88"},{"StopId":1095,"Code":"Q1 028","Name":"TTTM Sài Gòn","StopType":"Nhà chờ","Zone":"Quận 1","Ward":null,"AddressNo":"6","Street":"Tôn Đức Thắng","SupportDisability":"","Status":"Đang khai thác","Lng":106.704363,"Lat":10.784286,"Search":"TSG 6 TDT","Routes":"30, 44"},{"StopId":1189,"Code":"Q1 029","Name":"TTTM Sài Gòn","StopType":"Ô sơn","Zone":"Quận 1","Ward":null,"AddressNo":"35","Street":"Tôn Đức Thắng","SupportDisability":"","Status":"Đang khai thác","Lng":106.704336,"Lat":10.783838,"Search":"TSG 35 TDT","Routes":"44"},{"StopId":3063,"Code":"Q1 035","Name":"Chu Mạnh Trinh","StopType":"Nhà chờ","Zone":"Quận 1","Ward":null,"AddressNo":"Đối diện 15 (dd 15/3)","Street":"Lê Thánh Tôn","SupportDisability":"","Status":"Đang khai thác","Lng":106.704894,"Lat":10.780908,"Search":"CMT Dd15(15/3) LTT","Routes":"44"},{"StopId":3065,"Code":"Q1 036","Name":"Sở Kế Hoạch & Đầu Tư","StopType":"Nhà chờ","Zone":"Quận 1","Ward":null,"AddressNo":"32","Street":"Lê Thánh Tôn","SupportDisability":"","Status":"Đang khai thác","Lng":106.703328,"Lat":10.779001,"Search":"SKH&amp;DT 32 LTT","Routes":"44"},{"StopId":4262,"Code":"Q1 037","Name":"Trung tâm Vincom","StopType":"Nhà chờ","Zone":"Quận 1","Ward":null,"AddressNo":"70","Street":"Lê Thánh Tôn","SupportDisability":"","Status":"Đang khai thác","Lng":106.702175,"Lat":10.777683,"Search":"TtV 70 LTT","Routes":"44"},{"StopId":4263,"Code":"Q1 038","Name":"Phố đi bộ Nguyễn Huệ","StopType":"Nhà chờ","Zone":"Quận 1","Ward":null,"AddressNo":"86Bis","Street":"Lê Thánh Tôn","SupportDisability":"","Status":"Đang khai thác","Lng":106.700136,"Lat":10.77537,"Search":"PdbNH 86Bis LTT","Routes":"44"},{"StopId":199,"Code":"Q1 076","Name":"Chùa Ông","StopType":"Trụ dừng","Zone":"Quận 1","Ward":null,"AddressNo":"Đối diện 96A","Street":"Nam Kỳ Khởi Nghĩa","SupportDisability":"","Status":"Đang khai thác","Lng":106.699722,"Lat":10.773957,"Search":"CO Dd96A NKKN","Routes":"04, 109, 152, 155, 156D, 18, 31, 36, 44, 52, 93, DRCB, BD"},{"StopId":201,"Code":"Q1 077","Name":"Trường CĐKT Cao Thắng","StopType":"Trụ dừng","Zone":"Quận 1","Ward":null,"AddressNo":"Đối diện 86","Street":"Nam Kỳ Khởi Nghĩa","SupportDisability":"","Status":"Đang khai thác","Lng":106.700851,"Lat":10.771416,"Search":"TCCT Dd86 NKKN","Routes":"04, 109, 152, 18, 31, 36, 44, 52, 93"},{"StopId":4223,"Code":"Q1 102","Name":"Trạm Trung chuyển trên đường Hàm Nghi","StopType":"Nhà chờ","Zone":"Quận 1","Ward":"Phường Bến Thành","AddressNo":"Hàm Nghi 4","Street":"Hàm Nghi","SupportDisability":"","Status":"Đang khai thác","Lng":106.699514,"Lat":10.771043,"Search":"TTctdHN HN4 HN","Routes":"01, 102, 44, 65, 86"},{"StopId":853,"Code":"Q1 001","Name":"Calmette","StopType":"Trụ dừng","Zone":"Quận 1","Ward":null,"AddressNo":"97","Street":"Calmette","SupportDisability":"","Status":"Đang khai thác","Lng":106.699219,"Lat":10.767768,"Search":"C 97 C","Routes":"102, 34, 38, 44, 86"},{"StopId":1195,"Code":"Q4 008","Name":"Chùa Anh Linh","StopType":"Trụ dừng","Zone":"Quận 4","Ward":null,"AddressNo":"160-162","Street":"Hoàng Diệu","SupportDisability":"","Status":"Đang khai thác","Lng":106.703183,"Lat":10.76308,"Search":"CAL 160-162 HD","Routes":"31, 38, 44, 86"},{"StopId":1193,"Code":"Q4 009","Name":"Trường THCS Vân Đồn","StopType":"Trụ dừng","Zone":"Quận 4","Ward":null,"AddressNo":"Đối diện 243","Street":"Hoàng Diệu","SupportDisability":"","Status":"Đang khai thác","Lng":106.701488,"Lat":10.761879,"Search":"TTVD Dd243 HD","Routes":"31, 38, 44, 86"},{"StopId":4760,"Code":"Q4 005","Name":"Chùa Giác Nguyên","StopType":"Trụ dừng","Zone":"Quận 4","Ward":"Phường 01","AddressNo":"93","Street":"41","SupportDisability":"Có","Status":"Đang khai thác","Lng":106.701434,"Lat":10.759296,"Search":"CGN 93 41","Routes":"44"},{"StopId":3069,"Code":"Q4 036","Name":"Hồ Bơi Quận 4","StopType":"Trụ dừng","Zone":"Quận 4","Ward":null,"AddressNo":"Đối diện 47","Street":"Tân Vĩnh","SupportDisability":"","Status":"Đang khai thác","Lng":106.701381,"Lat":10.757584,"Search":"HBQ4 Dd47 TV","Routes":"44"},{"StopId":3066,"Code":"Q4 053","Name":"Nhà thuốc Hữu Nghị","StopType":"Trụ dừng","Zone":"Quận 4","Ward":null,"AddressNo":"28-30","Street":"Vĩnh Hội","SupportDisability":"","Status":"Đang khai thác","Lng":106.702942,"Lat":10.756045,"Search":"NtHN 28-30 VH","Routes":"44"},{"StopId":3068,"Code":"Q4 054","Name":"Tôn Đản","StopType":"Trụ dừng","Zone":"Quận 4","Ward":null,"AddressNo":"124-126","Street":"Vĩnh Hội","SupportDisability":"","Status":"Đang khai thác","Lng":106.705157,"Lat":10.756108,"Search":"TD 124-126 VH","Routes":"44"},{"StopId":3071,"Code":"Q4 039","Name":"Tôn Đản","StopType":"Trụ dừng","Zone":"Quận 4","Ward":null,"AddressNo":"322-324A","Street":"Tôn Đản","SupportDisability":"","Status":"Đang khai thác","Lng":106.705711,"Lat":10.7551,"Search":"TD 322-324A TD","Routes":"44"},{"StopId":2834,"Code":"Q4 045","Name":"Công An Phường 4","StopType":"Trụ dừng","Zone":"Quận 4","Ward":null,"AddressNo":"183B16","Street":"Tôn Thất Thuyết","SupportDisability":"","Status":"Đang khai thác","Lng":106.703601,"Lat":10.75323,"Search":"CAP4 183B16 TTT","Routes":"44, 46"},{"StopId":2783,"Code":"BX 12","Name":"Bến xe buýt Kho Muối","StopType":"Bến xe","Zone":"Quận 4","Ward":null,"AddressNo":"BẾN XE BUÝT KHO MUỐI","Street":"Tôn Thất Thuyết","SupportDisability":"","Status":"Đang khai thác","Lng":106.70174,"Lat":10.752714,"Search":"BxbKM BXBKM TTT","Routes":"44, 46"}]