[{"StopId":35,"Code":"BX 01","Name":"Bến xe buýt Sài Gòn","StopType":"Bến xe","Zone":"Quận 1","Ward":"Phường Phạm Ngũ Lão","AddressNo":"BẾN XE BUÝT SÀI GÒN","Street":"Lê Lai","SupportDisability":"Có","Status":"Đang khai thác","Lng":106.689362,"Lat":10.767676,"Search":"BxbSG BXBSG LL","Routes":"03, 04, 102, 109, 13, 140, 171, 172, 18, 19, 20, 27, 28, 34, 36, 39, 52, 65, 69, 72, 75, 86, 88, 93, D4, DL03, DL04, DL05"},{"StopId":7276,"Code":"Q1 190","Name":"Tôn Thất Tùng","StopType":"Trụ dừng","Zone":"Quận 1","Ward":"Phường Phạm Ngũ Lão","AddressNo":"277-279-275Y","Street":"Phạm Ngũ Lão","SupportDisability":"Có","Status":"Đang khai thác","Lng":106.690941,"Lat":10.76767,"Search":"TTT 277-279-275Y PNL","Routes":"03, 04, 102, 109, 13, 140, 156V, 171, 172, 18, 19, 20, 28, 34, 36, 39, 46, 52, 65, 69, 72, 72-2B, 75, 86, 88, 93, D4"},{"StopId":26,"Code":"Q1 137","Name":"KTX Trần Hưng Đạo","StopType":"Nhà chờ","Zone":"Quận 1","Ward":"Phường Cầu Ông Lãnh","AddressNo":"135","Street":"Trần Hưng Đạo","SupportDisability":"","Status":"Đang khai thác","Lng":106.694824,"Lat":10.767064,"Search":"KTHD 135 THD","Routes":"01, 139, 152, 45, 53, 56, 75, 86, 88"},{"StopId":27,"Code":"Q1 138","Name":"Nguyễn Kim","StopType":"Nhà chờ","Zone":"Quận 1","Ward":null,"AddressNo":"71C","Street":"Trần Hưng Đạo","SupportDisability":"","Status":"Đang khai thác","Lng":106.695847,"Lat":10.768327,"Search":"NK 71C THD","Routes":"01, 102, 152, 31, 38, 45, 53, 56, 75, 86, 88"},{"StopId":4275,"Code":"Q1 161","Name":"Trạm Trung chuyển trên đường Hàm Nghi","StopType":"Nhà chờ","Zone":"Quận 1","Ward":"Phường Nguyễn Thái Bình","AddressNo":"Hàm Nghi 15 (99)","Street":"Hàm Nghi","SupportDisability":"","Status":"Đang khai thác","Lng":106.70101,"Lat":10.77079,"Search":"TTctdHN HN15( HN","Routes":"102, 20, 86"},{"StopId":7564,"Code":"Q1 196","Name":"Bảo tàng Mỹ Thuật","StopType":"Trụ dừng","Zone":"Quận 1","Ward":"Phường Bến Nghé","AddressNo":"56","Street":"Nguyễn Thái Bình","SupportDisability":"Có","Status":"Đang khai thác","Lng":106.699669,"Lat":10.769251,"Search":"BtMT 56 NTB","Routes":"102, 172, 34, 38, 39, 72-2B, 86, D4"},{"StopId":853,"Code":"Q1 001","Name":"Calmette","StopType":"Trụ dừng","Zone":"Quận 1","Ward":null,"AddressNo":"97","Street":"Calmette","SupportDisability":"","Status":"Đang khai thác","Lng":106.699219,"Lat":10.767768,"Search":"C 97 C","Routes":"102, 34, 38, 44, 86, DL05"},{"StopId":1195,"Code":"Q4 008","Name":"Chùa Anh Linh","StopType":"Trụ dừng","Zone":"Quận 4","Ward":null,"AddressNo":"160-162","Street":"Hoàng Diệu","SupportDisability":"","Status":"Đang khai thác","Lng":106.703183,"Lat":10.76308,"Search":"CAL 160-162 HD","Routes":"31, 38, 44, 86"},{"StopId":1193,"Code":"Q4 009","Name":"Trường THCS Vân Đồn","StopType":"Trụ dừng","Zone":"Quận 4","Ward":null,"AddressNo":"Đối diện 243","Street":"Hoàng Diệu","SupportDisability":"","Status":"Đang khai thác","Lng":106.701488,"Lat":10.761879,"Search":"TTVD Dd243 HD","Routes":"31, 38, 44, 86"},{"StopId":1196,"Code":"Q4 010","Name":"Hoàng Diệu","StopType":"Trụ dừng","Zone":"Quận 4","Ward":null,"AddressNo":"K48-K50","Street":"Hoàng Diệu","SupportDisability":"","Status":"Đang khai thác","Lng":106.699836,"Lat":10.760735,"Search":"HD K HD","Routes":"139, 140, 38, 46, 72, 86"},{"StopId":1194,"Code":"Q4 019","Name":"Khánh Hội","StopType":"Nhà chờ","Zone":"Quận 4","Ward":null,"AddressNo":"Đối diện 220","Street":"Khánh Hội","SupportDisability":"","Status":"Đang khai thác","Lng":106.698972,"Lat":10.758864,"Search":"KH Dd220 KH","Routes":"139, 140, 38, 72, 86"},{"StopId":1198,"Code":"Q4 020","Name":"Hồ Bơi Quận 4","StopType":"Trụ dừng","Zone":"Quận 4","Ward":null,"AddressNo":"149","Street":"Khánh Hội","SupportDisability":"","Status":"Đang khai thác","Lng":106.700817,"Lat":10.756414,"Search":"HBQ4 149 KH","Routes":"139, 140, 38, 72, 86"},{"StopId":1197,"Code":"Q7 068","Name":"Cầu Kinh Tẻ","StopType":"Nhà chờ","Zone":"Quận 7","Ward":"Phường Tân Hưng","AddressNo":"44/7","Street":"Nguyễn Hữu Thọ","SupportDisability":"","Status":"Đang khai thác","Lng":106.70203,"Lat":10.747496,"Search":"CKT 44/7 NHT","Routes":"139, 140, 38, 72, 86"},{"StopId":1201,"Code":"Q7 069","Name":"Ngã 3 Tân Quy","StopType":"Nhà chờ","Zone":"Quận 7","Ward":"Phường Tân Hưng","AddressNo":"2","Street":"Nguyễn Hữu Thọ","SupportDisability":"","Status":"Đang khai thác","Lng":106.701472,"Lat":10.744134,"Search":"N3TQ 2 NHT","Routes":"140, 68, 72, 86"},{"StopId":1199,"Code":"Q7 070","Name":"Siêu thị Lotte","StopType":"Nhà chờ","Zone":"Quận 7","Ward":"Phường Tân Hưng","AddressNo":"Đối diện siêu thị Lotte","Street":"Nguyễn Hữu Thọ","SupportDisability":"","Status":"Đang khai thác","Lng":106.700946,"Lat":10.741198,"Search":"StL DdstL NHT","Routes":"140, 68, 72, 86"},{"StopId":1202,"Code":"Q7 071","Name":"Đại học Cảnh sát","StopType":"Nhà chờ","Zone":"Quận 7","Ward":"Phường Tân Phong","AddressNo":"Đối diện B10","Street":"Nguyễn Hữu Thọ","SupportDisability":"","Status":"Đang khai thác","Lng":106.699852,"Lat":10.734573,"Search":"DhCs DdB NHT","Routes":"31, 68, 72, 86"},{"StopId":1200,"Code":"Q7 072","Name":"ĐH Tôn Đức Thắng","StopType":"Nhà chờ","Zone":"Quận 7","Ward":"Phường Tân Phong","AddressNo":"Đối diện 568","Street":"Nguyễn Hữu Thọ","SupportDisability":"","Status":"Đang khai thác","Lng":106.700007,"Lat":10.731416,"Search":"DTDT Dd568 NHT","Routes":"68, 72, 86"},{"StopId":1204,"Code":"Q7 073","Name":"Trà My","StopType":"Trụ dừng","Zone":"Quận 7","Ward":"Phường Tân Phong","AddressNo":"645","Street":"Nguyễn Hữu Thọ","SupportDisability":"","Status":"Đang khai thác","Lng":106.700243,"Lat":10.729419,"Search":"TM 645 NHT","Routes":"68, 72, 86"},{"StopId":7540,"Code":"HNB 147","Name":"Chung cư New Sài Gòn","StopType":"Ô sơn","Zone":"Huyện Nhà Bè","Ward":"Xã Phước Kiển","AddressNo":"Đối diện chung cư New Sài Gòn","Street":"Đường nội bộ chung cư New Sài Gòn","SupportDisability":"Có","Status":"Đang khai thác","Lng":106.700061,"Lat":10.720574,"Search":"CcNSG DdccNSG DnbccNSG","Routes":"86"},{"StopId":2797,"Code":"HNB 084","Name":"Trạm xăng","StopType":"Ô sơn","Zone":"Huyện Nhà Bè","Ward":null,"AddressNo":"166E","Street":"Lê Văn Lương","SupportDisability":"","Status":"Đang khai thác","Lng":106.698972,"Lat":10.719557,"Search":"Tx 166E LVL","Routes":"86"},{"StopId":2796,"Code":"HNB 083","Name":"Mầm non Anh Quốc","StopType":"Ô sơn","Zone":"Huyện Nhà Bè","Ward":null,"AddressNo":"134B","Street":"Lê Văn Lương","SupportDisability":"","Status":"Đang khai thác","Lng":106.699857,"Lat":10.716853,"Search":"MnAQ 134B LVL","Routes":"86"},{"StopId":2799,"Code":"HNB 082","Name":"Đào Sư Tích","StopType":"Ô sơn","Zone":"Huyện Nhà Bè","Ward":null,"AddressNo":"304A","Street":"Lê Văn Lương","SupportDisability":"","Status":"Đang khai thác","Lng":106.701193,"Lat":10.712937,"Search":"DST 304A LVL","Routes":"110, 86"},{"StopId":2798,"Code":"HNB 081","Name":"Ngọc Lâm","StopType":"Ô sơn","Zone":"Huyện Nhà Bè","Ward":"Xã Phước Kiển","AddressNo":"426","Street":"Lê Văn Lương","SupportDisability":"","Status":"Đang khai thác","Lng":106.702652,"Lat":10.708304,"Search":"NL 426 LVL","Routes":"110, 86"},{"StopId":2801,"Code":"HNB 080","Name":"Bệnh viện huyện Nhà Bè","StopType":"Ô sơn","Zone":"Huyện Nhà Bè","Ward":null,"AddressNo":"506-508","Street":"Lê Văn Lương","SupportDisability":"","Status":"Đang khai thác","Lng":106.703484,"Lat":10.70505,"Search":"BvhNB 506-508 LVL","Routes":"110, 86"},{"StopId":2800,"Code":"HNB 079","Name":"Thu Liễu","StopType":"Ô sơn","Zone":"Huyện Nhà Bè","Ward":"Xã Phước Kiển","AddressNo":"162","Street":"Lê Văn Lương","SupportDisability":"","Status":"Đang khai thác","Lng":106.704202,"Lat":10.699886,"Search":"TL 162 LVL","Routes":"110, 86"},{"StopId":2803,"Code":"HNB 078","Name":"Phạm Hữu Lầu","StopType":"Ô sơn","Zone":"Huyện Nhà Bè","Ward":null,"AddressNo":"1358","Street":"Lê Văn Lương","SupportDisability":"","Status":"Đang khai thác","Lng":106.704834,"Lat":10.695667,"Search":"PHL 1358 LVL","Routes":"110, 86"},{"StopId":2802,"Code":"HNB 096","Name":"Trường Nguyễn Văn Quỳ","StopType":"Ô sơn","Zone":"Huyện Nhà Bè","Ward":null,"AddressNo":"137","Street":"Lê Văn Lương","SupportDisability":"","Status":"Đang khai thác","Lng":106.703382,"Lat":10.692474,"Search":"TNVQ 137 LVL","Routes":"86"},{"StopId":7058,"Code":"HNB_116","Name":"Bách hóa xanh","StopType":"Ô sơn","Zone":"Huyện Nhà Bè","Ward":"Xã Nhơn Đức","AddressNo":"1554","Street":"Lê Văn Lương","SupportDisability":"Có","Status":"Đang khai thác","Lng":106.701467,"Lat":10.685942,"Search":"Bhx 1554 LVL","Routes":"86"},{"StopId":7061,"Code":"HNB_119","Name":"Nhà trọ Anh Mỹ Nhà Bè","StopType":"Ô sơn","Zone":"Huyện Nhà Bè","Ward":"Xã Nhơn Đức","AddressNo":"1593","Street":"Lê Văn Lương","SupportDisability":"Có","Status":"Đang khai thác","Lng":106.700519,"Lat":10.682577,"Search":"NtAMNB 1593 LVL","Routes":"86"},{"StopId":8287,"Code":"HNB 158","Name":"Đối diện số 939","StopType":"Ô sơn","Zone":"Huyện Nhà Bè","Ward":"Xã Nhơn Đức","AddressNo":"Đối diện số 939","Street":"Nguyễn Bình","SupportDisability":"Có","Status":"Đang khai thác","Lng":106.697485,"Lat":10.683204,"Search":"Dds939 Dds939 NB","Routes":"86"},{"StopId":8103,"Code":"BX_86","Name":"Đại học Tài Nguyên Môi trường","StopType":"Bến xe","Zone":"Huyện Nhà Bè","Ward":"Xã Nhơn Đức","AddressNo":"Đại học Tài Nguyên Môi trường","Street":"Nội Bộ","SupportDisability":"Có","Status":"Đang khai thác","Lng":106.692687,"Lat":10.678439,"Search":"DhTNMt DhTNMt NB","Routes":"86"}]