[{"StopId":7257,"Code":"BXLT Thu Dau Mot","Name":"Bến xe Thủ Dầu Một","StopType":"Bến xe","Zone":"Ngoại thành","Ward":null,"AddressNo":"Bến xe Thủ Dầu Một","Street":"Đường 30 tháng 4","SupportDisability":"Có","Status":"Đang khai thác","Lng":106.668524,"Lat":10.96564,"Search":"BxTDM BxTDM D30t4","Routes":"61-2, 61-3, 61-4, 61-8, 61-9"},{"StopId":8630,"Code":"BD-0341","Name":"Số nhà 1073","StopType":"Trụ dừng","Zone":"Bình Dương","Ward":null,"AddressNo":"Số 1073 đường CMT8, Phường Thủ Dầu Một","Street":"Cách mạng tháng 8","SupportDisability":"","Status":"Đang khai thác","Lng":106.665836,"Lat":10.966628,"Search":"Sn1073 S1073dCPTDM Cmt8","Routes":"60-18, 61-2, 61-4, 61-53, 61-9"},{"StopId":9577,"Code":"BD-0353","Name":"Bánh hotdog","StopType":"Ô sơn","Zone":"Bình Dương","Ward":null,"AddressNo":"Số 971, đường CMT8, Phường Thủ Dầu Một","Street":"Đường CMT8","SupportDisability":"","Status":"Đang khai thác","Lng":106.663747,"Lat":10.967879,"Search":"Bh S971,dCPTDM DC","Routes":"61-2, 61-4, 61-53, 61-9"},{"StopId":8318,"Code":"BD-0018","Name":"Ngã ba Lò Chén","StopType":"Trụ dừng","Zone":"Bình Dương","Ward":null,"AddressNo":"Số 829, đường CMT8, Phường Thủ Dầu Một","Street":"Đường CMT8","SupportDisability":"","Status":"Đang khai thác","Lng":106.660461,"Lat":10.968838,"Search":"NbLC S829,dCPTDM DC","Routes":"60-18, 61-2, 61-4, 61-51, 61-52, 61-53, 61-9"},{"StopId":8841,"Code":"BD-0520","Name":"Mẹ bầu ( Siêu thị tóc Sài Gòn)","StopType":"Trụ dừng","Zone":"Bình Dương","Ward":null,"AddressNo":"Số 156, CMT8, phường Thủ Dầu Một","Street":"Đường CMT8","SupportDisability":"","Status":"Đang khai thác","Lng":106.659817,"Lat":10.972116,"Search":"Mb(SttSG S156,CpTDM DC","Routes":"60-18, 61-2, 61-4, 61-9"},{"StopId":8880,"Code":"BD-0592","Name":"Quán ăn A Quánh","StopType":"Ô sơn","Zone":"Bình Dương","Ward":null,"AddressNo":"Quán ăn A Quánh","Street":"Cách mạng tháng 8","SupportDisability":"","Status":"Đang khai thác","Lng":106.659436,"Lat":10.973597,"Search":"QaAQ QaAQ Cmt8","Routes":"61-2, 61-4, 61-53, 61-9"},{"StopId":8888,"Code":"BD-0600","Name":"Nhà Sách Bình Minh","StopType":"Ô sơn","Zone":"Bình Dương","Ward":null,"AddressNo":"Nhà Sách Bình Minh","Street":"Cách mạng tháng 8","SupportDisability":"","Status":"Đang khai thác","Lng":106.657977,"Lat":10.975993,"Search":"NSBM NSBM Cmt8","Routes":"61-2, 61-4, 61-53, 61-9"},{"StopId":8320,"Code":"BD-0020","Name":"Đối diện Nhà sách Bình Minh","StopType":"Trụ dừng","Zone":"Bình Dương","Ward":null,"AddressNo":"Số 567, CMT8 , phường Thủ Dầu Một","Street":"Đường CMT8","SupportDisability":"","Status":"Đang khai thác","Lng":106.657743,"Lat":10.976622,"Search":"DdNsBM S567,C,pTDM DC","Routes":"60-18, 61-2, 61-4, 61-51, 61-52, 61-53, 61-9"},{"StopId":8322,"Code":"BD-0022","Name":"Công viên Phú Cường","StopType":"Nhà chờ","Zone":"Bình Dương","Ward":null,"AddressNo":"Đối diện số 548, cmt8 , phường Thủ Dầu Một","Street":"CMT8","SupportDisability":"","Status":"Đang khai thác","Lng":106.656222,"Lat":10.978814,"Search":"CvPC Dds548,c,pTDM C","Routes":"60-18, 61-2, 61-4, 61-51, 61-52, 61-53, 61-9"},{"StopId":8324,"Code":"BD-0024","Name":"Chùa Bà Thiên Hậu","StopType":"Nhà chờ","Zone":"Bình Dương","Ward":null,"AddressNo":"Đối diện số 494 - 496, cmt8 , phường Thủ Dầu Một","Street":"CMT8","SupportDisability":"","Status":"Đang khai thác","Lng":106.654247,"Lat":10.98044,"Search":"CBTH Dds494-496,c,pTDM C","Routes":"60-18, 61-2, 61-4, 61-51, 61-52, 61-53, 61-9"},{"StopId":8901,"Code":"BD-0613","Name":"Siêu thị Citimart","StopType":"Ô sơn","Zone":"Bình Dương","Ward":null,"AddressNo":"Siêu thị Citimart","Street":"Đường Yersin","SupportDisability":"","Status":"Đang khai thác","Lng":106.655965,"Lat":10.981565,"Search":"StC StC DY","Routes":"61-4, 61-9"},{"StopId":8902,"Code":"BD-0614","Name":"Sở y tế Bình Dương","StopType":"Ô sơn","Zone":"Bình Dương","Ward":null,"AddressNo":"Sở y tế Bình Dương","Street":"Đường Yersin","SupportDisability":"","Status":"Đang khai thác","Lng":106.656787,"Lat":10.981479,"Search":"SytBD SytBD DY","Routes":"61-4, 61-9"},{"StopId":8903,"Code":"BD-0615","Name":"Phòng khám phụ khoa  BS,Chi","StopType":"Ô sơn","Zone":"Bình Dương","Ward":null,"AddressNo":"Phòng khám phụ khoa  BS,Chi","Street":"Đường Yersin","SupportDisability":"","Status":"Đang khai thác","Lng":106.658025,"Lat":10.981992,"Search":"PkpkB PkpkB DY","Routes":"61-4, 61-9"},{"StopId":8907,"Code":"BD-0619","Name":"Tin học Việt hồng","StopType":"Ô sơn","Zone":"Bình Dương","Ward":null,"AddressNo":"Tin học Việt hồng","Street":"Đường Yersin","SupportDisability":"","Status":"Đang khai thác","Lng":106.659499,"Lat":10.982281,"Search":"ThVh ThVh DY","Routes":"61-4, 61-9"},{"StopId":8797,"Code":"BD-0544","Name":"Bệnh viện Điều dưỡng Bình Dương","StopType":"Nhà chờ","Zone":"Bình Dương","Ward":null,"AddressNo":"Bệnh viện Điều dưỡng Bình Dương","Street":" Đường Yesin","SupportDisability":"","Status":"Đang khai thác","Lng":106.663492,"Lat":10.983456,"Search":"BvDdBD BvDdBD DY","Routes":"61-4, 61-9"},{"StopId":8944,"Code":"BD-0659","Name":"Liên đoàn lao động tỉnh Bình Dương","StopType":"Ô sơn","Zone":"Bình Dương","Ward":null,"AddressNo":"Liên đoàn lao động tỉnh Bình Dương","Street":"Yersin","SupportDisability":"","Status":"Đang khai thác","Lng":106.665401,"Lat":10.983851,"Search":"LdldtBD LdldtBD Y","Routes":"61-4, 61-9"},{"StopId":8955,"Code":"BD-0670","Name":"Nhà thuốc tây Mỹ Kiều","StopType":"Ô sơn","Zone":"Bình Dương","Ward":null,"AddressNo":"Nhà thuốc tây Mỹ Kiều","Street":"Đại lộ Bình Dương","SupportDisability":"","Status":"Đang khai thác","Lng":106.66612,"Lat":10.985078,"Search":"NttMK NttMK DlBD","Routes":"171, 61-4"},{"StopId":8338,"Code":"BD-0034","Name":"Ngã 3 Đại Lộ Bình Dương - Huỳnh Văn Luỹ ","StopType":"Trụ - hộp thông tin","Zone":"Bình Dương","Ward":null,"AddressNo":"Ngã 3 Đại Lộ Bình Dương - Huỳnh Văn Luỹ ","Street":"Quốc Lộ 13","SupportDisability":"Có","Status":"Đang khai thác","Lng":106.665939,"Lat":10.985588,"Search":"N3DLBD-HVL N3DLBD-HVL QL13","Routes":"171, 60-15, 61-4, 61-55"},{"StopId":9213,"Code":"BD-0923","Name":"Siêu thị Big C đối diện","StopType":"Ô sơn","Zone":"Bình Dương","Ward":null,"AddressNo":"Siêu thị Big C đối diện","Street":"Quốc lộ 13","SupportDisability":"","Status":"Đang khai thác","Lng":106.665171,"Lat":10.98731,"Search":"StBCdd StBCdd Ql13","Routes":"171, 60-15, 61-4, 61-55"},{"StopId":8946,"Code":"BD-0661","Name":"Trường đại học Bình Dương","StopType":"Ô sơn","Zone":"Bình Dương","Ward":null,"AddressNo":"Trường đại học Bình Dương","Street":"Đại lộ Bình Dương","SupportDisability":"","Status":"Đang khai thác","Lng":106.663808,"Lat":10.989959,"Search":"TdhBD TdhBD DlBD","Routes":"171, 60-15, 61-4, 61-55"},{"StopId":8947,"Code":"BD-0662","Name":"Trường cao đẳng kỹ thuật Bình Dương","StopType":"Ô sơn","Zone":"Bình Dương","Ward":null,"AddressNo":"Trường cao đẳng kỹ thuật Bình Dương","Street":"Đại lộ Bình Dương","SupportDisability":"","Status":"Đang khai thác","Lng":106.663256,"Lat":10.990934,"Search":"TcdktBD TcdktBD DlBD","Routes":"171, 60-15, 61-4, 61-55"},{"StopId":8958,"Code":"BD-0673","Name":"Công ty TNHH và dịch vụ ô tô Thiện Minh","StopType":"Ô sơn","Zone":"Bình Dương","Ward":null,"AddressNo":"Công ty TNHH và dịch vụ ô tô Thiện Minh","Street":"Đại lộ Bình Dương","SupportDisability":"","Status":"Đang khai thác","Lng":106.658937,"Lat":10.992529,"Search":"CtTvdvotTM CtTvdvotTM DlBD","Routes":"171, 60-15, 61-4, 61-55"},{"StopId":8949,"Code":"BD-0664","Name":"Hội đồng nhân dân phường Hiệp Thành","StopType":"Ô sơn","Zone":"Bình Dương","Ward":null,"AddressNo":"Hội đồng nhân dân phường Hiệp Thành","Street":"Đại lộ Bình Dương","SupportDisability":"","Status":"Đang khai thác","Lng":106.657049,"Lat":10.992729,"Search":"HdndpHT HdndpHT DlBD","Routes":"171, 60-15, 61-4, 61-55"},{"StopId":8337,"Code":"BD-0033","Name":"Ngã 3 ĐL Bình Dương - Nguyễn Đức Thuận","StopType":"Trụ - hộp thông tin","Zone":"Bình Dương","Ward":null,"AddressNo":"Ngã 3 ĐL Bình Dương - Nguyễn Đức Thuận","Street":"Quốc Lộ 13","SupportDisability":"Có","Status":"Đang khai thác","Lng":106.653053,"Lat":10.994719,"Search":"N3DBD-NDT N3DBD-NDT QL13","Routes":"60-15, 60-18, 61-4, 61-51, 61-52, 61-53"},{"StopId":8960,"Code":"BD-0675","Name":"Cách cửa hàng xe máy Honda 100m","StopType":"Ô sơn","Zone":"Bình Dương","Ward":null,"AddressNo":"Cách cửa hàng xe máy Honda 100m","Street":"Đại lộ Bình Dương","SupportDisability":"","Status":"Đang khai thác","Lng":106.650703,"Lat":10.996194,"Search":"CchxmH100m CchxmH100m DlBD","Routes":"61-4, 61-53"},{"StopId":9217,"Code":"BD-0927","Name":"Đại lý xe tay ga minh hoàng phương( hãng xe YAMAHA)","StopType":"Ô sơn","Zone":"Bình Dương","Ward":null,"AddressNo":"số 756, Ql 13 , phường Thủ Dầu Một","Street":"Quốc lộ 13","SupportDisability":"","Status":"Đang khai thác","Lng":106.648662,"Lat":10.997555,"Search":"DlxtgmhphxY s756,Q13,pTDM Ql13","Routes":"60-15, 60-18, 61-2, 61-4"},{"StopId":9218,"Code":"BD-0928","Name":"Trường THPT Nguyễn Đình Chiểu","StopType":"Ô sơn","Zone":"Bình Dương","Ward":null,"AddressNo":"số 814a, Ql 13 , phường Thủ Dầu Một","Street":"Quốc lộ 13","SupportDisability":"","Status":"Đang khai thác","Lng":106.647152,"Lat":10.999778,"Search":"TTNDC s814a,Q13,pTDM Ql13","Routes":"60-15, 60-18, 61-2, 61-4"},{"StopId":8961,"Code":"BD-0676","Name":"Ngã ba suối giữa( cửa hàng xe máy ba Phi)","StopType":"Ô sơn","Zone":"Bình Dương","Ward":null,"AddressNo":"cách trạm thu phí 200m, Ql 13 , phường Thủ Dầu Một","Street":"Quốc lộ 13","SupportDisability":"","Status":"Đang khai thác","Lng":106.645339,"Lat":11.006944,"Search":"NbsgchxmbP cttp200m,Q13,pTDM Ql13","Routes":"61-2, 61-4"},{"StopId":8305,"Code":"BD-0248","Name":"Quán bia tuyết","StopType":"Trụ - hộp thông tin","Zone":"Bình Dương","Ward":null,"AddressNo":"Quán bia tuyết","Street":"Nguyễn Chí Thanh","SupportDisability":"","Status":"Đang khai thác","Lng":106.644298,"Lat":11.008011,"Search":"Qbt Qbt NCT","Routes":"61-4"},{"StopId":8307,"Code":"BD-0250","Name":"ngã tư cây điệp","StopType":"Trụ - hộp thông tin","Zone":"Bình Dương","Ward":null,"AddressNo":"ngã tư cây điệp","Street":"Nguyễn Chí Thanh","SupportDisability":"Có","Status":"Đang khai thác","Lng":106.637391,"Lat":11.014493,"Search":"ntcd ntcd NCT","Routes":"61-4"},{"StopId":8309,"Code":"BD-0252","Name":"Trường tiểu học Nguyễn Hiền","StopType":"Trụ - hộp thông tin","Zone":"Bình Dương","Ward":null,"AddressNo":"Trường tiểu học Nguyễn Hiền","Street":"Nguyễn Chí Thanh","SupportDisability":"","Status":"Đang khai thác","Lng":106.632361,"Lat":11.023668,"Search":"TthNH TthNH NCT","Routes":"61-4"},{"StopId":8311,"Code":"BD-0254","Name":"khu vui chơi thiếu nhi phường hiệp an","StopType":"Nhà chờ","Zone":"Bình Dương","Ward":null,"AddressNo":"khu vui chơi thiếu nhi phường hiệp an","Street":"Nguyễn Chí Thanh","SupportDisability":"","Status":"Đang khai thác","Lng":106.625887,"Lat":11.034691,"Search":"kvctnpha kvctnpha NCT","Routes":"61-4"},{"StopId":8480,"Code":"BD-0256","Name":"Cơ sở bê tông Lý Trung (1212)","StopType":"Trụ - hộp thông tin","Zone":"Bình Dương","Ward":null,"AddressNo":"Cơ sở bê tông Lý Trung (1212)","Street":"Nguyễn Chí Thanh","SupportDisability":"","Status":"Đang khai thác","Lng":106.618442,"Lat":11.04405,"Search":"CsbtLT( CsbtLT( NCT","Routes":"61-4"},{"StopId":9100,"Code":"BD-0813","Name":"Tân Lợi Phát","StopType":"Ô sơn","Zone":"Bình Dương","Ward":null,"AddressNo":"Tân Lợi Phát","Street":"Đường ĐT 744","SupportDisability":"","Status":"Đang khai thác","Lng":106.605551,"Lat":11.052345,"Search":"TLP TLP DD744","Routes":"61-4"},{"StopId":9099,"Code":"BD-0812","Name":"Chợ Phú An","StopType":"Ô sơn","Zone":"Bình Dương","Ward":null,"AddressNo":"Chợ Phú An","Street":"Đường ĐT 744","SupportDisability":"","Status":"Đang khai thác","Lng":106.599998,"Lat":11.05583,"Search":"CPA CPA DD744","Routes":"61-4"},{"StopId":8482,"Code":"BD-0258","Name":"Nhà hàng Ngọc Thy","StopType":"Trụ - hộp thông tin","Zone":"Bình Dương","Ward":null,"AddressNo":"Nhà hàng Ngọc Thy","Street":"DT 744","SupportDisability":"","Status":"Đang khai thác","Lng":106.592574,"Lat":11.060284,"Search":"NhNT NhNT D744","Routes":"61-4"},{"StopId":9097,"Code":"BD-0810","Name":"Như Bình Phát","StopType":"Ô sơn","Zone":"Bình Dương","Ward":null,"AddressNo":"Như Bình Phát","Street":"Đường ĐT 744","SupportDisability":"","Status":"Đang khai thác","Lng":106.588883,"Lat":11.062622,"Search":"NBP NBP DD744","Routes":"61-4"},{"StopId":8484,"Code":"BD-0260","Name":"Trạm Y tế xã Phú An","StopType":"Nhà chờ","Zone":"Bình Dương","Ward":null,"AddressNo":"Trạm Y tế xã Phú An","Street":"DT 744","SupportDisability":"","Status":"Đang khai thác","Lng":106.583197,"Lat":11.066107,"Search":"TYtxPA TYtxPA D744","Routes":"61-4"},{"StopId":8486,"Code":"BD-0262","Name":"Viện nghiên cứu mía đường","StopType":"Trụ - hộp thông tin","Zone":"Bình Dương","Ward":null,"AddressNo":"Viện nghiên cứu mía đường","Street":"DT 744","SupportDisability":"","Status":"Đang khai thác","Lng":106.577992,"Lat":11.069324,"Search":"Vncmd Vncmd D744","Routes":"61-4"},{"StopId":8488,"Code":"BD-0264","Name":"Trường THPT Tây Nam","StopType":"Trụ - hộp thông tin","Zone":"Bình Dương","Ward":null,"AddressNo":"Trường THPT Tây Nam","Street":"DT 744","SupportDisability":"Có","Status":"Chưa khai thác","Lng":106.568354,"Lat":11.075378,"Search":"TTTN TTTN D744","Routes":"61-4"},{"StopId":9093,"Code":"BD-0807","Name":"Công ty Sanaky","StopType":"Ô sơn","Zone":"Bình Dương","Ward":null,"AddressNo":"Công ty Sanaky","Street":"Đường ĐT 744","SupportDisability":"","Status":"Đang khai thác","Lng":106.561439,"Lat":11.079589,"Search":"CtS CtS DD744","Routes":"61-4"},{"StopId":8492,"Code":"BD-0268","Name":"Cây xăng Bảo Nam Long","StopType":"Trụ - hộp thông tin","Zone":"Bình Dương","Ward":null,"AddressNo":"Cây xăng Bảo Nam Long","Street":"DT 744","SupportDisability":"","Status":"Đang khai thác","Lng":106.557667,"Lat":11.081917,"Search":"CxBNL CxBNL D744","Routes":"61-4"},{"StopId":9092,"Code":"BD-0806","Name":"Nhà hàng tiệc cưới Thịnh Phát","StopType":"Ô sơn","Zone":"Bình Dương","Ward":null,"AddressNo":"Nhà hàng tiệc cưới Thịnh Phát","Street":"Đường ĐT 744","SupportDisability":"","Status":"Đang khai thác","Lng":106.555704,"Lat":11.083153,"Search":"NhtcTP NhtcTP DD744","Routes":"61-4"},{"StopId":8495,"Code":"BD-0271","Name":"Đối diện Trường tiểu học An Tây A","StopType":"Trụ - hộp thông tin","Zone":"Bình Dương","Ward":null,"AddressNo":"Đối diện Trường tiểu học An Tây A","Street":"DT 744","SupportDisability":"Có","Status":"Chưa khai thác","Lng":106.552648,"Lat":11.085024,"Search":"DdTthATA DdTthATA D744","Routes":"61-4"},{"StopId":9091,"Code":"BD-0805","Name":"Cây xăng Hồ Bữu","StopType":"Ô sơn","Zone":"Bình Dương","Ward":null,"AddressNo":"Cây xăng Hồ Bữu","Street":"Đường ĐT 744","SupportDisability":"","Status":"Đang khai thác","Lng":106.549305,"Lat":11.087112,"Search":"CxHB CxHB DD744","Routes":"61-4"},{"StopId":9090,"Code":"BD-0804","Name":"Chợ An Tây","StopType":"Ô sơn","Zone":"Bình Dương","Ward":null,"AddressNo":"Chợ An Tây","Street":"Đường ĐT 744","SupportDisability":"","Status":"Đang khai thác","Lng":106.547009,"Lat":11.088539,"Search":"CAT CAT DD744","Routes":"61-4"},{"StopId":8490,"Code":"BD-0266","Name":"KCN Việt Hương","StopType":"Trụ - hộp thông tin","Zone":"Bình Dương","Ward":null,"AddressNo":"KCN Việt Hương","Street":"DT 744","SupportDisability":"","Status":"Đang khai thác","Lng":106.542057,"Lat":11.091603,"Search":"KVH KVH D744","Routes":"61-4"},{"StopId":8497,"Code":"BD-0273","Name":"Chợ Dòng Sỏi","StopType":"Trụ - hộp thông tin","Zone":"Bình Dương","Ward":null,"AddressNo":"Chợ Dòng Sỏi","Street":"DT 744","SupportDisability":"","Status":"Đang khai thác","Lng":106.533753,"Lat":11.110848,"Search":"CDS CDS D744","Routes":"61-4"},{"StopId":9636,"Code":"BD-0979","Name":"Dòng sỏi 4","StopType":"Ô sơn","Zone":"Bình Dương","Ward":null,"AddressNo":"Dòng sỏi 4","Street":"ĐT 744: TDM đi rạch bắp","SupportDisability":"","Status":"Đang khai thác","Lng":106.52863,"Lat":11.125028,"Search":"Ds4 Ds4 D744:Tdrb","Routes":"61-4"},{"StopId":9637,"Code":"BD-0932","Name":"Dòng sỏi 3","StopType":"Ô sơn","Zone":"Bình Dương","Ward":null,"AddressNo":"Dòng sỏi 3","Street":"ĐT 744: TDM đi rạch bắp","SupportDisability":"Có","Status":"Đang khai thác","Lng":106.525626,"Lat":11.127565,"Search":"Ds3 Ds3 D744:Tdrb","Routes":"61-4"},{"StopId":9274,"Code":"BD-0978","Name":"Công ty Sông Gianh","StopType":"Ô sơn","Zone":"Bình Dương","Ward":null,"AddressNo":"Công ty Sông Gianh","Street":"Đường ĐT 744","SupportDisability":"","Status":"Đang khai thác","Lng":106.52237,"Lat":11.129536,"Search":"CtSG CtSG DD744","Routes":"61-4"},{"StopId":9640,"Code":"BD-0669","Name":"Trạm dừng Sửa xe Hoàng Long (Đối diện đường An Tây 010) ","StopType":"Ô sơn","Zone":"Bình Dương","Ward":null,"AddressNo":"Trạm dừng Sửa xe Hoàng Long (Đối diện đường An Tây 010) ","Street":"ĐT 744: Rạch bắp đi Thanh Tuyền","SupportDisability":"","Status":"Đang khai thác","Lng":106.517043,"Lat":11.133192,"Search":"TdSxHL(ddAT010) TdSxHL(ddAT010) D744:RbdTT","Routes":"61-4"},{"StopId":9643,"Code":"BD-0635","Name":"Trường Mầm Non Thanh Tuyền","StopType":"Ô sơn","Zone":"Bình Dương","Ward":null,"AddressNo":"Trường Mầm Non Thanh Tuyền","Street":"ĐT 744: Rạch bắp đi Thanh Tuyền","SupportDisability":"","Status":"Chưa khai thác","Lng":106.503439,"Lat":11.145424,"Search":"TMNTT TMNTT D744:RbdTT","Routes":"61-4"},{"StopId":9645,"Code":"BD-0912","Name":"Giáo sứ Rạch Kiến","StopType":"Ô sơn","Zone":"Bình Dương","Ward":null,"AddressNo":"Giáo sứ Rạch Kiến","Street":"ĐT 744: Rạch bắp đi Thanh Tuyền","SupportDisability":"","Status":"Đang khai thác","Lng":106.49381,"Lat":11.149309,"Search":"GsRK GsRK D744:RbdTT","Routes":"61-4"},{"StopId":9088,"Code":"BD-0802","Name":"Cây xăng Suối Cát","StopType":"Ô sơn","Zone":"Bình Dương","Ward":null,"AddressNo":"Cây xăng Suối Cát","Street":"Đường ĐT 744","SupportDisability":"","Status":"Đang khai thác","Lng":106.473019,"Lat":11.160151,"Search":"CxSC CxSC DD744","Routes":"61-4"},{"StopId":9340,"Code":"BD-0648","Name":"Chợ Bến Súc","StopType":"Trụ - hộp thông tin","Zone":"Bình Dương","Ward":null,"AddressNo":"Chợ Bến Súc","Street":"ĐT 744","SupportDisability":"","Status":"Đang khai thác","Lng":106.447035,"Lat":11.16104,"Search":"CBS CBS D744","Routes":"61-4"},{"StopId":8499,"Code":"BD-0275","Name":"Đối diện cây xăng Bình Minh","StopType":"Trụ - hộp thông tin","Zone":"Bình Dương","Ward":null,"AddressNo":"Đối diện cây xăng Bình Minh","Street":"DT 744","SupportDisability":"","Status":"Đang khai thác","Lng":106.435305,"Lat":11.170966,"Search":"DdcxBM DdcxBM D744","Routes":"61-4"},{"StopId":9649,"Code":"BD-0604","Name":"gần công ty xi măng Padico","StopType":"Ô sơn","Zone":"Bình Dương","Ward":null,"AddressNo":"gần công ty xi măng Padico","Street":"ĐT 744: Thanh Tuyền đi Dầu Tiếng","SupportDisability":"","Status":"Đang khai thác","Lng":106.433138,"Lat":11.175286,"Search":"gctxmP gctxmP D744:TTdDT","Routes":"61-4"},{"StopId":8501,"Code":"BD-0277","Name":"Đối diện Trạm xăng dầu Bảo Bình","StopType":"Trụ - hộp thông tin","Zone":"Bình Dương","Ward":null,"AddressNo":"Đối diện Trạm xăng dầu Bảo Bình","Street":"DT 744","SupportDisability":"","Status":"Đang khai thác","Lng":106.431035,"Lat":11.177676,"Search":"DdTxdBB DdTxdBB D744","Routes":"61-4"},{"StopId":8503,"Code":"BD-0279","Name":"Trụ 296","StopType":"Trụ - hộp thông tin","Zone":"Bình Dương","Ward":null,"AddressNo":"Trụ 296","Street":"DT 744","SupportDisability":"","Status":"Đang khai thác","Lng":106.415956,"Lat":11.181054,"Search":"T296 T296 D744","Routes":"61-4"},{"StopId":8505,"Code":"BD-0281","Name":"Km 36","StopType":"Trụ - hộp thông tin","Zone":"Bình Dương","Ward":null,"AddressNo":"Km 36","Street":"DT 744","SupportDisability":"","Status":"Đang khai thác","Lng":106.411439,"Lat":11.190227,"Search":"K36 K36 D744","Routes":"61-4"},{"StopId":8507,"Code":"BD-0283","Name":"Bia chiến thắng Thanh An","StopType":"Trụ - hộp thông tin","Zone":"Bình Dương","Ward":null,"AddressNo":"Bia chiến thắng Thanh An","Street":"DT 744","SupportDisability":"","Status":"Đang khai thác","Lng":106.402336,"Lat":11.196184,"Search":"BctTA BctTA D744","Routes":"61-4"},{"StopId":8509,"Code":"BD-0285","Name":"Trường THCS Thanh An","StopType":"Trụ - hộp thông tin","Zone":"Bình Dương","Ward":null,"AddressNo":"Trường THCS Thanh An","Street":"DT 744","SupportDisability":"","Status":"Đang khai thác","Lng":106.400099,"Lat":11.200846,"Search":"TTTA TTTA D744","Routes":"61-4"},{"StopId":8511,"Code":"BD-0287","Name":"Chợ mới Thanh An","StopType":"Trụ - hộp thông tin","Zone":"Bình Dương","Ward":null,"AddressNo":"Chợ mới Thanh An","Street":"DT 744","SupportDisability":"","Status":"Đang khai thác","Lng":106.399224,"Lat":11.204319,"Search":"CmTA CmTA D744","Routes":"61-4"},{"StopId":8513,"Code":"BD-0289","Name":"Đối diện cây xăng Thâu Ngân","StopType":"Trụ - hộp thông tin","Zone":"Bình Dương","Ward":null,"AddressNo":"Đối diện cây xăng Thâu Ngân","Street":"DT 744","SupportDisability":"","Status":"Đang khai thác","Lng":106.394214,"Lat":11.219605,"Search":"DdcxTN DdcxTN D744","Routes":"61-4"},{"StopId":8515,"Code":"BD-0291","Name":"Cổng chào ấp Bến Tranh","StopType":"Trụ - hộp thông tin","Zone":"Bình Dương","Ward":null,"AddressNo":"Cổng chào ấp Bến Tranh","Street":"DT 744","SupportDisability":"","Status":"Đang khai thác","Lng":106.39081,"Lat":11.228481,"Search":"CcaBT CcaBT D744","Routes":"61-4"},{"StopId":8517,"Code":"BD-0293","Name":"Bia chiến thắng Suối Dứa","StopType":"Trụ - hộp thông tin","Zone":"Bình Dương","Ward":null,"AddressNo":"Bia chiến thắng Suối Dứa","Street":"DT 744","SupportDisability":"","Status":"Đang khai thác","Lng":106.370637,"Lat":11.258525,"Search":"BctSD BctSD D744","Routes":"61-4"},{"StopId":8519,"Code":"BD-0295","Name":"Nhà nghỉ Minh Đức","StopType":"Trụ - hộp thông tin","Zone":"Bình Dương","Ward":null,"AddressNo":"Nhà nghỉ Minh Đức","Street":"DT 744","SupportDisability":"","Status":"Đang khai thác","Lng":106.368111,"Lat":11.266396,"Search":"NnMD NnMD D744","Routes":"61-4"},{"StopId":9337,"Code":"BD BX 0004","Name":"Bến xe Dầu Tiếng","StopType":"Bến xe","Zone":"Bình Dương","Ward":null,"AddressNo":"Bến xe Dầu Tiếng","Street":"13/3","SupportDisability":"","Status":"Đang khai thác","Lng":106.362228,"Lat":11.280456,"Search":"BxDT BxDT 13/3","Routes":"61-4"}]