[{"StopId":725,"Code":"BX 46","Name":"Bến xe Miền Tây","StopType":"Bến xe","Zone":"Quận Bình Tân","Ward":null,"AddressNo":"Bến xe Miền Tây","Street":"Kinh Dương Vương","SupportDisability":"","Status":"Đang khai thác","Lng":106.619438,"Lat":10.739486,"Search":"BxMT BxMT KDV","Routes":"10, 102, 139, 14, 148, 151, 32, 39, 41, 60-1, 91"},{"StopId":630,"Code":"QBT 014","Name":"Bệnh viện Triều An","StopType":"Trụ dừng","Zone":"Quận Bình Tân","Ward":"Phường An Lạc","AddressNo":"480 (EXIMBANK)","Street":"Kinh Dương Vương","SupportDisability":"","Status":"Đang khai thác","Lng":106.616392,"Lat":10.739675,"Search":"BvTA 480( KDV","Routes":"09, 102, 151, 25, 39, 41, 60-1, 61, 62-1, 62-10, 62-2, 62-8, 63-1, 84"},{"StopId":2306,"Code":"QBT 107","Name":"Kinh Dương Vương","StopType":"Trụ dừng","Zone":"Quận Bình Tân","Ward":"Phường An Lạc","AddressNo":"14","Street":"Tên Lửa","SupportDisability":"","Status":"Đang khai thác","Lng":106.614235,"Lat":10.741721,"Search":"KDV 14 TL","Routes":"25, 41"},{"StopId":7538,"Code":"QBT 301","Name":"Aeon Mall Bình Tân","StopType":"Trụ dừng","Zone":"Quận Bình Tân","Ward":"Phường Bình Trị Đông B","AddressNo":"20-22","Street":"Đường số 17A","SupportDisability":"","Status":"Đang khai thác","Lng":106.612256,"Lat":10.744002,"Search":"AMBT 20-22 Ds17A","Routes":"41"},{"StopId":7537,"Code":"QBT 300","Name":"Bệnh Viện Quốc Tế","StopType":"Trụ dừng","Zone":"Quận Bình Tân","Ward":"Phường Bình Trị Đông B","AddressNo":"138","Street":"Đường số 17A","SupportDisability":"Có","Status":"Đang khai thác","Lng":106.60966,"Lat":10.742342,"Search":"BVQT 138 Ds17A","Routes":"41"},{"StopId":7536,"Code":"QBT 299","Name":"Đường số 13","StopType":"Nhà chờ","Zone":"Quận Bình Tân","Ward":"Phường Bình Trị Đông B","AddressNo":"Cột điện H35T","Street":"Đường số 34","SupportDisability":"","Status":"Đang khai thác","Lng":106.608388,"Lat":10.743934,"Search":"Ds13 CdH Ds34","Routes":"41"},{"StopId":7535,"Code":"QBT 298","Name":"Đường số 34","StopType":"Trụ dừng","Zone":"Quận Bình Tân","Ward":"Phường Bình Trị Đông B","AddressNo":"451","Street":"Đường số 1","SupportDisability":"Có","Status":"Đang khai thác","Lng":106.607332,"Lat":10.746237,"Search":"Ds34 451 Ds1","Routes":"41"},{"StopId":7534,"Code":"QBT 297","Name":"Đường Tên Lửa","StopType":"Trụ dừng","Zone":"Quận Bình Tân","Ward":"Phường Bình Trị Đông B","AddressNo":"339-341","Street":"Đường số 1","SupportDisability":"Có","Status":"Đang khai thác","Lng":106.611124,"Lat":10.747507,"Search":"DTL 339-341 Ds1","Routes":"41"},{"StopId":2902,"Code":"QBT 105","Name":"Tên Lửa","StopType":"Trụ dừng","Zone":"Quận Bình Tân","Ward":"Phường Bình Trị Đông B","AddressNo":"390","Street":"Tên Lửa","SupportDisability":"","Status":"Đang khai thác","Lng":106.610266,"Lat":10.752561,"Search":"TL 390 TL","Routes":"25, 41"},{"StopId":2904,"Code":"QBT 270","Name":"Đường 32","StopType":"Ô sơn","Zone":"Quận Bình Tân","Ward":null,"AddressNo":"652","Street":"Tên Lửa","SupportDisability":"","Status":"Đang khai thác","Lng":106.608292,"Lat":10.755133,"Search":"D32 652 TL","Routes":"41"},{"StopId":2907,"Code":"QBT 271","Name":"Quán cơm ","StopType":"Trụ dừng","Zone":"Quận Bình Tân","Ward":"Phường Bình Trị Đông B","AddressNo":"706 (số mới 641)","Street":"Tên Lửa","SupportDisability":"","Status":"Đang khai thác","Lng":106.606141,"Lat":10.755802,"Search":"Qc 706(m641) TL","Routes":"41"},{"StopId":2906,"Code":"QBT 160","Name":"Lê Đình Cẩn","StopType":"Ô sơn","Zone":"Quận Bình Tân","Ward":null,"AddressNo":"831","Street":"Tỉnh lộ 10,Tân Tạo, Hồ Chí Minh, Việt Nam","SupportDisability":"","Status":"Đang khai thác","Lng":106.60694,"Lat":10.758005,"Search":"LDC 831 Tl10,TanTHCMVN","Routes":"41, 62-6, 62-7, 81"},{"StopId":2909,"Code":"QBT 272","Name":"Mã Lò","StopType":"Trụ dừng","Zone":"Quận Bình Tân","Ward":"Phường Bình Trị Đông A","AddressNo":"42-44","Street":"Mã Lò","SupportDisability":"","Status":"Đang khai thác","Lng":106.606407,"Lat":10.758862,"Search":"ML 42-44 ML","Routes":"41"},{"StopId":2908,"Code":"QBT 266","Name":"Công ty Hương Sở","StopType":"Trụ dừng","Zone":"Quận Bình Tân","Ward":"Phường Bình Trị Đông A","AddressNo":"Đ/d Công ty Hương Sở (số 122)","Street":"Mã Lò","SupportDisability":"","Status":"Đang khai thác","Lng":106.605084,"Lat":10.760988,"Search":"CtHS DCtHS(122) ML","Routes":"41"},{"StopId":2910,"Code":"QBT 268","Name":"Bệnh viện Bình Tân","StopType":"Trụ dừng","Zone":"Quận Bình Tân","Ward":"Phường Bình Trị Đông A","AddressNo":"200","Street":"Mã Lò","SupportDisability":"","Status":"Đang khai thác","Lng":106.60437,"Lat":10.76356,"Search":"BvBT 200 ML","Routes":"41"},{"StopId":1963,"Code":"QBT 267","Name":"Phòng tiếp dân","StopType":"Trụ dừng","Zone":"Quận Bình Tân","Ward":"Phường Bình Trị Đông A","AddressNo":"160 (Mầm non Cẩm Tú)","Street":"Mã Lò","SupportDisability":"","Status":"Đang khai thác","Lng":106.603239,"Lat":10.768097,"Search":"Ptd 160(nCT ML","Routes":"16, 41"},{"StopId":1966,"Code":"QBT 265","Name":"Công ty Đại Càng Phát","StopType":"Trụ dừng","Zone":"Quận Bình Tân","Ward":"Phường Bình Trị Đông B","AddressNo":"290","Street":"Mã Lò","SupportDisability":"","Status":"Đang khai thác","Lng":106.602053,"Lat":10.771929,"Search":"CtDCP 290 ML","Routes":"16, 41"},{"StopId":1968,"Code":"QBT 243","Name":"Ngã 3 Áo Đôi","StopType":"Trụ dừng","Zone":"Quận Bình Tân","Ward":"Phường Bình Trị Đông B","AddressNo":"330","Street":"Mã Lò","SupportDisability":"","Status":"Đang khai thác","Lng":106.601313,"Lat":10.77479,"Search":"N3AD 330 ML","Routes":"16, 41"},{"StopId":1806,"Code":"QBT 259","Name":"Ngã 3 Lê Văn Quới","StopType":"Trụ dừng","Zone":"Quận Bình Tân","Ward":"Phường Bình Trị Đông A","AddressNo":"527","Street":"Lê Văn Qưới","SupportDisability":"","Status":"Đang khai thác","Lng":106.602799,"Lat":10.776324,"Search":"N3LVQ 527 LVQ","Routes":"41"},{"StopId":1807,"Code":"QBT 258","Name":"Nhà thuốc Thiên Ân","StopType":"Trụ dừng","Zone":"Quận Bình Tân","Ward":"Phường Bình Trị Đông A","AddressNo":"371","Street":"Lê Văn Qưới","SupportDisability":"","Status":"Đang khai thác","Lng":106.606017,"Lat":10.776271,"Search":"NtTA 371 LVQ","Routes":"41"},{"StopId":1812,"Code":"QBT 257","Name":"Chợ Lê Văn Quới","StopType":"Trụ dừng","Zone":"Quận Bình Tân","Ward":"Phường Bình Trị Đông A","AddressNo":"307-309 ","Street":"Lê Văn Qưới","SupportDisability":"","Status":"Đang khai thác","Lng":106.609397,"Lat":10.776223,"Search":"CLVQ 307-309 LVQ","Routes":"41"},{"StopId":1809,"Code":"QBT 256","Name":"Bệnh viện Đa khoa Bình Tân","StopType":"Trụ dừng","Zone":"Quận Bình Tân","Ward":"Phường Bình Trị Đông A","AddressNo":"167 ","Street":"Lê Văn Qưới","SupportDisability":"","Status":"Đang khai thác","Lng":106.613216,"Lat":10.776023,"Search":"BvDkBT 167 LVQ","Routes":"41"},{"StopId":1814,"Code":"QBT 238","Name":"Siêu thị","StopType":"Trụ dừng","Zone":"Quận Bình Tân","Ward":"Phường Bình Trị Đông A","AddressNo":"Đ/d 42 (số 53)","Street":"Lê Văn Qưới","SupportDisability":"","Status":"Đang khai thác","Lng":106.61923,"Lat":10.774311,"Search":"St D42(53) LVQ","Routes":"41"},{"StopId":1609,"Code":"QTP 182","Name":"Bình Long","StopType":"Ô sơn","Zone":"Quận Tân Phú","Ward":"Phường Phú Thạnh","AddressNo":"54 (445)","Street":"Bình Long","SupportDisability":"","Status":"Đang khai thác","Lng":106.621531,"Lat":10.776155,"Search":"BL 54( BL","Routes":"41"},{"StopId":1623,"Code":"QTP 183","Name":"Đỗ Bí","StopType":"Trụ dừng","Zone":"Quận Tân Phú","Ward":"Phường Phú Thạnh","AddressNo":"156","Street":"Bình Long","SupportDisability":"","Status":"Đang khai thác","Lng":106.62076,"Lat":10.77887,"Search":"DB 156 BL","Routes":"41"},{"StopId":1811,"Code":"QTP 167","Name":"Cây Xăng Bình Long","StopType":"Ô sơn","Zone":"Quận Tân Phú","Ward":"Phường Phú Thạnh","AddressNo":"Đối diện 1H","Street":"Văn Cao","SupportDisability":"","Status":"Đang khai thác","Lng":106.62075,"Lat":10.781946,"Search":"CXBL Dd1H VC","Routes":"41"},{"StopId":2589,"Code":"QTPT186","Name":"Trường GTVT","StopType":"Trụ dừng","Zone":"Quận Tân Phú","Ward":"Phường Phú Thọ Hoà","AddressNo":"64","Street":"Văn Cao","SupportDisability":"","Status":"Đang khai thác","Lng":106.622223,"Lat":10.786699,"Search":"TG 64 VC","Routes":"32, 41"},{"StopId":2551,"Code":"QTP 107","Name":"Nhà Thờ Tân Hương","StopType":"Trụ dừng","Zone":"Quận Tân Phú","Ward":"Phường Tân Qúy","AddressNo":"141","Street":"Tân Hương","SupportDisability":"","Status":"Đang khai thác","Lng":106.624565,"Lat":10.789681,"Search":"NTTH 141 TH","Routes":"30, 41"},{"StopId":2556,"Code":"QTP 108","Name":"Café Suối Reo","StopType":"Trụ dừng","Zone":"Quận Tân Phú","Ward":"Phường Tân Qúy","AddressNo":"43","Street":"Tân Hương","SupportDisability":"","Status":"Đang khai thác","Lng":106.628273,"Lat":10.790343,"Search":"CSR 43 TH","Routes":"30, 41"},{"StopId":2554,"Code":"QTP 109","Name":"Nhà thờ Martino","StopType":"Ô sơn","Zone":"Quận Tân Phú","Ward":"Phường Tân Qúy","AddressNo":"15","Street":"Tân Hương","SupportDisability":"","Status":"Đang khai thác","Lng":106.628891,"Lat":10.792511,"Search":"NtM 15 TH","Routes":"30, 41"},{"StopId":2911,"Code":"QTP 118","Name":"Tân Sơn Nhì","StopType":"Trụ dừng","Zone":"Quận Tân Phú","Ward":"Phường Tân Thành","AddressNo":"377-379","Street":"Tân Sơn Nhì","SupportDisability":"","Status":"Đang khai thác","Lng":106.628761,"Lat":10.793829,"Search":"TSN 377-379 TSN","Routes":"41"},{"StopId":2913,"Code":"QTP 052","Name":"Chung cư  Gò Dầu","StopType":"Trụ dừng","Zone":"Quận Tân Phú","Ward":"Phường Tân Qúy","AddressNo":"44","Street":"Gò Dầu","SupportDisability":"","Status":"Đang khai thác","Lng":106.628242,"Lat":10.795697,"Search":"CcGD 44 GD","Routes":"41"},{"StopId":2912,"Code":"QTP 053","Name":"Café Tino","StopType":"Trụ dừng","Zone":"Quận Tân Phú","Ward":"Phường Tân Qúy","AddressNo":"122","Street":"Gò Dầu","SupportDisability":"","Status":"Đang khai thác","Lng":106.62487,"Lat":10.795903,"Search":"CT 122 GD","Routes":"41"},{"StopId":2918,"Code":"QTP 058","Name":"Lê Đình Thám","StopType":"Ô sơn","Zone":"Quận Tân Phú","Ward":null,"AddressNo":"77","Street":"Cầu Xéo","SupportDisability":"","Status":"Đang khai thác","Lng":106.623871,"Lat":10.796464,"Search":"LDT 77 CX","Routes":"41"},{"StopId":2914,"Code":"QTP 059","Name":"Cuối Cầu Xéo","StopType":"Trụ dừng","Zone":"Quận Tân Phú","Ward":null,"AddressNo":"3","Street":"Cầu Xéo","SupportDisability":"","Status":"Đang khai thác","Lng":106.624283,"Lat":10.800497,"Search":"CCX 3 CX","Routes":"41"},{"StopId":2594,"Code":"QTP 090","Name":"Trạm Xăng","StopType":"Trụ dừng","Zone":"Quận Tân Phú","Ward":"Phường Tân Sơn Nhì","AddressNo":"295","Street":"Tân Kỳ Tân Quý","SupportDisability":"","Status":"Đang khai thác","Lng":106.626075,"Lat":10.801929,"Search":"TX 295 TKTQ","Routes":"32, 41, 69"},{"StopId":2596,"Code":"QTP 091","Name":"Trạm Đường Số 27","StopType":"Ô sơn","Zone":"Quận Tân Phú","Ward":"Phường Tân Sơn Nhì","AddressNo":"235","Street":"Tân Kỳ Tân Quý","SupportDisability":"","Status":"Đang khai thác","Lng":106.628525,"Lat":10.802643,"Search":"TDS27 235 TKTQ","Routes":"32, 41, 69"},{"StopId":2598,"Code":"QTP 092","Name":"Trạm Lê Trọng Tấn","StopType":"Ô sơn","Zone":"Quận Tân Phú","Ward":"Phường Tân Sơn Nhì","AddressNo":"153","Street":"Tân Kỳ Tân Quý","SupportDisability":"","Status":"Đang khai thác","Lng":106.631592,"Lat":10.803166,"Search":"TLTT 153 TKTQ","Routes":"32, 41, 69"},{"StopId":2600,"Code":"QTP 060","Name":"Trạm Đầu Lê Trọng Tấn","StopType":"Trụ dừng","Zone":"Quận Tân Phú","Ward":"Phường Tây Thạnh","AddressNo":"8A-8B","Street":"Lê Trọng Tấn","SupportDisability":"","Status":"Đang khai thác","Lng":106.632187,"Lat":10.804282,"Search":"TDLTT 8A-8B LTT","Routes":"32, 41, 69"},{"StopId":2602,"Code":"QTP 061","Name":"Trường Đại học Công Nghiệp Thực Phẩm","StopType":"Ô sơn","Zone":"Quận Tân Phú","Ward":"Phường Tây Thạnh","AddressNo":"142-144","Street":"Lê Trọng Tấn","SupportDisability":"","Status":"Đang khai thác","Lng":106.628586,"Lat":10.806065,"Search":"TDhCNTP 142-144 LTT","Routes":"32, 41, 48, 69"},{"StopId":2000,"Code":"QTP 062","Name":"Nguyễn Hữu Tiến","StopType":"Trụ dừng","Zone":"Quận Tân Phú","Ward":"Phường Tây Thạnh","AddressNo":"188","Street":"Lê Trọng Tấn","SupportDisability":"","Status":"Đang khai thác","Lng":106.625366,"Lat":10.806785,"Search":"NHT 188 LTT","Routes":"16, 41, 48, 69"},{"StopId":2005,"Code":"QTP 063","Name":"Trạm Bờ Bao Tân Thắng","StopType":"Trụ dừng","Zone":"Quận Tân Phú","Ward":"Phường Tây Thạnh","AddressNo":"284","Street":"Lê Trọng Tấn","SupportDisability":"","Status":"Đang khai thác","Lng":106.622177,"Lat":10.807464,"Search":"TBBTT 284 LTT","Routes":"16, 41, 48, 69"},{"StopId":2917,"Code":"QTP 064","Name":"Trạm Tây Thạnh","StopType":"Trụ dừng","Zone":"Quận Tân Phú","Ward":"Phường Tây Thạnh","AddressNo":"386","Street":"Lê Trọng Tấn","SupportDisability":"","Status":"Đang khai thác","Lng":106.619133,"Lat":10.808257,"Search":"TTT 386 LTT","Routes":"41, 48, 69"},{"StopId":2915,"Code":"QTP 022","Name":"Trạm Đầu Tây Thạnh","StopType":"Trụ dừng","Zone":"Quận Tân Phú","Ward":"Phường Tây Thạnh","AddressNo":"389","Street":"Tây Thạnh","SupportDisability":"","Status":"Đang khai thác","Lng":106.619434,"Lat":10.809564,"Search":"TDTT 389 TT","Routes":"28, 41"},{"StopId":2919,"Code":"QTP 023","Name":"Trạm Trường Tiểu Học Lê Lai","StopType":"Trụ dừng","Zone":"Quận Tân Phú","Ward":"Phường Tây Thạnh","AddressNo":"237","Street":"Tây Thạnh","SupportDisability":"","Status":"Đang khai thác","Lng":106.622345,"Lat":10.812798,"Search":"TTTHLL 237 TT","Routes":"28, 41"},{"StopId":2457,"Code":"QTP 024","Name":"Cây xăng Tây Thạnh","StopType":"Trụ dừng","Zone":"Quận Tân Phú","Ward":"Phường Tây Thạnh","AddressNo":"Đối diện công ty Ngọc Nghĩa","Street":"Tây Thạnh","SupportDisability":"","Status":"Đang khai thác","Lng":106.625565,"Lat":10.816156,"Search":"CxTT DdctNN TT","Routes":"28, 32, 41"},{"StopId":2916,"Code":"QTP 025","Name":"Trạm Cổng KCN Tân Bình","StopType":"Nhà chờ","Zone":"Quận Tân Phú","Ward":"Phường Tây Thạnh","AddressNo":"29/26 (Công ty Thành Công)","Street":"Tây Thạnh","SupportDisability":"","Status":"Đang khai thác","Lng":106.628945,"Lat":10.819169,"Search":"TCKTB 29/26(tTC TT","Routes":"28, 32, 41"},{"StopId":271,"Code":"QTB 079","Name":"Khu Công Nghiệp Tân Bình","StopType":"Nhà chờ","Zone":"Quận Tân Bình","Ward":null,"AddressNo":"932","Street":"Trường Chinh","SupportDisability":"","Status":"Đang khai thác","Lng":106.630254,"Lat":10.822452,"Search":"KCNTB 932 TC","Routes":"04, 104, 13, 145, 23, 27, 32, 41, 62, 65, 94"},{"StopId":272,"Code":"Q12 128","Name":"Cầu Tham Lương - Siêu thị Thiên Hòa","StopType":"Nhà chờ","Zone":"Quận 12","Ward":null,"AddressNo":"60A-B (1/17A)","Street":"Trường Chinh","SupportDisability":"","Status":"Đang khai thác","Lng":106.625828,"Lat":10.826957,"Search":"CTL-StTH 60A-B( TC","Routes":"04, 104, 13, 145, 23, 27, 41, 62, 65, 94"},{"StopId":273,"Code":"Q12 129","Name":"Chùa Vĩnh Phước","StopType":"Nhà chờ","Zone":"Quận 12","Ward":null,"AddressNo":"110 (189/4)","Street":"Trường Chinh","SupportDisability":"","Status":"Đang khai thác","Lng":106.624594,"Lat":10.828627,"Search":"CVP 110( TC","Routes":"04, 104, 13, 145, 27, 41, 65, 94"},{"StopId":275,"Code":"Q12 132","Name":"Chùa Lạc Quang","StopType":"Nhà chờ","Zone":"Quận 12","Ward":null,"AddressNo":"408","Street":"Trường Chinh","SupportDisability":"","Status":"Đang khai thác","Lng":106.620614,"Lat":10.834781,"Search":"CLQ 408 TC","Routes":"04, 104, 13, 145, 27, 41, 65, 94"},{"StopId":277,"Code":"Q12 131","Name":"Bitis","StopType":"Nhà chờ","Zone":"Quận 12","Ward":null,"AddressNo":"590 (640)","Street":"Trường Chinh","SupportDisability":"","Status":"Đang khai thác","Lng":106.618398,"Lat":10.838222,"Search":"B 590( TC","Routes":"04, 104, 13, 145, 27, 41, 65, 94"},{"StopId":1116,"Code":"Q12 123","Name":"Bến xe An Sương","StopType":"Trụ dừng","Zone":"Quận 12","Ward":null,"AddressNo":"142","Street":"Quốc lộ 22","SupportDisability":"","Status":"Đang khai thác","Lng":106.613361,"Lat":10.846035,"Search":"BxAS 142 Ql22","Routes":"151, 27, 41, 65, 71"},{"StopId":1239,"Code":"HHM 058","Name":"Bến xe An Sương","StopType":"Trụ dừng","Zone":"Huyện Hóc Môn","Ward":"Xã Bà Điểm","AddressNo":"1B","Street":"Quốc lộ 22","SupportDisability":"","Status":"Đang khai thác","Lng":106.613522,"Lat":10.845187,"Search":"BxAS 1B Ql22","Routes":"04, 122, 13, 145, 151, 33, 41, 62-5, 65, 71, 74, 85, 94"},{"StopId":166,"Code":"BX41","Name":"Bến xe An Sương","StopType":"Bến xe","Zone":"Quận 12","Ward":null,"AddressNo":"Bến xe An Sương","Street":"Quốc lộ 22","SupportDisability":"","Status":"Đang khai thác","Lng":106.61337280273438,"Lat":10.843737602233887,"Search":"BxAS BxAS Ql22","Routes":"04, 104, 122, 151, 27, 33, 41, 61-3, 62-5, 65, 71, 74, 85"}]