[{"StopId":35,"Code":"BX 01","Name":"Bến xe buýt Sài Gòn","StopType":"Bến xe","Zone":"Quận 1","Ward":"Phường Phạm Ngũ Lão","AddressNo":"BẾN XE BUÝT SÀI GÒN","Street":"Lê Lai","SupportDisability":"Có","Status":"Đang khai thác","Lng":106.689362,"Lat":10.767676,"Search":"BxbSG BXBSG LL","Routes":"03, 04, 102, 109, 13, 140, 171, 172, 18, 19, 20, 27, 28, 34, 36, 39, 52, 65, 69, 72, 75, 86, 88, 93, D4, DL03, DL04, DL05"},{"StopId":7276,"Code":"Q1 190","Name":"Tôn Thất Tùng","StopType":"Trụ dừng","Zone":"Quận 1","Ward":"Phường Phạm Ngũ Lão","AddressNo":"277-279-275Y","Street":"Phạm Ngũ Lão","SupportDisability":"Có","Status":"Đang khai thác","Lng":106.690941,"Lat":10.76767,"Search":"TTT 277-279-275Y PNL","Routes":"03, 04, 102, 109, 13, 140, 156V, 171, 172, 18, 19, 20, 28, 34, 36, 39, 46, 52, 65, 69, 72, 72-2B, 75, 86, 88, 93, D4"},{"StopId":7277,"Code":"Q1 191","Name":"Nguyễn Thị Nghĩa","StopType":"Trụ dừng","Zone":"Quận 1","Ward":"Phường Phạm Ngũ Lão","AddressNo":"187","Street":"Phạm Ngũ Lão","SupportDisability":"Có","Status":"Đang khai thác","Lng":106.693699,"Lat":10.768788,"Search":"NTN 187 PNL","Routes":"03, 04, 102, 109, 13, 140, 156V, 171, 172, 18, 19, 20, 28, 34, 36, 39, 46, 52, 65, 69, 72, 72-2B, 93, D4, DL01, DL02, DL05"},{"StopId":1451,"Code":"Q1 118","Name":"Trần Hưng Đạo","StopType":"Trụ dừng","Zone":"Quận 1","Ward":null,"AddressNo":"197","Street":"Nguyễn Thái Học","SupportDisability":"","Status":"Đang khai thác","Lng":106.694984,"Lat":10.768461,"Search":"THD 197 NTH","Routes":"102, 140, 152, 155, 31, 38, 46, 56, 72"},{"StopId":27,"Code":"Q1 138","Name":"Nguyễn Kim","StopType":"Nhà chờ","Zone":"Quận 1","Ward":null,"AddressNo":"71C","Street":"Trần Hưng Đạo","SupportDisability":"","Status":"Đang khai thác","Lng":106.695847,"Lat":10.768327,"Search":"NK 71C THD","Routes":"01, 102, 152, 31, 38, 45, 53, 56, 75, 86, 88"},{"StopId":4275,"Code":"Q1 161","Name":"Trạm Trung chuyển trên đường Hàm Nghi","StopType":"Nhà chờ","Zone":"Quận 1","Ward":"Phường Nguyễn Thái Bình","AddressNo":"Hàm Nghi 15 (99)","Street":"Hàm Nghi","SupportDisability":"","Status":"Đang khai thác","Lng":106.70101,"Lat":10.77079,"Search":"TTctdHN HN15( HN","Routes":"102, 20, 86"},{"StopId":7564,"Code":"Q1 196","Name":"Bảo tàng Mỹ Thuật","StopType":"Trụ dừng","Zone":"Quận 1","Ward":"Phường Bến Nghé","AddressNo":"56","Street":"Nguyễn Thái Bình","SupportDisability":"Có","Status":"Đang khai thác","Lng":106.699669,"Lat":10.769251,"Search":"BtMT 56 NTB","Routes":"102, 172, 34, 38, 39, 72-2B, 86, D4"},{"StopId":853,"Code":"Q1 001","Name":"Calmette","StopType":"Trụ dừng","Zone":"Quận 1","Ward":null,"AddressNo":"97","Street":"Calmette","SupportDisability":"","Status":"Đang khai thác","Lng":106.699219,"Lat":10.767768,"Search":"C 97 C","Routes":"102, 34, 38, 44, 86, DL05"},{"StopId":856,"Code":"Q4 014","Name":"Chợ Xóm Chiếu","StopType":"Trụ dừng","Zone":"Quận 4","Ward":null,"AddressNo":"51-53","Street":"Hoàng Diệu","SupportDisability":"","Status":"Đang khai thác","Lng":106.706504,"Lat":10.764703,"Search":"CXC 51-53 HD","Routes":"102, 31, 34"},{"StopId":855,"Code":"Q4 027","Name":"Bưu Điện Quận 4","StopType":"Trụ dừng","Zone":"Quận 4","Ward":null,"AddressNo":"136-138","Street":"Nguyễn Tất Thành","SupportDisability":"","Status":"Đang khai thác","Lng":106.70763,"Lat":10.76385,"Search":"BDQ4 136-138 NTT","Routes":"102, 20, 31, 34, 75"},{"StopId":857,"Code":"Q4 028","Name":"Đại học Nguyễn Tất Thành","StopType":"Nhà chờ","Zone":"Quận 4","Ward":null,"AddressNo":"276","Street":"Nguyễn Tất Thành","SupportDisability":"","Status":"Đang khai thác","Lng":106.70932,"Lat":10.7618,"Search":"DhNTT 276 NTT","Routes":"102, 20, 31, 34, 75"},{"StopId":858,"Code":"Q4 029","Name":"Trường Nguyễn Trãi","StopType":"Trụ dừng","Zone":"Quận 4","Ward":null,"AddressNo":"428","Street":"Nguyễn Tất Thành","SupportDisability":"","Status":"Đang khai thác","Lng":106.713359,"Lat":10.759423,"Search":"TNT 428 NTT","Routes":"102, 20, 31, 34, 75"},{"StopId":860,"Code":"Q4 030","Name":"Cảng Sài Gòn","StopType":"Trụ dừng","Zone":"Quận 4","Ward":null,"AddressNo":"456","Street":"Nguyễn Tất Thành","SupportDisability":"","Status":"Đang khai thác","Lng":106.715977,"Lat":10.7579,"Search":"CSG 456 NTT","Routes":"102, 20, 31, 34, 75"},{"StopId":859,"Code":"Q7 080","Name":"Cầu Tân Thuận 2","StopType":"Trụ dừng","Zone":"Quận 7","Ward":null,"AddressNo":"46/14 (chân cầu Tân Thuận 2)","Street":"Nguyễn Văn Linh","SupportDisability":"","Status":"Đang khai thác","Lng":106.723927,"Lat":10.752424,"Search":"CTT2 46/14(cTT2) NVL","Routes":"102, 31, 34, 68, 75"},{"StopId":862,"Code":"Q7 082","Name":"Cầu Tân Thuận 2","StopType":"Trụ dừng","Zone":"Quận 7","Ward":null,"AddressNo":"144-146","Street":"Nguyễn Văn Linh","SupportDisability":"","Status":"Đang khai thác","Lng":106.724088,"Lat":10.751697,"Search":"CTT2 144-146 NVL","Routes":"102, 31"},{"StopId":4125,"Code":"Q7 081","Name":"Ủy ban Phường Tân Thuận Tây","StopType":"Trụ dừng","Zone":"Quận 7","Ward":"Phường Tân Thuận Tây","AddressNo":"Ủy ban Phường Tân Thuận Tây","Street":"Nguyễn Văn Linh","SupportDisability":"","Status":"Đang khai thác","Lng":106.721728,"Lat":10.747807,"Search":"?bPTTT ?bPTTT NVL","Routes":"102, 31"},{"StopId":866,"Code":"Q7 084","Name":"Cầu Lý Phục Man","StopType":"Trụ dừng","Zone":"Quận 7","Ward":null,"AddressNo":"636","Street":"Nguyễn Văn Linh","SupportDisability":"","Status":"Đang khai thác","Lng":106.721508,"Lat":10.742521,"Search":"CLPM 636 NVL","Routes":"102, 31"},{"StopId":863,"Code":"Q7 085","Name":"Nguyễn Thị Thập","StopType":"Trụ dừng","Zone":"Quận 7","Ward":null,"AddressNo":"340A","Street":"Nguyễn Văn Linh","SupportDisability":"","Status":"Đang khai thác","Lng":106.721444,"Lat":10.739585,"Search":"NTT 340A NVL","Routes":"102, 31"},{"StopId":869,"Code":"Q7 088","Name":"Bệnh viện Việt Pháp","StopType":"Trụ dừng","Zone":"Quận 7","Ward":null,"AddressNo":"Bệnh viện Việt Pháp","Street":"Nguyễn Văn Linh","SupportDisability":"","Status":"Đang khai thác","Lng":106.718912,"Lat":10.731063,"Search":"BvVP BvVP NVL","Routes":"102, 34"},{"StopId":864,"Code":"Q7 087","Name":"Nguyễn Lương Bằng","StopType":"Nhà chờ","Zone":"Quận 7","Ward":"Phường Tân Phong","AddressNo":"838-840 (388)","Street":"Nguyễn Văn Linh","SupportDisability":"","Status":"Đang khai thác","Lng":106.712801,"Lat":10.729419,"Search":"NLB 838-840( NVL","Routes":"102, 34"},{"StopId":865,"Code":"Q7 089","Name":"Hưng Vượng","StopType":"Trụ dừng","Zone":"Quận 7","Ward":null,"AddressNo":"Kế A001","Street":"Nguyễn Văn Linh","SupportDisability":"","Status":"Đang khai thác","Lng":106.709567,"Lat":10.72934,"Search":"HV KA NVL","Routes":"102, 34"},{"StopId":872,"Code":"Q7 090","Name":"Sky Garden","StopType":"Trụ dừng","Zone":"Quận 7","Ward":null,"AddressNo":"1048 (Kế siêu thị Fivimart)","Street":"Nguyễn Văn Linh","SupportDisability":"","Status":"Đang khai thác","Lng":106.7049,"Lat":10.729234,"Search":"SG 1048(stF NVL","Routes":"102, 34, 68"},{"StopId":2689,"Code":"Q7 139","Name":"Lê Văn Lương","StopType":"Trụ dừng","Zone":"Quận 7","Ward":"Phường Tân Phong","AddressNo":"Ngã 3 Lê Văn Lương","Street":"Nguyễn Văn Linh","SupportDisability":"","Status":"Đang khai thác","Lng":106.699315,"Lat":10.72905,"Search":"LVL N3LVL NVL","Routes":"102, 34"},{"StopId":868,"Code":"Q7 092","Name":"Đại học RMIT","StopType":"Nhà chờ","Zone":"Quận 7","Ward":null,"AddressNo":"Trường đại học RMIT","Street":"Nguyễn Văn Linh","SupportDisability":"","Status":"Đang khai thác","Lng":106.695061,"Lat":10.728839,"Search":"DhR TdhR NVL","Routes":"102, 34"},{"StopId":873,"Code":"HBC 001","Name":"Trung Sơn","StopType":"Trụ dừng","Zone":"Huyện Bình Chánh","Ward":null,"AddressNo":"12-14","Street":"Nguyễn Văn Linh","SupportDisability":"","Status":"Đang khai thác","Lng":106.687117,"Lat":10.728639,"Search":"TS 12-14 NVL","Routes":"102, 34"},{"StopId":870,"Code":"HBC 002","Name":"Cầu Ông Bé","StopType":"Trụ dừng","Zone":"Huyện Bình Chánh","Ward":null,"AddressNo":"Trụ điện  T NVL 14","Street":"Nguyễn Văn Linh","SupportDisability":"","Status":"Đang khai thác","Lng":106.683946,"Lat":10.728575,"Search":"COB TdTN14 NVL","Routes":"102, 34"},{"StopId":875,"Code":"HBC 003","Name":"Phúc Minh","StopType":"Trụ dừng","Zone":"Huyện Bình Chánh","Ward":null,"AddressNo":"C10/5A (C10/56)","Street":"Nguyễn Văn Linh","SupportDisability":"","Status":"Đang khai thác","Lng":106.679472,"Lat":10.728486,"Search":"PM C( NVL","Routes":"102, 34"},{"StopId":871,"Code":"HBC 004","Name":"Phạm Hùng","StopType":"Trụ dừng","Zone":"Huyện Bình Chánh","Ward":null,"AddressNo":"Cột đèn A85","Street":"Nguyễn Văn Linh","SupportDisability":"","Status":"Đang khai thác","Lng":106.676537,"Lat":10.7284,"Search":"PH CdA NVL","Routes":"102"},{"StopId":877,"Code":"HBC 005","Name":"Cầu Xóm Củi","StopType":"Nhà chờ","Zone":"Huyện Bình Chánh","Ward":null,"AddressNo":"Cột điện  T NVL 13T","Street":"Nguyễn Văn Linh","SupportDisability":"","Status":"Đang khai thác","Lng":106.667193,"Lat":10.726741,"Search":"CXC CdTN13T NVL","Routes":"102"},{"StopId":874,"Code":"HBC 006","Name":"Chùa Viên Minh","StopType":"Trụ dừng","Zone":"Huyện Bình Chánh","Ward":null,"AddressNo":"Trụ điện 14T3 (Cột đèn A124 - Chùa Viên Minh)","Street":"Nguyễn Văn Linh","SupportDisability":"","Status":"Đang khai thác","Lng":106.660316,"Lat":10.723442,"Search":"CVM Td14T3(dA-CVM NVL","Routes":"102"},{"StopId":876,"Code":"HBC 007","Name":"Quốc lộ 50","StopType":"Trụ dừng","Zone":"Huyện Bình Chánh","Ward":null,"AddressNo":"Cột đèn 138","Street":"Nguyễn Văn Linh","SupportDisability":"","Status":"Đang khai thác","Lng":106.656861,"Lat":10.720896,"Search":"Ql50 Cd138 NVL","Routes":"102"},{"StopId":879,"Code":"HBC 008","Name":"Sau Quốc lộ 50","StopType":"Trụ dừng","Zone":"Huyện Bình Chánh","Ward":null,"AddressNo":"Cột đèn 144","Street":"Nguyễn Văn Linh","SupportDisability":"","Status":"Đang khai thác","Lng":106.654415,"Lat":10.718972,"Search":"SQl50 Cd144 NVL","Routes":"102, 140, 22, 45"},{"StopId":881,"Code":"HBC 33","Name":"Khu đô thị Hạnh Phúc","StopType":"Trụ dừng","Zone":"Huyện Bình Chánh","Ward":null,"AddressNo":"Cột đèn 156","Street":"Nguyễn Văn Linh","SupportDisability":"","Status":"Đang khai thác","Lng":106.649158,"Lat":10.714903,"Search":"KdtHP Cd156 NVL","Routes":"102, 140, 22, 45"},{"StopId":884,"Code":"HBC 010","Name":"Cầu Bà Lớn","StopType":"Trụ dừng","Zone":"Huyện Bình Chánh","Ward":null,"AddressNo":"Cột đèn 174","Street":"Nguyễn Văn Linh","SupportDisability":"","Status":"Đang khai thác","Lng":106.645103,"Lat":10.71174,"Search":"CBL Cd174 NVL","Routes":"102, 140, 22, 45"},{"StopId":878,"Code":"HBC 011","Name":"Chung cư Conic","StopType":"Nhà chờ","Zone":"Huyện Bình Chánh","Ward":null,"AddressNo":"Cột đèn 184","Street":"Nguyễn Văn Linh","SupportDisability":"","Status":"Đang khai thác","Lng":106.64227,"Lat":10.709506,"Search":"CcC Cd184 NVL","Routes":"102, 140, 22, 45"},{"StopId":880,"Code":"HBC 012","Name":"Khu dân cư 13A","StopType":"Nhà chờ","Zone":"Huyện Bình Chánh","Ward":null,"AddressNo":"Cột đèn 192","Street":"Nguyễn Văn Linh","SupportDisability":"","Status":"Đang khai thác","Lng":106.639502,"Lat":10.707397,"Search":"Kdc13A Cd192 NVL","Routes":"102, 140, 22, 45"},{"StopId":882,"Code":"HBC 013","Name":"Trịnh Quang Nghị","StopType":"Nhà chờ","Zone":"Huyện Bình Chánh","Ward":null,"AddressNo":"Trụ điện 57P (Cột đèn 210)","Street":"Nguyễn Văn Linh","SupportDisability":"","Status":"Đang khai thác","Lng":106.634567,"Lat":10.703602,"Search":"TQN Td57P(d210) NVL","Routes":"102, 140, 22, 45"},{"StopId":886,"Code":"HBC 014","Name":"Kim Hằng","StopType":"Trụ dừng","Zone":"Huyện Bình Chánh","Ward":null,"AddressNo":"Cột đèn 216-Nhôm Kim Hằng","Street":"Nguyễn Văn Linh","SupportDisability":"","Status":"Đang khai thác","Lng":106.631713,"Lat":10.701414,"Search":"KH Cd216-NhomKH NVL","Routes":"102, 22"},{"StopId":887,"Code":"HBC 015","Name":"Cầu sập","StopType":"Trụ dừng","Zone":"Huyện Bình Chánh","Ward":null,"AddressNo":"Cột đèn 232","Street":"Nguyễn Văn Linh","SupportDisability":"","Status":"Đang khai thác","Lng":106.627235,"Lat":10.69925,"Search":"Cs Cd232 NVL","Routes":"102, 22"},{"StopId":883,"Code":"HBC 016","Name":"Cầu Cần Giuộc","StopType":"Trụ dừng","Zone":"Huyện Bình Chánh","Ward":null,"AddressNo":"Cột đèn 249","Street":"Nguyễn Văn Linh","SupportDisability":"","Status":"Đang khai thác","Lng":106.61828,"Lat":10.696855,"Search":"CCG Cd249 NVL","Routes":"102, 22"},{"StopId":885,"Code":"HBC 017","Name":"Đường vào Chợ Bình Điền","StopType":"Nhà chờ","Zone":"Huyện Bình Chánh","Ward":null,"AddressNo":"Cột đèn 258","Street":"Nguyễn Văn Linh","SupportDisability":"","Status":"Đang khai thác","Lng":106.612183,"Lat":10.695133,"Search":"DvCBD Cd258 NVL","Routes":"102, 22"},{"StopId":889,"Code":"HBC 452","Name":"Trạm thu phí Chợ Bình Điền","StopType":"Ô sơn","Zone":"Huyện Bình Chánh","Ward":null,"AddressNo":"Đối diện công ty bất động sản","Street":"Đường vào Chợ ĐM Bình Điền","SupportDisability":"","Status":"Đang khai thác","Lng":106.609359,"Lat":10.698405,"Search":"TtpCBD Ddctbds DvCDBD","Routes":"102, 22"},{"StopId":891,"Code":"HBC 453","Name":"Chợ Bình Điền","StopType":"Nhà chờ","Zone":"Huyện Bình Chánh","Ward":null,"AddressNo":"Quán ăn Chợ Bình Điền","Street":"Đường vào Chợ ĐM Bình Điền","SupportDisability":"","Status":"Đang khai thác","Lng":106.608372,"Lat":10.701984,"Search":"CBD QaCBD DvCDBD","Routes":"102, 22"},{"StopId":893,"Code":"HBC 451","Name":"Trạm thu phí Chợ Bình Điền","StopType":"Ô sơn","Zone":"Huyện Bình Chánh","Ward":null,"AddressNo":"Công ty bất động sản","Street":"Đường vào Chợ ĐM Bình Điền","SupportDisability":"","Status":"Đang khai thác","Lng":106.609075,"Lat":10.698547,"Search":"TtpCBD Ctbds DvCDBD","Routes":"102, 22"},{"StopId":888,"Code":"HBC 018","Name":"Khu dân cư Nguyễn Minh","StopType":"Trụ dừng","Zone":"Huyện Bình Chánh","Ward":null,"AddressNo":"Cột đèn 265","Street":"Nguyễn Văn Linh","SupportDisability":"","Status":"Đang khai thác","Lng":106.60856,"Lat":10.694145,"Search":"KdcNM Cd265 NVL","Routes":"102, 22"},{"StopId":892,"Code":"HBC 019","Name":"Căn hộ Hoàng Quân","StopType":"Trụ dừng","Zone":"Huyện Bình Chánh","Ward":null,"AddressNo":"Cột đèn 276","Street":"Nguyễn Văn Linh","SupportDisability":"","Status":"Đang khai thác","Lng":106.605682,"Lat":10.69335,"Search":"ChHQ Cd276 NVL","Routes":"102, 22"},{"StopId":894,"Code":"HBC 020","Name":"Ấp 2","StopType":"Trụ dừng","Zone":"Huyện Bình Chánh","Ward":null,"AddressNo":"Cột đèn 291","Street":"Nguyễn Văn Linh","SupportDisability":"","Status":"Đang khai thác","Lng":106.600937,"Lat":10.692048,"Search":"A2 Cd291 NVL","Routes":"102, 22"},{"StopId":895,"Code":"HBC 021","Name":"Quốc lộ 1A","StopType":"Trụ dừng","Zone":"Huyện Bình Chánh","Ward":null,"AddressNo":"Cột đèn 302","Street":"Nguyễn Văn Linh","SupportDisability":"","Status":"Đang khai thác","Lng":106.596169,"Lat":10.69075,"Search":"Ql1A Cd302 NVL","Routes":"102, 22"},{"StopId":702,"Code":"HBC 388","Name":"Nút giao Bình Thuận","StopType":"Trụ dừng","Zone":"Huyện Bình Chánh","Ward":"Thị trấn Tân Túc","AddressNo":"Cột điện T86T (194A/8)","Street":"Quốc lộ 1A","SupportDisability":"","Status":"Đang khai thác","Lng":106.595428,"Lat":10.691816,"Search":"NgBT CdT( Ql1A","Routes":"09, 102, 22, 62-1, 62-10, 62-2, 62-8, 63-1"},{"StopId":704,"Code":"HBC 389","Name":"Nguyễn Hữu Trí","StopType":"Trụ dừng","Zone":"Huyện Bình Chánh","Ward":null,"AddressNo":"Cột điện T65T (45/2A)","Street":"Quốc lộ 1A","SupportDisability":"","Status":"Đang khai thác","Lng":106.597059,"Lat":10.697161,"Search":"NHT CdT( Ql1A","Routes":"09, 102, 62-1, 62-10, 62-2, 62-8, 63-1, 84"},{"StopId":705,"Code":"HBC 390","Name":"Dương Đình Cúc","StopType":"Trụ dừng","Zone":"Huyện Bình Chánh","Ward":null,"AddressNo":"C14/17","Street":"Quốc lộ 1A","SupportDisability":"","Status":"Đang khai thác","Lng":106.598276,"Lat":10.706422,"Search":"DDC C Ql1A","Routes":"09, 101, 102, 62-1, 62-10, 62-2, 62-8, 63-1, 84"},{"StopId":706,"Code":"HBC 392","Name":"Hưng Nhơn","StopType":"Nhà chờ","Zone":"Huyện Bình Chánh","Ward":"Xã Tân Kiên","AddressNo":"C12/3","Street":"Quốc lộ 1A","SupportDisability":"","Status":"Đang khai thác","Lng":106.599339,"Lat":10.71202,"Search":"HN C Ql1A","Routes":"09, 101, 102, 62-1, 62-10, 62-2, 62-8, 63-1, 84"},{"StopId":711,"Code":"HBC 393","Name":"Trần Đại Nghĩa","StopType":"Trụ dừng","Zone":"Huyện Bình Chánh","Ward":null,"AddressNo":"591B (cầu bộ hành)","Street":"Quốc lộ 1A","SupportDisability":"","Status":"Đang khai thác","Lng":106.600878,"Lat":10.720838,"Search":"TDN 591B(bh Ql1A","Routes":"09, 102, 62-1, 62-10, 62-2, 62-8, 63-1, 84"},{"StopId":708,"Code":"QBT 001","Name":"Cầu An Lạc","StopType":"Trụ dừng","Zone":"Quận Bình Tân","Ward":null,"AddressNo":"849-851","Street":"Kinh Dương Vương","SupportDisability":"","Status":"Đang khai thác","Lng":106.602337,"Lat":10.724317,"Search":"CAL 849-851 KDV","Routes":"09, 102, 60-1, 61, 62-1, 62-10, 62-2, 62-8, 63-1, 84"},{"StopId":712,"Code":"QBT 002","Name":"Hoa Hồng","StopType":"Trụ dừng","Zone":"Quận Bình Tân","Ward":null,"AddressNo":"771","Street":"Kinh Dương Vương","SupportDisability":"","Status":"Đang khai thác","Lng":106.605191,"Lat":10.726583,"Search":"HH 771 KDV","Routes":"09, 102, 60-1, 61, 62-1, 62-10, 62-2, 62-8, 63-1, 84"},{"StopId":709,"Code":"QBT 003","Name":"Hàng Dương","StopType":"Trụ dừng","Zone":"Quận Bình Tân","Ward":"Phường An Lạc","AddressNo":"703","Street":"Kinh Dương Vương","SupportDisability":"","Status":"Đang khai thác","Lng":106.607605,"Lat":10.72832,"Search":"HD 703 KDV","Routes":"09, 102, 151, 39, 60-1, 61, 62-1, 62-10, 62-2, 62-8, 63-1, 84"},{"StopId":714,"Code":"QBT 004","Name":"Ủy ban","StopType":"Trụ dừng","Zone":"Quận Bình Tân","Ward":"Phường An Lạc","AddressNo":"631-637","Street":"Kinh Dương Vương","SupportDisability":"","Status":"Đang khai thác","Lng":106.610255,"Lat":10.729977,"Search":"Ub 631-637 KDV","Routes":"09, 102, 151, 39, 60-1, 61, 62-1, 62-10, 62-2, 62-8, 63-1, 84"},{"StopId":710,"Code":"QBT 005","Name":"Lâm Thành","StopType":"Trụ dừng","Zone":"Quận Bình Tân","Ward":"Phường An Lạc","AddressNo":"289(561)","Street":"Kinh Dương Vương","SupportDisability":"","Status":"Đang khai thác","Lng":106.61298,"Lat":10.734278,"Search":"LT 289(561) KDV","Routes":"09, 102, 151, 39, 60-1, 61, 62-1, 62-10, 62-2, 62-8, 63-1, 84"},{"StopId":716,"Code":"QBT 006","Name":"Tên Lửa","StopType":"Trụ dừng","Zone":"Quận Bình Tân","Ward":"Phường An Lạc","AddressNo":"251(511)","Street":"Kinh Dương Vương","SupportDisability":"","Status":"Đang khai thác","Lng":106.614906,"Lat":10.737541,"Search":"TL 251(511) KDV","Routes":"09, 102, 151, 39, 60-1, 61, 62-1, 62-10, 62-2, 62-8, 63-1, 84"},{"StopId":713,"Code":"QBT 007","Name":"Bệnh viện Triều An","StopType":"Nhà chờ","Zone":"Quận Bình Tân","Ward":"Phường An Lạc","AddressNo":"Bệnh viện Triều An","Street":"Kinh Dương Vương","SupportDisability":"","Status":"Đang khai thác","Lng":106.61687,"Lat":10.739665,"Search":"BvTA BvTA KDV","Routes":"09, 102, 151, 25, 39, 41, 60-1, 61, 62-1, 62-10, 62-2, 62-8, 63-1, 84"},{"StopId":725,"Code":"BX 46","Name":"Bến xe Miền Tây","StopType":"Bến xe","Zone":"Quận Bình Tân","Ward":null,"AddressNo":"Bến xe Miền Tây","Street":"Kinh Dương Vương","SupportDisability":"","Status":"Đang khai thác","Lng":106.619438,"Lat":10.739486,"Search":"BxMT BxMT KDV","Routes":"10, 102, 139, 14, 148, 151, 32, 39, 41, 60-1, 91"}]