[{"StopId":9343,"Code":"BD BX 0010","Name":"KCN Tân Thành","StopType":"Bến xe","Zone":"Bình Dương","Ward":null,"AddressNo":"KCN Tân Thành","Street":"DT 746B","SupportDisability":"","Status":"Đang khai thác","Lng":106.841234,"Lat":11.522208,"Search":"KTT KTT D746B","Routes":"60-15"},{"StopId":8336,"Code":"BD-0032","Name":"Ngã 3 ĐL Bình Dương - Nguyễn Đức Thuận","StopType":"Trụ - hộp thông tin","Zone":"Bình Dương","Ward":null,"AddressNo":"Ngã 3 ĐL Bình Dương - Nguyễn Đức Thuận","Street":"Quốc Lộ 13","SupportDisability":"Có","Status":"Đang khai thác","Lng":106.650794,"Lat":10.995824,"Search":"N3DBD-NDT N3DBD-NDT QL13","Routes":"60-15, 60-18, 61-4, 61-51, 61-52, 61-53"},{"StopId":9248,"Code":"BD-0954","Name":"Phòng cảnh sát cơ động tỉnh Bình Dương","StopType":"Trụ dừng","Zone":"Bình Dương","Ward":null,"AddressNo":"Phòng cảnh sát cơ động tỉnh Bình Dương","Street":"Đại lộ Bình Dương","SupportDisability":"","Status":"Đang khai thác","Lng":106.653042,"Lat":10.994478,"Search":"PcscdtBD PcscdtBD DlBD","Routes":"60-15, 60-18, 61-2, 61-51"},{"StopId":8957,"Code":"BD-0672","Name":"Trường trung học phổ thông Hùng Vương","StopType":"Ô sơn","Zone":"Bình Dương","Ward":null,"AddressNo":"Trường trung học phổ thông Hùng Vương","Street":"Đại lộ Bình Dương","SupportDisability":"","Status":"Đang khai thác","Lng":106.657639,"Lat":10.992434,"Search":"TthptHV TthptHV DlBD","Routes":"171, 60-15, 61-55"},{"StopId":8956,"Code":"BD-0671","Name":"Bảo tàn tỉnh Bình Dương","StopType":"Ô sơn","Zone":"Bình Dương","Ward":null,"AddressNo":"Bảo tàn tỉnh Bình Dương","Street":"Đại lộ Bình Dương","SupportDisability":"","Status":"Đang khai thác","Lng":106.663578,"Lat":10.989959,"Search":"BttBD BttBD DlBD","Routes":"171, 60-15, 61-55"},{"StopId":9216,"Code":"BD-0926","Name":"Siêu thị Big C","StopType":"Ô sơn","Zone":"Bình Dương","Ward":null,"AddressNo":"Siêu thị Big C","Street":"Quốc lộ 13","SupportDisability":"","Status":"Đang khai thác","Lng":106.664774,"Lat":10.987542,"Search":"StBC StBC Ql13","Routes":"171, 60-15, 61-4, 61-55"},{"StopId":8339,"Code":"BD-0035","Name":"Ngã 3 Đại Lộ Bình Dương - Huỳnh Văn Luỹ ","StopType":"Trụ - hộp thông tin","Zone":"Bình Dương","Ward":null,"AddressNo":"Ngã 3 Đại Lộ Bình Dương - Huỳnh Văn Luỹ ","Street":"Quốc Lộ 13","SupportDisability":"Có","Status":"Đang khai thác","Lng":106.665564,"Lat":10.985788,"Search":"N3DLBD-HVL N3DLBD-HVL QL13","Routes":"171, 60-15, 61-4, 61-55"},{"StopId":9211,"Code":"BD-0921","Name":"liên đoàn lđ tỉnh","StopType":"Ô sơn","Zone":"Bình Dương","Ward":null,"AddressNo":"liên đoàn lđ tỉnh","Street":"Quốc lộ 13","SupportDisability":"","Status":"Đang khai thác","Lng":106.666217,"Lat":10.983519,"Search":"ldlt ldlt Ql13","Routes":"171, 60-15, 61-55"},{"StopId":8942,"Code":"BD-0657","Name":"Sở nội vụ Bình Dương","StopType":"Ô sơn","Zone":"Bình Dương","Ward":null,"AddressNo":"Sở nội vụ Bình Dương","Street":"Đại lộ Bình Dương","SupportDisability":"","Status":"Đang khai thác","Lng":106.666641,"Lat":10.981897,"Search":"SnvBD SnvBD DlBD","Routes":"171, 60-15, 61-55"},{"StopId":8250,"Code":"BD DRCB02 005","Name":"Tòa nhà Becamex","StopType":"Ô sơn","Zone":"Bình Dương","Ward":null,"AddressNo":"Đối diện tòa nhà Becamex","Street":"Đại lộ Bình Dương","SupportDisability":"Có","Status":"Đã hủy","Lng":106.669355,"Lat":10.976009,"Search":"TnB DdtnB DlBD","Routes":"60-15, 61-55"},{"StopId":9325,"Code":"BD-0632","Name":"Cửa hàng vi tính Hiếu Nghĩa","StopType":"Ô sơn","Zone":"Bình Dương","Ward":null,"AddressNo":"Cửa hàng vi tính Hiếu Nghĩa","Street":"30/4","SupportDisability":"","Status":"Đang khai thác","Lng":106.671216,"Lat":10.97216,"Search":"ChvtHN ChvtHN 30/4","Routes":"60-15, 61-37, 61-38, 61-39, 61-51, 61-52"},{"StopId":8314,"Code":"BD-0014","Name":"Sân vận động Gò Đậu - Bình Dương","StopType":"Trụ - hộp thông tin","Zone":"Bình Dương","Ward":null,"AddressNo":"Sân vận động Gò Đậu - Bình Dương","Street":"30/4","SupportDisability":"Có","Status":"Chưa khai thác","Lng":106.670403,"Lat":10.970144,"Search":"SvdGD-BD SvdGD-BD 30/4","Routes":"60-15, 60-18, 61-37, 61-38, 61-39, 61-51, 61-52, 61-53"},{"StopId":9335,"Code":"BD BX 0002","Name":"Bến xe Bình Dương","StopType":"Bến xe","Zone":"Bình Dương","Ward":null,"AddressNo":"Bến xe Bình Dương","Street":"30/4","SupportDisability":"","Status":"Đang khai thác","Lng":106.668204,"Lat":10.966152,"Search":"BxBD BxBD 30/4","Routes":"60-15, 61-2, 61-4"}]