[{"StopId":2783,"Code":"BX 12","Name":"Bến xe buýt Kho Muối","StopType":"Bến xe","Zone":"Quận 4","Ward":null,"AddressNo":"BẾN XE BUÝT KHO MUỐI","Street":"Tôn Thất Thuyết","SupportDisability":"","Status":"Đang khai thác","Lng":106.70174,"Lat":10.752714,"Search":"BxbKM BXBKM TTT","Routes":"44, 46"},{"StopId":2782,"Code":"Q4 048","Name":"UBND Phường 4","StopType":"Trụ dừng","Zone":"Quận 4","Ward":null,"AddressNo":"Đối diện 183N","Street":"Tôn Thất Thuyết","SupportDisability":"","Status":"Đang khai thác","Lng":106.703483,"Lat":10.753109,"Search":"UP4 Dd183N TTT","Routes":"44, 46"},{"StopId":2946,"Code":"Q4 040","Name":"Tôn Đản","StopType":"Trụ dừng","Zone":"Quận 4","Ward":null,"AddressNo":"295Bis","Street":"Tôn Đản","SupportDisability":"","Status":"Đang khai thác","Lng":106.705806,"Lat":10.755028,"Search":"TD 295Bis TD","Routes":"44"},{"StopId":2947,"Code":"Q4 055","Name":"Tôn Đản","StopType":"Trụ dừng","Zone":"Quận 4","Ward":null,"AddressNo":"143-145","Street":"Vĩnh Hội","SupportDisability":"","Status":"Đang khai thác","Lng":106.705313,"Lat":10.756229,"Search":"TD 143-145 VH","Routes":"44"},{"StopId":2948,"Code":"Q4 056","Name":"Nhà thuốc Hữu Nghị","StopType":"Trụ dừng","Zone":"Quận 4","Ward":null,"AddressNo":"31","Street":"Vĩnh Hội","SupportDisability":"","Status":"Đang khai thác","Lng":106.702988,"Lat":10.756151,"Search":"NtHN 31 VH","Routes":"44"},{"StopId":2949,"Code":"Q4 037","Name":"Đường 11","StopType":"Trụ dừng","Zone":"Quận 4","Ward":null,"AddressNo":"21-23","Street":"Tân Vĩnh","SupportDisability":"","Status":"Đang khai thác","Lng":106.702212,"Lat":10.756709,"Search":"D11 21-23 TV","Routes":"44"},{"StopId":2950,"Code":"Q4 038","Name":"Trường Chính trị Quận 4","StopType":"Trụ dừng","Zone":"Quận 4","Ward":null,"AddressNo":"Đối diện 002","Street":"Tân Vĩnh","SupportDisability":"","Status":"Đang khai thác","Lng":106.700168,"Lat":10.759444,"Search":"TCtQ4 Dd002 TV","Routes":"44"},{"StopId":1252,"Code":"Q4 012","Name":"Trường THCS Vân Đồn","StopType":"Nhà chờ","Zone":"Quận 4","Ward":null,"AddressNo":"243","Street":"Hoàng Diệu","SupportDisability":"","Status":"Đang khai thác","Lng":106.701724,"Lat":10.761768,"Search":"TTVD 243 HD","Routes":"31, 38, 44"},{"StopId":1254,"Code":"Q4 013","Name":"Chùa Anh Linh","StopType":"Trụ dừng","Zone":"Quận 4","Ward":null,"AddressNo":"177","Street":"Hoàng Diệu","SupportDisability":"","Status":"Đang khai thác","Lng":106.703414,"Lat":10.763006,"Search":"CAL 177 HD","Routes":"31, 38, 44"},{"StopId":854,"Code":"Q1 002","Name":"Lê Thị Hồng Gấm","StopType":"Trụ dừng","Zone":"Quận 1","Ward":null,"AddressNo":"134 (đối diện 141)","Street":"Calmette","SupportDisability":"","Status":"Đang khai thác","Lng":106.698334,"Lat":10.769178,"Search":"LTHG 134(d141) C","Routes":"44"},{"StopId":7264,"Code":"Q1 178","Name":"Trạm Trung chuyển trên đường Hàm Nghi","StopType":"Nhà chờ","Zone":"Quận 1","Ward":"Phường Nguyễn Thái Bình","AddressNo":"Hàm nghi 3","Street":"Hàm Nghi","SupportDisability":"Có","Status":"Đang khai thác","Lng":106.700758,"Lat":10.770985,"Search":"TTctdHN Hn3 HN","Routes":"18, 31, 36, 44, 65"},{"StopId":241,"Code":"Q1 105","Name":"Chùa Bà Ấn","StopType":"Trụ dừng","Zone":"Quận 1","Ward":null,"AddressNo":"42","Street":"Trương Định","SupportDisability":"","Status":"Đang khai thác","Lng":106.695839,"Lat":10.772419,"Search":"CBA 42 TD","Routes":"156V, 44, DL02"},{"StopId":2951,"Code":"Q1 106","Name":"Khách sạn Golden","StopType":"Trụ dừng","Zone":"Quận 1","Ward":"Phường Bến Thành","AddressNo":"189 - 191","Street":"Lý Tự Trọng","SupportDisability":"","Status":"Đang khai thác","Lng":106.696228,"Lat":10.773244,"Search":"KsG 189-191 LTT","Routes":"44, 72-2B"},{"StopId":2954,"Code":"Q1 108","Name":"Thư Viện Khoa Học Tổng Hợp","StopType":"Nhà chờ","Zone":"Quận 1","Ward":null,"AddressNo":"69","Street":"Lý Tự Trọng","SupportDisability":"","Status":"Đang khai thác","Lng":106.698853,"Lat":10.775442,"Search":"TVKHTH 69 LTT","Routes":"156D, 44, 72-2B"},{"StopId":2725,"Code":"Q1 109","Name":"Sở Nông nghiệp và Môi trường","StopType":"Nhà chờ","Zone":"Quận 1","Ward":"Phường Bến Nghé","AddressNo":"63","Street":"Lý Tự Trọng","SupportDisability":"","Status":"Đang khai thác","Lng":106.700386,"Lat":10.777108,"Search":"SNnvMt 63 LTT","Routes":"44"},{"StopId":2569,"Code":"Q1 110","Name":"TTTM Vincom","StopType":"Trụ dừng","Zone":"Quận 1","Ward":null,"AddressNo":"47","Street":"Lý Tự Trọng","SupportDisability":"","Status":"Đang khai thác","Lng":106.701721,"Lat":10.778568,"Search":"TV 47 LTT","Routes":"44"},{"StopId":2570,"Code":"Q1 111","Name":"Bệnh viện Nhi Đồng 2","StopType":"Nhà chờ","Zone":"Quận 1","Ward":null,"AddressNo":"23","Street":"Lý Tự Trọng","SupportDisability":"","Status":"Đang khai thác","Lng":106.703629,"Lat":10.780644,"Search":"BvND2 23 LTT","Routes":"44"},{"StopId":2571,"Code":"Q1 112","Name":"Tòa án nhân dân Q1","StopType":"Trụ dừng","Zone":"Quận 1","Ward":null,"AddressNo":"3B","Street":"Lý Tự Trọng","SupportDisability":"","Status":"Đang khai thác","Lng":106.705338,"Lat":10.782521,"Search":"TandQ 3B LTT","Routes":"44"},{"StopId":7803,"Code":"Q1 026","Name":"Ba Son","StopType":"Ô sơn","Zone":"Quận 1","Ward":"Phường Bến Nghé","AddressNo":"Đối diện số 2","Street":"Tôn Đức Thắng","SupportDisability":"Có","Status":"Đang khai thác","Lng":106.706815,"Lat":10.781625,"Search":"BS Dds2 TDT","Routes":"44, 53, 56, 88"},{"StopId":1094,"Code":"Q1 027","Name":"Ba Son","StopType":"Ô sơn","Zone":"Quận 1","Ward":null,"AddressNo":"2","Street":"Tôn Đức Thắng","SupportDisability":"","Status":"Đang khai thác","Lng":106.706922,"Lat":10.781804,"Search":"BS 2 TDT","Routes":"44, 53, 56, 88"},{"StopId":2572,"Code":"Q1 032","Name":"Nguyễn Hữu Cảnh","StopType":"Nhà chờ","Zone":"Quận 1","Ward":null,"AddressNo":"Cây xanh số 15","Street":"Nguyễn Hữu Cảnh","SupportDisability":"","Status":"Đang khai thác","Lng":106.707222,"Lat":10.78328,"Search":"NHC Cxs15 NHC","Routes":"44, 53, 56, 88"},{"StopId":2573,"Code":"Q1 033","Name":"Mầm non Hoa Lư","StopType":"Trụ dừng","Zone":"Quận 1","Ward":null,"AddressNo":"2A","Street":"Nguyễn Hữu Cảnh","SupportDisability":"","Status":"Đang khai thác","Lng":106.708628,"Lat":10.785077,"Search":"MnHL 2A NHC","Routes":"30, 44, 53, 56, 88"},{"StopId":2579,"Code":"QBTH 077","Name":"Hồ Bơi Hải Quân","StopType":"Trụ dừng","Zone":"Quận Bình Thạnh","Ward":null,"AddressNo":"18","Street":"Nguyễn Hữu Cảnh","SupportDisability":"","Status":"Đang khai thác","Lng":106.710779,"Lat":10.789113,"Search":"HBHQ 18 NHC","Routes":"30, 44, 53, 56, 88"},{"StopId":2955,"Code":"QBTH 080","Name":"Cầu vượt Thủ Thiêm","StopType":"Trụ dừng","Zone":"Quận Bình Thạnh","Ward":null,"AddressNo":"173","Street":"Ngô Tất Tố","SupportDisability":"","Status":"Đang khai thác","Lng":106.714904,"Lat":10.791021,"Search":"CvTT 173 NTT","Routes":"44"},{"StopId":2953,"Code":"QBTH 081","Name":"Trường Trung học cơ sở Phú Mỹ","StopType":"Trụ dừng","Zone":"Quận Bình Thạnh","Ward":null,"AddressNo":"83","Street":"Ngô Tất Tố","SupportDisability":"","Status":"Đang khai thác","Lng":106.712185,"Lat":10.79266,"Search":"TThcsPM 83 NTT","Routes":"44"},{"StopId":2956,"Code":"QBTH 082","Name":"Đại học Tôn Đức Thắng","StopType":"Ô sơn","Zone":"Quận Bình Thạnh","Ward":null,"AddressNo":"15","Street":"Ngô Tất Tố","SupportDisability":"","Status":"Đang khai thác","Lng":106.709776,"Lat":10.793281,"Search":"DhTDT 15 NTT","Routes":"44"},{"StopId":2957,"Code":"QBTH 067","Name":"Trường khiếm thính Hy vọng","StopType":"Trụ dừng","Zone":"Quận Bình Thạnh","Ward":null,"AddressNo":"Đối diện 9","Street":"Nguyễn Văn Lạc","SupportDisability":"","Status":"Đang khai thác","Lng":106.70969,"Lat":10.794119,"Search":"TktHv Dd9 NVL","Routes":"44"},{"StopId":297,"Code":"QBTH 125","Name":"Trung tâm Dưỡng Lão","StopType":"Trụ dừng","Zone":"Quận Bình Thạnh","Ward":null,"AddressNo":"138","Street":"Xô Viết Nghệ Tĩnh","SupportDisability":"","Status":"Đang khai thác","Lng":106.71057,"Lat":10.796533,"Search":"TtDL 138 XVNT","Routes":"05, 06, 14, 19, 44, 52"},{"StopId":300,"Code":"QBTH 124","Name":"Trường trung học Gia Định","StopType":"Trụ dừng","Zone":"Quận Bình Thạnh","Ward":null,"AddressNo":"246","Street":"Xô Viết Nghệ Tĩnh","SupportDisability":"","Status":"Đang khai thác","Lng":106.711203,"Lat":10.798999,"Search":"TthGD 246 XVNT","Routes":"05, 06, 14, 19, 44, 52"},{"StopId":299,"Code":"QBTH 123","Name":"Ngã Ba Hàng Xanh","StopType":"Biển treo","Zone":"Quận Bình Thạnh","Ward":null,"AddressNo":"334-336","Street":"Xô Viết Nghệ Tĩnh","SupportDisability":"","Status":"Đang khai thác","Lng":106.711509,"Lat":10.803262,"Search":"NBHX 334-336 XVNT","Routes":"05, 08, 14, 146, 161, 171, 19, 24, 44, 45, 60-3, 67, 91, 93"},{"StopId":302,"Code":"QBTH 122","Name":"Đài Liệt sĩ","StopType":"Biển treo","Zone":"Quận Bình Thạnh","Ward":null,"AddressNo":"504","Street":"Xô Viết Nghệ Tĩnh","SupportDisability":"","Status":"Đang khai thác","Lng":106.711965,"Lat":10.808831,"Search":"DLs 504 XVNT","Routes":"05, 08, 14, 146, 158, 161, 171, 19, 24, 43, 44, 45, 60-3, 67, 91, 93"},{"StopId":2959,"Code":"QBTH 011","Name":"Chùa Bửu Liên","StopType":"Trụ dừng","Zone":"Quận Bình Thạnh","Ward":null,"AddressNo":"256 (572)","Street":"Xô Viết Nghệ Tĩnh","SupportDisability":"","Status":"Đang khai thác","Lng":106.713719,"Lat":10.810807,"Search":"CBL 256( XVNT","Routes":"158, 44"},{"StopId":2958,"Code":"QBTH 012","Name":"Coop Mart Cầu kinh","StopType":"Trụ dừng","Zone":"Quận Bình Thạnh","Ward":null,"AddressNo":"664-666","Street":"Xô Viết Nghệ Tĩnh","SupportDisability":"","Status":"Đang khai thác","Lng":106.71536,"Lat":10.812246,"Search":"CMCk 664-666 XVNT","Routes":"158, 44"},{"StopId":2961,"Code":"QBTH 014","Name":"Chung cư Thanh Đa","StopType":"Nhà chờ","Zone":"Quận Bình Thạnh","Ward":null,"AddressNo":"0011 Lô A","Street":"Bình Quới","SupportDisability":"","Status":"Đang khai thác","Lng":106.720762,"Lat":10.817109,"Search":"CcTD 0011LA BQ","Routes":"44"},{"StopId":2962,"Code":"QBTH 015","Name":"Chung cư Thanh Đa","StopType":"Nhà chờ","Zone":"Quận Bình Thạnh","Ward":null,"AddressNo":"0053 Lô B","Street":"Bình Quới","SupportDisability":"","Status":"Đang khai thác","Lng":106.722662,"Lat":10.818083,"Search":"CcTD 0053LB BQ","Routes":"44"},{"StopId":2963,"Code":"QBTH 016","Name":"Trung tâm TDTT Thanh Đa","StopType":"Trụ dừng","Zone":"Quận Bình Thạnh","Ward":null,"AddressNo":"256A","Street":"Bình Quới","SupportDisability":"","Status":"Đang khai thác","Lng":106.726961,"Lat":10.820351,"Search":"TtTTD 256A BQ","Routes":"44"},{"StopId":2964,"Code":"QBTH 017","Name":"Hồ bơi Misha","StopType":"Trụ dừng","Zone":"Quận Bình Thạnh","Ward":null,"AddressNo":"298","Street":"Bình Quới","SupportDisability":"","Status":"Đang khai thác","Lng":106.728757,"Lat":10.821321,"Search":"HbM 298 BQ","Routes":"44"},{"StopId":2965,"Code":"QBTH 018","Name":"Trung tâm cai nghiện Ma túy","StopType":"Trụ dừng","Zone":"Quận Bình Thạnh","Ward":null,"AddressNo":"330","Street":"Bình Quới","SupportDisability":"","Status":"Đang khai thác","Lng":106.730847,"Lat":10.822578,"Search":"TtcnMt 330 BQ","Routes":"44"},{"StopId":2968,"Code":"QBTH 019","Name":"UBND Phường 28, Quận Bình Thạnh","StopType":"Trụ dừng","Zone":"Quận Bình Thạnh","Ward":null,"AddressNo":"392","Street":"Bình Quới","SupportDisability":"","Status":"Đang khai thác","Lng":106.733283,"Lat":10.824117,"Search":"UP28,QBT 392 BQ","Routes":"44"},{"StopId":2966,"Code":"QBTH 020","Name":"Chợ Bình Quới","StopType":"Ô sơn","Zone":"Quận Bình Thạnh","Ward":null,"AddressNo":"456","Street":"Bình Quới","SupportDisability":"","Status":"Đang khai thác","Lng":106.736146,"Lat":10.826516,"Search":"CBQ 456 BQ","Routes":"44"},{"StopId":2970,"Code":"QBTH 021","Name":"Khu du lịch Bình Quới","StopType":"Trụ dừng","Zone":"Quận Bình Thạnh","Ward":null,"AddressNo":"520","Street":"Bình Quới","SupportDisability":"","Status":"Đang khai thác","Lng":106.737912,"Lat":10.828332,"Search":"KdlBQ 520 BQ","Routes":"44"},{"StopId":2967,"Code":"QBTH 022","Name":"Nhà hàng Hàn Quốc","StopType":"Ô sơn","Zone":"Quận Bình Thạnh","Ward":null,"AddressNo":"546B - 546C","Street":"Bình Quới","SupportDisability":"","Status":"Đang khai thác","Lng":106.740333,"Lat":10.829793,"Search":"NhHQ 546B-546C BQ","Routes":"44"},{"StopId":2972,"Code":"BX45","Name":"Bến đò Bình Quới","StopType":"Bến xe","Zone":"Quận Bình Thạnh","Ward":null,"AddressNo":"ĐẦU BẾN BẾN ĐÒ BÌNH QUỚI","Street":"Bình Quới","SupportDisability":"","Status":"Đang khai thác","Lng":106.742713,"Lat":10.831815,"Search":"BdBQ DBBDBQ BQ","Routes":"44"}]