[{"StopId":1088,"Code":"BX 71","Name":"Cầu Kênh Lộ","StopType":"Bến xe","Zone":"Huyện Nhà Bè","Ward":"Xã Hiệp Phước","AddressNo":"Đầu bến kênh lộ","Street":"Nguyễn Văn Tạo","SupportDisability":"","Status":"Đang khai thác","Lng":106.742727,"Lat":10.598307,"Search":"CKL Dbkl NVT","Routes":"110, 72"},{"StopId":1118,"Code":"HNB 060","Name":"Nhà Tưởng niệm Liệt sỹ Nhà Bè","StopType":"Ô sơn","Zone":"Huyện Nhà Bè","Ward":null,"AddressNo":"Đối diện Nghĩa trang liệt sỹ Nhà Bè","Street":"Nguyễn Văn Tạo","SupportDisability":"","Status":"Đang khai thác","Lng":106.741308,"Lat":10.604189,"Search":"NTnLsNB DdNtlsNB NVT","Routes":"110, 72"},{"StopId":1119,"Code":"HNB 059","Name":"Chùa Phước Linh","StopType":"Trụ dừng","Zone":"Huyện Nhà Bè","Ward":null,"AddressNo":"1095","Street":"Nguyễn Văn Tạo","SupportDisability":"","Status":"Đang khai thác","Lng":106.740074,"Lat":10.610005,"Search":"CPL 1095 NVT","Routes":"110, 72"},{"StopId":1121,"Code":"HNB 058","Name":"Công an xã Hiệp Phước","StopType":"Trụ dừng","Zone":"Huyện Nhà Bè","Ward":null,"AddressNo":"1244 (Cửa sắt Ba Thủy)","Street":"Nguyễn Văn Tạo","SupportDisability":"","Status":"Đang khai thác","Lng":106.739157,"Lat":10.617645,"Search":"CaxHP 1244(sBT NVT","Routes":"110, 72"},{"StopId":1120,"Code":"HNB 057","Name":"Giáo xứ Tin Mừng","StopType":"Trụ dừng","Zone":"Huyện Nhà Bè","Ward":null,"AddressNo":"Kế 919 (1733)","Street":"Nguyễn Văn Tạo","SupportDisability":"","Status":"Đang khai thác","Lng":106.738159,"Lat":10.622153,"Search":"GxTM K919( NVT","Routes":"110, 72"},{"StopId":1122,"Code":"HNB 064","Name":"Thành Công","StopType":"Trụ dừng","Zone":"Huyện Nhà Bè","Ward":null,"AddressNo":"849 (280)","Street":"Nguyễn Văn Tạo","SupportDisability":"","Status":"Đang khai thác","Lng":106.73737,"Lat":10.626002,"Search":"TC 849( NVT","Routes":"110, 72"},{"StopId":1123,"Code":"HNB 055","Name":"Ngã tư Long Hậu","StopType":"Trụ dừng","Zone":"Huyện Nhà Bè","Ward":null,"AddressNo":"921","Street":"Nguyễn Văn Tạo","SupportDisability":"","Status":"Đang khai thác","Lng":106.736104,"Lat":10.631169,"Search":"NtLH 921 NVT","Routes":"110, 72"},{"StopId":1125,"Code":"HNB 053","Name":"Cầu Hiệp Phước","StopType":"Trụ dừng","Zone":"Huyện Nhà Bè","Ward":null,"AddressNo":"78/4","Street":"Nguyễn Văn Tạo","SupportDisability":"","Status":"Đang khai thác","Lng":106.735364,"Lat":10.634638,"Search":"CHP 78/4 NVT","Routes":"110, 72"},{"StopId":7306,"Code":"HNB_098","Name":"Chợ tạm","StopType":"Trụ dừng","Zone":"Huyện Nhà Bè","Ward":"Xã Long Thới","AddressNo":"26","Street":"Nguyễn Văn Tạo","SupportDisability":"Có","Status":"Đang khai thác","Lng":106.733948,"Lat":10.63952,"Search":"Ct 26 NVT","Routes":"110, 72"},{"StopId":1126,"Code":"HNB 052","Name":"Trung tâm dạy nghề","StopType":"Trụ dừng","Zone":"Huyện Nhà Bè","Ward":null,"AddressNo":"189","Street":"Nguyễn Văn Tạo","SupportDisability":"","Status":"Đang khai thác","Lng":106.732677,"Lat":10.643189,"Search":"Ttdn 189 NVT","Routes":"110, 72"},{"StopId":1129,"Code":"HNB 051","Name":"Công ty may Đại Sơn","StopType":"Trụ dừng","Zone":"Huyện Nhà Bè","Ward":null,"AddressNo":"617","Street":"Nguyễn Văn Tạo","SupportDisability":"","Status":"Đang khai thác","Lng":106.731384,"Lat":10.64717,"Search":"CtmDS 617 NVT","Routes":"110, 72"},{"StopId":1130,"Code":"HNB 050","Name":"Chợ Bà Chồi","StopType":"Trụ dừng","Zone":"Huyện Nhà Bè","Ward":null,"AddressNo":"78A","Street":"Nguyễn Văn Tạo","SupportDisability":"","Status":"Đang khai thác","Lng":106.730461,"Lat":10.650117,"Search":"CBC 78A NVT","Routes":"110, 72"},{"StopId":1127,"Code":"HNB 049","Name":"Bệnh viện Nhân Tâm","StopType":"Trụ dừng","Zone":"Huyện Nhà Bè","Ward":null,"AddressNo":"Kế 205 (155)","Street":"Nguyễn Văn Tạo","SupportDisability":"","Status":"Đang khai thác","Lng":106.729415,"Lat":10.653391,"Search":"BvNT K205( NVT","Routes":"110, 72"},{"StopId":1128,"Code":"HNB 048","Name":"Trường Long Thới","StopType":"Trụ dừng","Zone":"Huyện Nhà Bè","Ward":null,"AddressNo":"Đối diện CA H.Nhà Bè","Street":"Nguyễn Văn Tạo","SupportDisability":"","Status":"Đang khai thác","Lng":106.728203,"Lat":10.657133,"Search":"TLT DdCHB NVT","Routes":"110, 72"},{"StopId":7593,"Code":"HNB 157","Name":"Trạm radar thời tiết Nhà Bè","StopType":"Trụ dừng","Zone":"Huyện Nhà Bè","Ward":"Xã Long Thới","AddressNo":"Đối diện 198","Street":"Nguyễn Văn Tạo","SupportDisability":"Có","Status":"Đang khai thác","Lng":106.7272,"Lat":10.660503,"Search":"TrttNB Dd198 NVT","Routes":"110, 72"},{"StopId":1131,"Code":"HNB 047","Name":"Hàng Tre","StopType":"Trụ dừng","Zone":"Huyện Nhà Bè","Ward":null,"AddressNo":"137","Street":"Nguyễn Văn Tạo","SupportDisability":"","Status":"Đang khai thác","Lng":106.726213,"Lat":10.663465,"Search":"HT 137 NVT","Routes":"110, 72"},{"StopId":1133,"Code":"HNB 037","Name":"Cầu Bà Chiêm ","StopType":"Trụ dừng","Zone":"Huyện Nhà Bè","Ward":null,"AddressNo":"303/12 (4/39)","Street":"Nguyễn Bình","SupportDisability":"","Status":"Đang khai thác","Lng":106.724576,"Lat":10.671605,"Search":"CBC 303/12( NB","Routes":"110"},{"StopId":1134,"Code":"HNB 038","Name":"Cầu Mương Chuối","StopType":"Trụ dừng","Zone":"Huyện Nhà Bè","Ward":null,"AddressNo":"525 (13/4)","Street":"Nguyễn Bình","SupportDisability":"","Status":"Đang khai thác","Lng":106.729568,"Lat":10.672733,"Search":"CMC 525( NB","Routes":"110"},{"StopId":1135,"Code":"HNB 039","Name":"Ủy ban huyện Nhà Bè","StopType":"Trụ dừng","Zone":"Huyện Nhà Bè","Ward":null,"AddressNo":"Đối diện UBND H.Nhà Bè","Street":"Nguyễn Bình","SupportDisability":"","Status":"Đang khai thác","Lng":106.734243,"Lat":10.67375,"Search":"?bhNB DdUHB NB","Routes":"110"},{"StopId":1136,"Code":"HNB 040","Name":"Trường tiểu học Nguyễn Bình","StopType":"Trụ dừng","Zone":"Huyện Nhà Bè","Ward":null,"AddressNo":"Đ/d 274A (1/2)","Street":"Nguyễn Bình","SupportDisability":"","Status":"Đang khai thác","Lng":106.737968,"Lat":10.6746,"Search":"TthNB D274A( NB","Routes":"110"},{"StopId":1137,"Code":"HNB 041","Name":"Đình Đức Hưng Thạnh","StopType":"Trụ dừng","Zone":"Huyện Nhà Bè","Ward":null,"AddressNo":"247 (Trường Nguyễn Bình)","Street":"Nguyễn Bình","SupportDisability":"","Status":"Đang khai thác","Lng":106.741814,"Lat":10.675433,"Search":"DDHT 247(NB NB","Routes":"110"},{"StopId":1140,"Code":"HNB 042","Name":"Nguyễn Bình","StopType":"Trụ dừng","Zone":"Huyện Nhà Bè","Ward":null,"AddressNo":"290 (209-233)","Street":"Nguyễn Bình","SupportDisability":"","Status":"Đang khai thác","Lng":106.744034,"Lat":10.67595,"Search":"NB 290( NB","Routes":"110"},{"StopId":1138,"Code":"HNB 043","Name":"Đại lý bảo hiểm xe máy","StopType":"Trụ dừng","Zone":"Huyện Nhà Bè","Ward":null,"AddressNo":"91","Street":"Nguyễn Bình","SupportDisability":"","Status":"Đang khai thác","Lng":106.747353,"Lat":10.67668,"Search":"Dlbhxm 91 NB","Routes":"110"},{"StopId":1139,"Code":"HNB 044","Name":"Ngã Ba Bờ Đăng","StopType":"Trụ dừng","Zone":"Huyện Nhà Bè","Ward":null,"AddressNo":"12/11A","Street":"Nguyễn Bình","SupportDisability":"","Status":"Đang khai thác","Lng":106.751465,"Lat":10.6776,"Search":"NBBD 12/11A NB","Routes":"110"},{"StopId":1141,"Code":"HNB 020","Name":"Công Tiến Thọ","StopType":"Trụ dừng","Zone":"Huyện Nhà Bè","Ward":"Xã Phú Xuân","AddressNo":"2479 (19/8B)","Street":"Huỳnh Tấn Phát","SupportDisability":"","Status":"Đang khai thác","Lng":106.75071,"Lat":10.679507,"Search":"CTT 2479( HTP","Routes":"110, 20, 75"},{"StopId":1143,"Code":"HNB 021","Name":"Đào Tông Nguyên","StopType":"Trụ dừng","Zone":"Huyện Nhà Bè","Ward":"Xã Phú Xuân","AddressNo":"23/3","Street":"Huỳnh Tấn Phát","SupportDisability":"","Status":"Đang khai thác","Lng":106.746994,"Lat":10.681985,"Search":"DTN 23/3 HTP","Routes":"110, 20, 75"},{"StopId":1142,"Code":"HNB 022","Name":"Chùa Pháp Võ","StopType":"Trụ dừng","Zone":"Huyện Nhà Bè","Ward":"Xã Phú Xuân","AddressNo":"27/1B","Street":"Huỳnh Tấn Phát","SupportDisability":"","Status":"Đang khai thác","Lng":106.745476,"Lat":10.684125,"Search":"CPV 27/1B HTP","Routes":"110, 20, 75"},{"StopId":1144,"Code":"HNB 023","Name":"Ngân hàng Agribank","StopType":"Nhà chờ","Zone":"Huyện Nhà Bè","Ward":"Thị trấn Nhà Bè","AddressNo":"18","Street":"Huỳnh Tấn Phát","SupportDisability":"","Status":"Đang khai thác","Lng":106.743202,"Lat":10.687393,"Search":"NhA 18 HTP","Routes":"110, 20, 75"},{"StopId":1145,"Code":"HNB 024","Name":"Chùa Lá","StopType":"Trụ dừng","Zone":"Huyện Nhà Bè","Ward":"Thị trấn Nhà Bè","AddressNo":"2213","Street":"Huỳnh Tấn Phát","SupportDisability":"","Status":"Đang khai thác","Lng":106.741909,"Lat":10.68996,"Search":"CL 2213 HTP","Routes":"110, 20, 75"},{"StopId":1146,"Code":"HNB 025","Name":"Trường Lâm Văn Bền","StopType":"Trụ dừng","Zone":"Huyện Nhà Bè","Ward":"Xã Phú Xuân","AddressNo":"638","Street":"Huỳnh Tấn Phát","SupportDisability":"","Status":"Đang khai thác","Lng":106.740723,"Lat":10.693397,"Search":"TLVB 638 HTP","Routes":"110, 20, 75"},{"StopId":1150,"Code":"HNB 027","Name":"Công An Thị Trấn Nhà Bè","StopType":"Trụ dừng","Zone":"Huyện Nhà Bè","Ward":"Thị trấn Nhà Bè","AddressNo":"2049","Street":"Huỳnh Tấn Phát","SupportDisability":"","Status":"Đang khai thác","Lng":106.740026,"Lat":10.695332,"Search":"CATTNB 2049 HTP","Routes":"110, 20, 75"},{"StopId":1148,"Code":"HNB 026","Name":"Nha khoa Khánh Minh","StopType":"Trụ dừng","Zone":"Huyện Nhà Bè","Ward":"Thị trấn Nhà Bè","AddressNo":"1758","Street":"Huỳnh Tấn Phát","SupportDisability":"","Status":"Đang khai thác","Lng":106.738996,"Lat":10.698273,"Search":"NkKM 1758 HTP","Routes":"110, 20, 75"},{"StopId":1059,"Code":"HNB 002","Name":"Chợ Phú Xuân","StopType":"Trụ dừng","Zone":"Huyện Nhà Bè","Ward":"Thị trấn Nhà Bè","AddressNo":"1809-1811","Street":"Huỳnh Tấn Phát","SupportDisability":"","Status":"Đang khai thác","Lng":106.738315,"Lat":10.70114,"Search":"CPX 1809-1811 HTP","Routes":"110, 20"},{"StopId":1149,"Code":"Q7 168","Name":"Khu dân cư Kỹ Nguyên","StopType":"Trụ dừng","Zone":"Quận 7","Ward":null,"AddressNo":"Trường Tiểu học Phú Mỹ","Street":"Phạm Hữu Lầu","SupportDisability":"","Status":"Đang khai thác","Lng":106.735246,"Lat":10.704941,"Search":"KdcKN TThPM PHL","Routes":"110, 139"},{"StopId":7162,"Code":"Q7 192","Name":"Đường 15B","StopType":"Nhà chờ","Zone":"Quận 7","Ward":"Phường Phú Mỹ","AddressNo":"Gần cây xanh 160 (246)","Street":"Phạm Hữu Lầu","SupportDisability":"Có","Status":"Đang khai thác","Lng":106.730171,"Lat":10.70435,"Search":"D15B Gcx160( PHL","Routes":"110"},{"StopId":7170,"Code":"HNB 141","Name":"Cầu Phước Long","StopType":"Ô sơn","Zone":"Huyện Nhà Bè","Ward":"Xã Phước Kiển","AddressNo":"360","Street":"Phạm Hữu Lầu","SupportDisability":"Có","Status":"Đang khai thác","Lng":106.721985,"Lat":10.702506,"Search":"CPL 360 PHL","Routes":"110"},{"StopId":7168,"Code":"HNB 139","Name":"Nguyễn Hữu Thọ","StopType":"Ô sơn","Zone":"Huyện Nhà Bè","Ward":"Xã Phước Kiển","AddressNo":"292B","Street":"Phạm Hữu Lầu","SupportDisability":"Có","Status":"Đang khai thác","Lng":106.718633,"Lat":10.697598,"Search":"NHT 292B PHL","Routes":"110"},{"StopId":7166,"Code":"HNB 137","Name":"Phạm Hữu Lầu","StopType":"Ô sơn","Zone":"Huyện Nhà Bè","Ward":"Xã Phước Kiển","AddressNo":"Đối diện trụ điện 57T","Street":"Phạm Hữu Lầu","SupportDisability":"Có","Status":"Đang khai thác","Lng":106.707104,"Lat":10.694588,"Search":"PHL Ddtd57T PHL","Routes":"110"},{"StopId":2818,"Code":"HNB 092","Name":"Thu Liễu","StopType":"Ô sơn","Zone":"Huyện Nhà Bè","Ward":"Xã Phước Kiển","AddressNo":"1193","Street":"Lê Văn Lương","SupportDisability":"","Status":"Đang khai thác","Lng":106.70431,"Lat":10.700297,"Search":"TL 1193 LVL","Routes":"110, 86"},{"StopId":2820,"Code":"HNB 091","Name":"Bệnh viện huyện Nhà Bè","StopType":"Ô sơn","Zone":"Huyện Nhà Bè","Ward":null,"AddressNo":"113","Street":"Lê Văn Lương","SupportDisability":"","Status":"Đang khai thác","Lng":106.703687,"Lat":10.704593,"Search":"BvhNB 113 LVL","Routes":"110, 86"},{"StopId":2819,"Code":"HNB 090","Name":"Ngọc Lâm","StopType":"Ô sơn","Zone":"Huyện Nhà Bè","Ward":"Xã Phước Kiển","AddressNo":"217","Street":"Lê Văn Lương","SupportDisability":"","Status":"Đang khai thác","Lng":106.702759,"Lat":10.708631,"Search":"NL 217 LVL","Routes":"110, 86"},{"StopId":2822,"Code":"HNB 089","Name":"Đào Sư Tích","StopType":"Ô sơn","Zone":"Huyện Nhà Bè","Ward":"Xã Phước Kiển","AddressNo":"109","Street":"Lê Văn Lương","SupportDisability":"","Status":"Đang khai thác","Lng":106.701202,"Lat":10.713317,"Search":"DST 109 LVL","Routes":"110, 86"},{"StopId":7164,"Code":"HNB 135","Name":"Trường THCS Lê Thành Công","StopType":"Ô sơn","Zone":"Huyện Nhà Bè","Ward":"Xã Phước Kiển","AddressNo":"Đối diện 290 (106A)","Street":"Đào Sư Tích","SupportDisability":"Có","Status":"Đang khai thác","Lng":106.696537,"Lat":10.712173,"Search":"TTLTC Dd290( DST","Routes":"110"},{"StopId":7766,"Code":"HNB 136-1","Name":"Đào sư Tích","StopType":"Trụ dừng","Zone":"Huyện Nhà Bè","Ward":"Thị trấn Nhà Bè","AddressNo":"274-276","Street":"Đào sư Tích","SupportDisability":"Có","Status":"Đang khai thác","Lng":106.688147,"Lat":10.707268,"Search":"DsT 274-276 DsT","Routes":"110"},{"StopId":7772,"Code":"HNB 139-1","Name":"Đào sư Tích","StopType":"Trụ dừng","Zone":"Huyện Nhà Bè","Ward":"Thị trấn Nhà Bè","AddressNo":"404","Street":"Đào sư Tích","SupportDisability":"Có","Status":"Đang khai thác","Lng":106.68613,"Lat":10.699944,"Search":"DsT 404 DsT","Routes":"110"},{"StopId":7767,"Code":"HNB 138-1","Name":"Đào sư Tích","StopType":"Trụ dừng","Zone":"Huyện Nhà Bè","Ward":"Thị trấn Nhà Bè","AddressNo":"328","Street":"Đào sư Tích","SupportDisability":"Có","Status":"Đang khai thác","Lng":106.685207,"Lat":10.697509,"Search":"DsT 328 DsT","Routes":"110"},{"StopId":7769,"Code":"HNB 140-1","Name":"Đào sư Tích","StopType":"Trụ dừng","Zone":"Huyện Nhà Bè","Ward":"Thị trấn Nhà Bè","AddressNo":"464","Street":"Đào sư Tích","SupportDisability":"Có","Status":"Đang khai thác","Lng":106.684928,"Lat":10.696749,"Search":"DsT 464 DsT","Routes":"110"},{"StopId":7761,"Code":"HNB 01009","Name":"Đào sư Tích","StopType":"Trụ dừng","Zone":"Huyện Nhà Bè","Ward":"Thị trấn Nhà Bè","AddressNo":"ĐDTrường Tiểu Học Bùi Thanh Khiết","Street":"Đào sư Tích","SupportDisability":"Có","Status":"Đang khai thác","Lng":106.682589,"Lat":10.688294,"Search":"DsT DTHBTK DsT","Routes":"110"},{"StopId":7771,"Code":"TĐC_110","Name":"Bến Đò Ấp 3","StopType":"Bến xe","Zone":"Huyện Nhà Bè","Ward":"Thị trấn Nhà Bè","AddressNo":"Bến Đò Bảy Bé","Street":"Đào sư Tích","SupportDisability":"Có","Status":"Đang khai thác","Lng":106.680422,"Lat":10.683698,"Search":"BDA3 BDBB DsT","Routes":"110"}]