[{"StopId":1945,"Code":"BX 50","Name":"Sân bay Tân Sơn Nhất","StopType":"Bến xe","Zone":"Quận Tân Bình","Ward":null,"AddressNo":"Sân bay Tân Sơn Nhất","Street":"Trường Sơn_QTB","SupportDisability":"","Status":"Đang khai thác","Lng":106.66383,"Lat":10.815592,"Search":"SbTSN SbTSN TS","Routes":"103, 152, 72-1, 72-2B"},{"StopId":7807,"Code":"QTB 162","Name":"Ga Quốc nội Sân bay Tân Sơn Nhất","StopType":"Biển treo","Zone":"Quận Tân Bình","Ward":null,"AddressNo":"Cột B06 - B09","Street":"Làn B - Ga Quốc nội","SupportDisability":"Có","Status":"Đang khai thác","Lng":106.66281,"Lat":10.813927,"Search":"GQnSbTSN CB-B LB-GQn","Routes":"103, 152, 72-1, 72-2B"},{"StopId":995,"Code":"QTB 012","Name":"Trường Ngô Sỹ Liên","StopType":"Nhà chờ","Zone":"Quận Tân Bình","Ward":null,"AddressNo":"53","Street":"Trường Sơn","SupportDisability":"","Status":"Đang khai thác","Lng":106.664673,"Lat":10.810257,"Search":"TNSL 53 TS","Routes":"103, 152, 63-1, 72-2B"},{"StopId":997,"Code":"QTB 013","Name":"Siêu thị Super Bow","StopType":"Nhà chờ","Zone":"Quận Tân Bình","Ward":null,"AddressNo":"Siêu thị super Bow","Street":"Trường Sơn","SupportDisability":"","Status":"Đang khai thác","Lng":106.66449,"Lat":10.808049,"Search":"StSB StsB TS","Routes":"103, 152, 63-1, 72-2B"},{"StopId":999,"Code":"QTB 109","Name":"Trần Quốc Hoàn","StopType":"Nhà chờ","Zone":"Quận Tân Bình","Ward":null,"AddressNo":"65","Street":"Trần Quốc Hoàn","SupportDisability":"","Status":"Đang khai thác","Lng":106.663925,"Lat":10.803644,"Search":"TQH 65 TQH","Routes":"103, 148, 152, 50, 59, 63-1, 72-2B"},{"StopId":258,"Code":"QTB 107","Name":"Vòng xoay Lăng Cha Cả","StopType":"Nhà chờ","Zone":"Quận Tân Bình","Ward":null,"AddressNo":"20","Street":"Trần Quốc Hoàn","SupportDisability":"","Status":"Đang khai thác","Lng":106.662312,"Lat":10.801365,"Search":"VxLCC 20 TQH","Routes":"04, 08, 103, 104, 148, 152, 50, 59, 63-1, 64, 72-2B"},{"StopId":186,"Code":"QTB 037","Name":"Bảo Tàng Miền Đông","StopType":"Nhà chờ","Zone":"Quận Tân Bình","Ward":null,"AddressNo":"247","Street":"Hoàng Văn Thụ","SupportDisability":"","Status":"Đang khai thác","Lng":106.666372,"Lat":10.800237,"Search":"BTMD 247 HVT","Routes":"04, 08, 104, 109, 152, 63-1, 64, 72-2B"},{"StopId":188,"Code":"QPN 043","Name":"Cây xăng Quân khu 7","StopType":"Trụ dừng","Zone":"Quận Phú Nhuận","Ward":null,"AddressNo":"307","Street":"Nguyễn Văn Trỗi","SupportDisability":"","Status":"Đang khai thác","Lng":106.66847,"Lat":10.799589,"Search":"CxQk7 307 NVT","Routes":"04, 109, 152, 72-2B"},{"StopId":190,"Code":"QPN 044","Name":"Bệnh viện Quận Phú Nhuận","StopType":"Trụ dừng","Zone":"Quận Phú Nhuận","Ward":null,"AddressNo":"279","Street":"Nguyễn Văn Trỗi","SupportDisability":"","Status":"Đang khai thác","Lng":106.670744,"Lat":10.798282,"Search":"BvQPN 279 NVT","Routes":"04, 109, 152, 72-2B"},{"StopId":191,"Code":"QPN 045","Name":"Cổng Xe lửa","StopType":"Trụ dừng","Zone":"Quận Phú Nhuận","Ward":null,"AddressNo":"253","Street":"Nguyễn Văn Trỗi","SupportDisability":"","Status":"Đang khai thác","Lng":106.673609,"Lat":10.796596,"Search":"CXl 253 NVT","Routes":"04, 109, 152, 72-2B"},{"StopId":189,"Code":"QPN 046","Name":"Trung tâm Văn hóa Quận Phú Nhuận","StopType":"Trụ dừng","Zone":"Quận Phú Nhuận","Ward":null,"AddressNo":"157","Street":"Nguyễn Văn Trỗi","SupportDisability":"","Status":"Đang khai thác","Lng":106.675894,"Lat":10.795236,"Search":"TtVhQPN 157 NVT","Routes":"04, 109, 152, 72-2B"},{"StopId":193,"Code":"QPN 047","Name":"Ngã tư Trần Huy Liệu","StopType":"Trụ dừng","Zone":"Quận Phú Nhuận","Ward":null,"AddressNo":"101","Street":"Nguyễn Văn Trỗi","SupportDisability":"","Status":"Đang khai thác","Lng":106.679167,"Lat":10.793276,"Search":"NtTHL 101 NVT","Routes":"04, 109, 152, 72-2B"},{"StopId":192,"Code":"Q3 052","Name":"Chùa Vĩnh Nghiêm","StopType":"Trụ dừng","Zone":"Quận 3","Ward":"Phường 07","AddressNo":"321-323","Street":"Nam Kỳ Khởi Nghĩa","SupportDisability":"","Status":"Đang khai thác","Lng":106.683022,"Lat":10.790381,"Search":"CVN 321-323 NKKN","Routes":"04, 109, 152, 72-1, 72-2B"},{"StopId":196,"Code":"Q3 053","Name":"Trần Quốc Toản","StopType":"Trụ dừng","Zone":"Quận 3","Ward":"Phường 07","AddressNo":"201 F-E","Street":"Nam Kỳ Khởi Nghĩa","SupportDisability":"","Status":"Đang khai thác","Lng":106.686897,"Lat":10.786831,"Search":"TQT 201F NKKN","Routes":"04, 109, 152, 72-2B"},{"StopId":194,"Code":"Q3 054","Name":"Viện Pasteur","StopType":"Nhà chờ","Zone":"Quận 3","Ward":"Phường 07","AddressNo":"179","Street":"Nam Kỳ Khởi Nghĩa","SupportDisability":"","Status":"Đang khai thác","Lng":106.688474,"Lat":10.785351,"Search":"VP 179 NKKN","Routes":"04, 109, 152, 72-2B"},{"StopId":198,"Code":"Q3 055","Name":"Điện Biên Phủ","StopType":"Nhà chờ","Zone":"Quận 3","Ward":null,"AddressNo":"159","Street":"Nam Kỳ Khởi Nghĩa","SupportDisability":"Có","Status":"Đang khai thác","Lng":106.69099,"Lat":10.783116,"Search":"DBP 159 NKKN","Routes":"04, 109, 152, 72-2B"},{"StopId":195,"Code":"Q3 056","Name":"Coop Mart Nguyễn Đình Chiểu","StopType":"Nhà chờ","Zone":"Quận 3","Ward":null,"AddressNo":"143","Street":"Nam Kỳ Khởi Nghĩa","SupportDisability":"","Status":"Đang khai thác","Lng":106.693152,"Lat":10.78113,"Search":"CMNDC 143 NKKN","Routes":"04, 109, 152, 31, 72-2B, 93"},{"StopId":197,"Code":"Q3 057","Name":"Trường THPT Lê Quý Đôn","StopType":"Nhà chờ","Zone":"Quận 3","Ward":null,"AddressNo":"Đối diện 166 - 168","Street":"Nam Kỳ Khởi Nghĩa","SupportDisability":"","Status":"Đang khai thác","Lng":106.69452,"Lat":10.779844,"Search":"TTLQD Dd166-168 NKKN","Routes":"04, 109, 152, 31, 72-2B, 93"},{"StopId":200,"Code":"Q1 075","Name":"Tòa án Nhân dân Thành Phố","StopType":"Nhà chờ","Zone":"Quận 1","Ward":null,"AddressNo":"131","Street":"Nam Kỳ Khởi Nghĩa","SupportDisability":"","Status":"Đang khai thác","Lng":106.698647,"Lat":10.776052,"Search":"TaNdTP 131 NKKN","Routes":"04, 109, 152, 155, 171, 18, 31, 36, 52, 72-2B, 93"},{"StopId":199,"Code":"Q1 076","Name":"Chùa Ông","StopType":"Trụ dừng","Zone":"Quận 1","Ward":null,"AddressNo":"Đối diện 96A","Street":"Nam Kỳ Khởi Nghĩa","SupportDisability":"","Status":"Đang khai thác","Lng":106.699722,"Lat":10.773957,"Search":"CO Dd96A NKKN","Routes":"04, 109, 152, 155, 156D, 171, 18, 31, 36, 44, 52, 93"},{"StopId":201,"Code":"Q1 077","Name":"Trường CĐKT Cao Thắng","StopType":"Trụ dừng","Zone":"Quận 1","Ward":null,"AddressNo":"Đối diện 86","Street":"Nam Kỳ Khởi Nghĩa","SupportDisability":"","Status":"Đang khai thác","Lng":106.700851,"Lat":10.771416,"Search":"TCCT Dd86 NKKN","Routes":"04, 109, 152, 171, 18, 31, 36, 44, 52, 93"},{"StopId":7271,"Code":"Q1 185","Name":"Trạm Trung chuyển trên đường Hàm Nghi","StopType":"Nhà chờ","Zone":"Quận 1","Ward":"Phường Bến Thành","AddressNo":"Hàm Nghi 12 (136)","Street":"Hàm Nghi","SupportDisability":"Có","Status":"Đang khai thác","Lng":106.700002,"Lat":10.771233,"Search":"TTctdHN HN12( HN","Routes":"109, 152"},{"StopId":1944,"Code":"Q1 040","Name":"Khách sạn New world","StopType":"Trụ dừng","Zone":"Quận 1","Ward":"Phường Bến Thành","AddressNo":"40","Street":"Phạm Hồng Thái","SupportDisability":"","Status":"Đang khai thác","Lng":106.695824,"Lat":10.77129,"Search":"KsNw 40 PHT","Routes":"13, 152, 31, 38, 56, 65"},{"StopId":1401,"Code":"Q1 122","Name":"Nguyễn Thị Nghĩa","StopType":"Trụ dừng","Zone":"Quận 1","Ward":"Phường Bến Thành","AddressNo":"26 - 32","Street":"Nguyễn Thị Nghĩa","SupportDisability":"","Status":"Đang khai thác","Lng":106.693588,"Lat":10.770854,"Search":"NTN 26-32 NTN","Routes":"13, 152, 31, 38, 56, 69"},{"StopId":1451,"Code":"Q1 118","Name":"Trần Hưng Đạo","StopType":"Trụ dừng","Zone":"Quận 1","Ward":null,"AddressNo":"197","Street":"Nguyễn Thái Học","SupportDisability":"","Status":"Đang khai thác","Lng":106.694984,"Lat":10.768461,"Search":"THD 197 NTH","Routes":"102, 140, 152, 31, 38, 46, 56, 72"},{"StopId":121,"Code":"Q1 125","Name":"KTX Trần Hưng Đạo","StopType":"Nhà chờ","Zone":"Quận 1","Ward":null,"AddressNo":"10","Street":"Trần Hưng Đạo","SupportDisability":"","Status":"Đang khai thác","Lng":106.694695,"Lat":10.767363,"Search":"KTHD 10 THD","Routes":"01, 139, 152, 45, 56"},{"StopId":122,"Code":"Q1 126","Name":"Rạp Hưng Đạo","StopType":"Nhà chờ","Zone":"Quận 1","Ward":null,"AddressNo":"112","Street":"Trần Hưng Đạo","SupportDisability":"","Status":"Đang khai thác","Lng":106.693375,"Lat":10.765832,"Search":"RHD 112 THD","Routes":"01, 139, 152, 45, 56"},{"StopId":123,"Code":"Q1 127","Name":"Bệnh viện Răng Hàm Mặt","StopType":"Nhà chờ","Zone":"Quận 1","Ward":null,"AddressNo":"150","Street":"Trần Hưng Đạo","SupportDisability":"","Status":"Đang khai thác","Lng":106.691696,"Lat":10.763918,"Search":"BvRHM 150 THD","Routes":"01, 139, 152"},{"StopId":124,"Code":"Q1 128","Name":"Trần Đình Xu","StopType":"Trụ dừng","Zone":"Quận 1","Ward":null,"AddressNo":"210 - 212","Street":"Trần Hưng Đạo","SupportDisability":"","Status":"Đang khai thác","Lng":106.690247,"Lat":10.762262,"Search":"TDX 210-212 THD","Routes":"01, 139, 152"},{"StopId":125,"Code":"Q1 129","Name":"Tổng Cty Samco","StopType":"Nhà chờ","Zone":"Quận 1","Ward":null,"AddressNo":"262","Street":"Trần Hưng Đạo","SupportDisability":"","Status":"Đang khai thác","Lng":106.687798,"Lat":10.759409,"Search":"TCS 262 THD","Routes":"01, 139, 152"},{"StopId":126,"Code":"Q1 130","Name":"Chợ Nanci","StopType":"Trụ dừng","Zone":"Quận 1","Ward":null,"AddressNo":"290-292-292A","Street":"Trần Hưng Đạo","SupportDisability":"","Status":"Đang khai thác","Lng":106.686035,"Lat":10.757467,"Search":"CN 290-292-292A THD","Routes":"01, 139, 152"},{"StopId":1947,"Code":"Q8 047","Name":"Trường Dương Bá Trạc","StopType":"Ô sơn","Zone":"Quận 8","Ward":null,"AddressNo":"158-160","Street":"Dương Bá Trạc","SupportDisability":"","Status":"Đang khai thác","Lng":106.688544,"Lat":10.747844,"Search":"TDBT 158-160 DBT","Routes":"152"},{"StopId":1951,"Code":"Q8 048","Name":"Trường Rạch Ông","StopType":"Trụ dừng","Zone":"Quận 8","Ward":null,"AddressNo":"290A/15","Street":"Dương Bá Trạc","SupportDisability":"","Status":"Đang khai thác","Lng":106.689059,"Lat":10.745009,"Search":"TRO 290A/15 DBT","Routes":"152"},{"StopId":1953,"Code":"HBC 454","Name":"Vòng xoay cầu Him Lam","StopType":"Ô sơn","Zone":"Huyện Bình Chánh","Ward":null,"AddressNo":"28-30 (128)","Street":"Đường 9A","SupportDisability":"","Status":"Đang khai thác","Lng":106.689413,"Lat":10.738057,"Search":"VxcHL 28-30( D9A","Routes":"152"},{"StopId":1936,"Code":"BX 56","Name":"Khu dân cư Trung Sơn","StopType":"Bến xe","Zone":"Huyện Bình Chánh","Ward":"Xã Bình Hưng","AddressNo":"Khu dân cư Trung Sơn","Street":"Đường số 10","SupportDisability":"","Status":"Đang khai thác","Lng":106.689041,"Lat":10.733988,"Search":"KdcTS KdcTS Ds10","Routes":"152"}]