[{"StopId":9355,"Code":"BD BX 0022","Name":"Tòa nhà Becamex Tower","StopType":"Bến xe","Zone":"Bình Dương","Ward":null,"AddressNo":"Tòa nhà Becamex Tower","Street":"Đường nội bộ","SupportDisability":"Có","Status":"Đang khai thác","Lng":106.670509,"Lat":10.975966,"Search":"TnBT TnBT Dnb","Routes":"61-37, 61-38, 61-39, 61-51, 61-52, 61-53, 61-55"},{"StopId":8314,"Code":"BD-0014","Name":"Sân vận động Gò Đậu - Bình Dương","StopType":"Trụ dừng","Zone":"Bình Dương","Ward":null,"AddressNo":"số 256, đường 30/4, Phường Thủ Dầu Một","Street":"đường 30/4","SupportDisability":"","Status":"Đang khai thác","Lng":106.670407,"Lat":10.970443,"Search":"SvdGD-BD s256,d30/4,PTDM d30/4","Routes":"60-15, 60-18, 61-37, 61-38, 61-39, 61-51, 61-52, 61-53"},{"StopId":8316,"Code":"BD-0016","Name":"Bến xe khách tỉnh Bình Dương(Trung tâm gdtx bình dương)","StopType":"Nhà chờ","Zone":"Bình Dương","Ward":null,"AddressNo":"đường 30/4, Phường Thủ Dầu Một","Street":"đường 30/4","SupportDisability":"","Status":"Đang khai thác","Lng":106.669003,"Lat":10.96701,"Search":"BxktBDtgbd d30/4,PTDM d30/4","Routes":"60-18, 61-37, 61-38, 61-39, 61-51, 61-52, 61-53"},{"StopId":8318,"Code":"BD-0018","Name":"Ngã ba Lò Chén","StopType":"Trụ dừng","Zone":"Bình Dương","Ward":null,"AddressNo":"Số 829, đường CMT8, Phường Thủ Dầu Một","Street":"Đường CMT8","SupportDisability":"","Status":"Đang khai thác","Lng":106.660461,"Lat":10.968838,"Search":"NbLC S829,dCPTDM DC","Routes":"60-18, 61-2, 61-4, 61-51, 61-52, 61-53, 61-9"},{"StopId":8888,"Code":"BD-0600","Name":"Nhà Sách Bình Minh","StopType":"Ô sơn","Zone":"Bình Dương","Ward":null,"AddressNo":"Nhà Sách Bình Minh","Street":"Cách mạng tháng 8","SupportDisability":"","Status":"Đang khai thác","Lng":106.657977,"Lat":10.975993,"Search":"NSBM NSBM Cmt8","Routes":"61-53, 61-9"},{"StopId":8322,"Code":"BD-0022","Name":"Công viên Phú Cường","StopType":"Nhà chờ","Zone":"Bình Dương","Ward":null,"AddressNo":"Đối diện số 548, cmt8 , phường Thủ Dầu Một","Street":"CMT8","SupportDisability":"","Status":"Đang khai thác","Lng":106.656222,"Lat":10.978814,"Search":"CvPC Dds548,c,pTDM C","Routes":"60-18, 61-2, 61-4, 61-51, 61-52, 61-53, 61-9"},{"StopId":8324,"Code":"BD-0024","Name":"Chùa Bà Thiên Hậu","StopType":"Nhà chờ","Zone":"Bình Dương","Ward":null,"AddressNo":"Đối diện số 494 - 496, cmt8 , phường Thủ Dầu Một","Street":"CMT8","SupportDisability":"","Status":"Đang khai thác","Lng":106.654247,"Lat":10.98044,"Search":"CBTH Dds494-496,c,pTDM C","Routes":"60-18, 61-2, 61-4, 61-51, 61-52, 61-53, 61-9"},{"StopId":8326,"Code":"BD-0026","Name":"Bệnh viện phụ sản nhi Bình Dương(Ngân hàng Sacombank)","StopType":"Trụ dừng","Zone":"Bình Dương","Ward":null,"AddressNo":"số 425, CMT8, phường Thủ Dầu Một","Street":"CMT8","SupportDisability":"","Status":"Đang khai thác","Lng":106.652674,"Lat":10.983723,"Search":"BvpsnBDhS s425,CpTDM C","Routes":"61-2, 61-51, 61-52, 61-53"},{"StopId":8332,"Code":"BD-0028","Name":"Chợ Cây Dừa","StopType":"Trụ dừng","Zone":"Bình Dương","Ward":null,"AddressNo":"số 183, CMT8, phường Thủ Dầu Một","Street":"CMT8","SupportDisability":"","Status":"Đang khai thác","Lng":106.651073,"Lat":10.990664,"Search":"CCD s183,CpTDM C","Routes":"60-18, 61-2, 61-51, 61-52, 61-53"},{"StopId":8334,"Code":"BD-0030","Name":"Trường trung tiểu học Petrus Ký","StopType":"Trụ dừng","Zone":"Bình Dương","Ward":null,"AddressNo":"số 69, CMT8 , phường Thủ Dầu Một","Street":"CMT8","SupportDisability":"","Status":"Đang khai thác","Lng":106.650485,"Lat":10.99364,"Search":"TtthPK s69,C,pTDM C","Routes":"61-52, 61-53"},{"StopId":8336,"Code":"BD-0032","Name":"Ngã 3 ĐL Bình Dương - Nguyễn Đức Thuận","StopType":"Trụ - hộp thông tin","Zone":"Bình Dương","Ward":null,"AddressNo":"Ngã 3 ĐL Bình Dương - Nguyễn Đức Thuận","Street":"Quốc Lộ 13","SupportDisability":"Có","Status":"Đang khai thác","Lng":106.650794,"Lat":10.995824,"Search":"N3DBD-NDT N3DBD-NDT QL13","Routes":"60-15, 60-18, 61-4, 61-51, 61-52, 61-53"},{"StopId":8347,"Code":"BD-0038","Name":"Thư viện Tỉnh Bình Dương","StopType":"Nhà chờ","Zone":"Bình Dương","Ward":null,"AddressNo":"Thư viện Tỉnh Bình Dương","Street":"Đường Phạm Ngọc Thạch","SupportDisability":"Có","Status":"Chưa khai thác","Lng":106.656125,"Lat":10.993813,"Search":"TvTBD TvTBD DPNT","Routes":"171, 60-18, 61-51, 61-52, 61-53, 61-55"},{"StopId":8350,"Code":"BD-0040","Name":"Bệnh viện Đa khoa Tỉnh Bình Dương","StopType":"Trụ - hộp thông tin","Zone":"Bình Dương","Ward":null,"AddressNo":"Bệnh viện Đa khoa Tỉnh Bình Dương","Street":"Đường Phạm Ngọc Thạch","SupportDisability":"Có","Status":"Đang khai thác","Lng":106.656665,"Lat":10.996328,"Search":"BvDkTBD BvDkTBD DPNT","Routes":"171, 60-18, 61-51, 61-52, 61-53, 61-55"},{"StopId":8352,"Code":"BD-0042","Name":"Ngã ba Phạm Ngọc Thạch - Nguyễn Đức Thuận","StopType":"Trụ - hộp thông tin","Zone":"Bình Dương","Ward":null,"AddressNo":"Ngã ba Phạm Ngọc Thạch - Nguyễn Đức Thuận","Street":"Đường Phạm Ngọc Thạch","SupportDisability":"Có","Status":"Đang khai thác","Lng":106.662973,"Lat":11.001695,"Search":"NbPNT-NDT NbPNT-NDT DPNT","Routes":"171, 61-51, 61-52, 61-53, 61-55"},{"StopId":8354,"Code":"BD-0044","Name":"KDC Hiệp Thành III","StopType":"Trụ - hộp thông tin","Zone":"Bình Dương","Ward":null,"AddressNo":"KDC Hiệp Thành III","Street":"Đường Phạm Ngọc Thạch","SupportDisability":"Có","Status":"Đang khai thác","Lng":106.66616,"Lat":11.004452,"Search":"KHTI KHTI DPNT","Routes":"171, 61-51, 61-52, 61-53, 61-55"},{"StopId":8356,"Code":"BD-0046","Name":"Ngã tư Phạm Ngọc Thạch - Mỹ Phước Tân Vạn ","StopType":"Trụ - hộp thông tin","Zone":"Bình Dương","Ward":null,"AddressNo":"Ngã tư Phạm Ngọc Thạch - Mỹ Phước Tân Vạn ","Street":"Đường Phạm Ngọc Thạch","SupportDisability":"Có","Status":"Đang khai thác","Lng":106.669739,"Lat":11.008913,"Search":"NtPNT-MPTV NtPNT-MPTV DPNT","Routes":"171, 61-51, 61-52, 61-53, 61-55"},{"StopId":8359,"Code":"BD-0048","Name":"Trung tâm văn hoá thể thao Tp. Thủ Dầu Một","StopType":"Trụ - hộp thông tin","Zone":"Bình Dương","Ward":null,"AddressNo":"Trung tâm văn hoá thể thao Tp. Thủ Dầu Một","Street":"Đường Phạm Ngọc Thạch","SupportDisability":"Có","Status":"Đang khai thác","Lng":106.67556,"Lat":11.013872,"Search":"TtvhttTTDM TtvhttTTDM DPNT","Routes":"171, 61-51, 61-52, 61-53, 61-55"},{"StopId":8397,"Code":"BD-0086","Name":"Ngã tư Đại Lộ Hùng Vương - Trần Ngọc Lên","StopType":"Trụ - hộp thông tin","Zone":"Bình Dương","Ward":null,"AddressNo":"Ngã tư Đại Lộ Hùng Vương - Trần Ngọc Lên","Street":"Đại Lộ Hùng Vương","SupportDisability":"Có","Status":"Đang khai thác","Lng":106.678264,"Lat":11.026188,"Search":"NtDLHV-TNL NtDLHV-TNL DLHV","Routes":"171, 61-37, 61-38, 61-39, 61-51, 61-52, 61-53, 61-55"},{"StopId":8399,"Code":"BD-0088","Name":"Đại Lộ Hùng Vương Số 1","StopType":"Trụ - hộp thông tin","Zone":"Bình Dương","Ward":null,"AddressNo":"Đại Lộ Hùng Vương Số 1","Street":"Đại Lộ Hùng Vương","SupportDisability":"Có","Status":"Đang khai thác","Lng":106.678756,"Lat":11.035353,"Search":"DLHVS1 DLHVS1 DLHV","Routes":"171, 61-37, 61-38, 61-39, 61-52, 61-53, 61-55"},{"StopId":8401,"Code":"BD-0090","Name":"Ngã tư Đại lộ Hùng Vương - Võ Văn Kiệt","StopType":"Trụ - hộp thông tin","Zone":"Bình Dương","Ward":null,"AddressNo":"Ngã tư Đại lộ Hùng Vương - Võ Văn Kiệt","Street":"Đại Lộ Hùng Vương","SupportDisability":"Có","Status":"Đang khai thác","Lng":106.676377,"Lat":11.041965,"Search":"NtDlHV-VVK NtDlHV-VVK DLHV","Routes":"171, 61-37, 61-38, 61-39, 61-51, 61-52, 61-53, 61-55"},{"StopId":8405,"Code":"BD-0094","Name":"SORA gardens","StopType":"Nhà chờ","Zone":"Bình Dương","Ward":null,"AddressNo":"SORA gardens","Street":"Đường nội bộ SORA gardens","SupportDisability":"Có","Status":"Đang khai thác","Lng":106.678539,"Lat":11.046135,"Search":"Sg Sg DnbSg","Routes":"61-38, 61-39, 61-51, 61-52, 61-53, 61-55, 61-67"},{"StopId":8409,"Code":"BD-0098","Name":"Phố Thương mại - Lê Lợi","StopType":"Trụ - hộp thông tin","Zone":"Bình Dương","Ward":null,"AddressNo":"Phố Thương mại - Lê Lợi","Street":"Đường Lê Lợi","SupportDisability":"Có","Status":"Chưa khai thác","Lng":106.684572,"Lat":11.051655,"Search":"PTm-LL PTm-LL DLL","Routes":"61-37, 61-38, 61-39, 61-52, 61-53"},{"StopId":8411,"Code":"BD-0100","Name":"Phố Thương mại - Đồng Khởi","StopType":"Trụ - hộp thông tin","Zone":"Bình Dương","Ward":null,"AddressNo":"Phố Thương mại - Đồng Khởi","Street":" Đồng Khởi","SupportDisability":"Có","Status":"Đang khai thác","Lng":106.686162,"Lat":11.052775,"Search":"PTm-DK PTm-DK DK","Routes":"61-38, 61-39, 61-52, 61-53"},{"StopId":9356,"Code":"BD BX 0023","Name":"Trường Ngô Thời Nhiệm","StopType":"Bến xe","Zone":"Bình Dương","Ward":null,"AddressNo":"Trường Ngô Thời Nhiệm","Street":"Đường Lý Thái Tổ","SupportDisability":"Có","Status":"Chưa khai thác","Lng":106.68943,"Lat":11.053811,"Search":"TNTN TNTN DLTT","Routes":"61-38, 61-53"}]