[{"StopId":7257,"Code":"BXLT Thu Dau Mot","Name":"Bến xe Thủ Dầu Một","StopType":"Bến xe","Zone":"Ngoại thành","Ward":null,"AddressNo":"Bến xe Thủ Dầu Một","Street":"Đường 30 tháng 4","SupportDisability":"Có","Status":"Đang khai thác","Lng":106.668524,"Lat":10.96564,"Search":"BxTDM BxTDM D30t4","Routes":"61-2, 61-3, 61-4, 61-8, 61-9"},{"StopId":8630,"Code":"BD-0341","Name":"Số nhà 1073","StopType":"Trụ dừng","Zone":"Bình Dương","Ward":null,"AddressNo":"Số 1073 đường CMT8, Phường Thủ Dầu Một","Street":"Cách mạng tháng 8","SupportDisability":"","Status":"Đang khai thác","Lng":106.665836,"Lat":10.966628,"Search":"Sn1073 S1073dCPTDM Cmt8","Routes":"60-18, 61-2, 61-4, 61-53, 61-9"},{"StopId":9577,"Code":"BD-0353","Name":"Bánh hotdog","StopType":"Ô sơn","Zone":"Bình Dương","Ward":null,"AddressNo":"Số 971, đường CMT8, Phường Thủ Dầu Một","Street":"Đường CMT8","SupportDisability":"","Status":"Đang khai thác","Lng":106.663747,"Lat":10.967879,"Search":"Bh S971,dCPTDM DC","Routes":"61-2, 61-4, 61-53, 61-9"},{"StopId":8318,"Code":"BD-0018","Name":"Ngã ba Lò Chén","StopType":"Trụ dừng","Zone":"Bình Dương","Ward":null,"AddressNo":"Số 829, đường CMT8, Phường Thủ Dầu Một","Street":"Đường CMT8","SupportDisability":"","Status":"Đang khai thác","Lng":106.660461,"Lat":10.968838,"Search":"NbLC S829,dCPTDM DC","Routes":"60-18, 61-2, 61-4, 61-51, 61-52, 61-53, 61-9"},{"StopId":8841,"Code":"BD-0520","Name":"Mẹ bầu ( Siêu thị tóc Sài Gòn)","StopType":"Trụ dừng","Zone":"Bình Dương","Ward":null,"AddressNo":"Số 156, CMT8, phường Thủ Dầu Một","Street":"Đường CMT8","SupportDisability":"","Status":"Đang khai thác","Lng":106.659817,"Lat":10.972116,"Search":"Mb(SttSG S156,CpTDM DC","Routes":"60-18, 61-2, 61-4, 61-9"},{"StopId":8880,"Code":"BD-0592","Name":"Quán ăn A Quánh","StopType":"Ô sơn","Zone":"Bình Dương","Ward":null,"AddressNo":"Quán ăn A Quánh","Street":"Cách mạng tháng 8","SupportDisability":"","Status":"Đang khai thác","Lng":106.659436,"Lat":10.973597,"Search":"QaAQ QaAQ Cmt8","Routes":"61-2, 61-4, 61-53, 61-9"},{"StopId":8888,"Code":"BD-0600","Name":"Nhà Sách Bình Minh","StopType":"Ô sơn","Zone":"Bình Dương","Ward":null,"AddressNo":"Nhà Sách Bình Minh","Street":"Cách mạng tháng 8","SupportDisability":"","Status":"Đang khai thác","Lng":106.657977,"Lat":10.975993,"Search":"NSBM NSBM Cmt8","Routes":"61-2, 61-4, 61-53, 61-9"},{"StopId":8320,"Code":"BD-0020","Name":"Đối diện Nhà sách Bình Minh","StopType":"Trụ dừng","Zone":"Bình Dương","Ward":null,"AddressNo":"Số 567, CMT8 , phường Thủ Dầu Một","Street":"Đường CMT8","SupportDisability":"","Status":"Đang khai thác","Lng":106.657743,"Lat":10.976622,"Search":"DdNsBM S567,C,pTDM DC","Routes":"60-18, 61-2, 61-4, 61-51, 61-52, 61-53, 61-9"},{"StopId":8322,"Code":"BD-0022","Name":"Công viên Phú Cường","StopType":"Nhà chờ","Zone":"Bình Dương","Ward":null,"AddressNo":"Đối diện số 548, cmt8 , phường Thủ Dầu Một","Street":"CMT8","SupportDisability":"","Status":"Đang khai thác","Lng":106.656222,"Lat":10.978814,"Search":"CvPC Dds548,c,pTDM C","Routes":"60-18, 61-2, 61-4, 61-51, 61-52, 61-53, 61-9"},{"StopId":8324,"Code":"BD-0024","Name":"Chùa Bà Thiên Hậu","StopType":"Nhà chờ","Zone":"Bình Dương","Ward":null,"AddressNo":"Đối diện số 494 - 496, cmt8 , phường Thủ Dầu Một","Street":"CMT8","SupportDisability":"","Status":"Đang khai thác","Lng":106.654247,"Lat":10.98044,"Search":"CBTH Dds494-496,c,pTDM C","Routes":"60-18, 61-2, 61-4, 61-51, 61-52, 61-53, 61-9"},{"StopId":8326,"Code":"BD-0026","Name":"Bệnh viện phụ sản nhi Bình Dương(Ngân hàng Sacombank)","StopType":"Trụ dừng","Zone":"Bình Dương","Ward":null,"AddressNo":"số 425, CMT8, phường Thủ Dầu Một","Street":"CMT8","SupportDisability":"","Status":"Đang khai thác","Lng":106.652674,"Lat":10.983723,"Search":"BvpsnBDhS s425,CpTDM C","Routes":"61-2, 61-51, 61-52, 61-53"},{"StopId":9597,"Code":"BD-0359","Name":"Bảo hành Sony","StopType":"Ô sơn","Zone":"Bình Dương","Ward":null,"AddressNo":"số 238, cmt8 , phường tdm","Street":"Cách mạng tháng 8","SupportDisability":"Có","Status":"Đang khai thác","Lng":106.652382,"Lat":10.987742,"Search":"BhS s238,c,pt Cmt8","Routes":"61-2, 61-53"},{"StopId":8332,"Code":"BD-0028","Name":"Chợ Cây Dừa","StopType":"Trụ dừng","Zone":"Bình Dương","Ward":null,"AddressNo":"số 183, CMT8, phường Thủ Dầu Một","Street":"CMT8","SupportDisability":"","Status":"Đang khai thác","Lng":106.651073,"Lat":10.990664,"Search":"CCD s183,CpTDM C","Routes":"60-18, 61-2, 61-51, 61-52, 61-53"},{"StopId":8334,"Code":"BD-0030","Name":"Trường trung tiểu học Petrus Ký","StopType":"Trụ dừng","Zone":"Bình Dương","Ward":null,"AddressNo":"số 69, CMT8 , phường Thủ Dầu Một","Street":"CMT8","SupportDisability":"","Status":"Đang khai thác","Lng":106.650485,"Lat":10.99364,"Search":"TtthPK s69,C,pTDM C","Routes":"61-2, 61-52, 61-53"},{"StopId":8791,"Code":"BD-0539","Name":"Trường tiểu học Nguyễn du (Trường tiểu học Hiệp Thành)","StopType":"Nhà chờ","Zone":"Bình Dương","Ward":null,"AddressNo":"đối diện số 70, cmt8 , phường Thủ Dầu Một","Street":"Đường CMT8","SupportDisability":"","Status":"Đang khai thác","Lng":106.650528,"Lat":10.995433,"Search":"TthNd(thHT dds70,c,pTDM DC","Routes":"61-2, 61-53"},{"StopId":9217,"Code":"BD-0927","Name":"Đại lý xe tay ga minh hoàng phương( hãng xe YAMAHA)","StopType":"Ô sơn","Zone":"Bình Dương","Ward":null,"AddressNo":"số 756, Ql 13 , phường Thủ Dầu Một","Street":"Quốc lộ 13","SupportDisability":"","Status":"Đang khai thác","Lng":106.648662,"Lat":10.997555,"Search":"DlxtgmhphxY s756,Q13,pTDM Ql13","Routes":"60-15, 60-18, 61-2, 61-4"},{"StopId":9218,"Code":"BD-0928","Name":"Trường THPT Nguyễn Đình Chiểu","StopType":"Ô sơn","Zone":"Bình Dương","Ward":null,"AddressNo":"số 814a, Ql 13 , phường Thủ Dầu Một","Street":"Quốc lộ 13","SupportDisability":"","Status":"Đang khai thác","Lng":106.647152,"Lat":10.999778,"Search":"TTNDC s814a,Q13,pTDM Ql13","Routes":"60-15, 60-18, 61-2, 61-4"},{"StopId":8961,"Code":"BD-0676","Name":"Ngã ba suối giữa( cửa hàng xe máy ba Phi)","StopType":"Ô sơn","Zone":"Bình Dương","Ward":null,"AddressNo":"cách trạm thu phí 200m, Ql 13 , phường Thủ Dầu Một","Street":"Quốc lộ 13","SupportDisability":"","Status":"Đang khai thác","Lng":106.645339,"Lat":11.006944,"Search":"NbsgchxmbP cttp200m,Q13,pTDM Ql13","Routes":"61-2, 61-4"},{"StopId":8962,"Code":"BD-0677","Name":"Công ty TNHH Nam Khương","StopType":"Ô sơn","Zone":"Bình Dương","Ward":null,"AddressNo":"Công ty TNHH Nam Khương","Street":"Đại lộ Bình Dương","SupportDisability":"","Status":"Đang khai thác","Lng":106.646567,"Lat":11.009859,"Search":"CtTNK CtTNK DlBD","Routes":"61-2"},{"StopId":9598,"Code":"BD-0616","Name":"Ngã ba trạm đăng kiểm 61 03D","StopType":"Ô sơn","Zone":"Bình Dương","Ward":null,"AddressNo":"số 1006, ql 13, phường Tdm ","Street":"Quốc lộ 13","SupportDisability":"","Status":"Đang khai thác","Lng":106.647924,"Lat":11.015857,"Search":"Nbtdk6103D s1006,q13,pT Ql13","Routes":"61-2"},{"StopId":8951,"Code":"BD-0666","Name":"Cửa cuốn đài loan Đức Tuấn","StopType":"Ô sơn","Zone":"Bình Dương","Ward":null,"AddressNo":"Cửa cuốn đài loan Đức Tuấn","Street":"Đại lộ Bình Dương","SupportDisability":"","Status":"Đang khai thác","Lng":106.64912,"Lat":11.022059,"Search":"CcdlDT CcdlDT DlBD","Routes":"61-2"},{"StopId":8952,"Code":"BD-0667","Name":"Cty tnhh liên hiệp khôi","StopType":"Ô sơn","Zone":"Bình Dương","Ward":null,"AddressNo":"Cty tnhh liên hiệp khôi","Street":"Đại lộ Bình Dương","SupportDisability":"","Status":"Đang khai thác","Lng":106.64904,"Lat":11.02505,"Search":"Ctlhk Ctlhk DlBD","Routes":"61-2"},{"StopId":9220,"Code":"BD-0930","Name":"Nhà thuốc duy lâm","StopType":"Ô sơn","Zone":"Bình Dương","Ward":null,"AddressNo":"Nhà thuốc duy lâm","Street":"Quốc lộ 13","SupportDisability":"","Status":"Đang khai thác","Lng":106.643713,"Lat":11.029426,"Search":"Ntdl Ntdl Ql13","Routes":"60-18, 61-2"},{"StopId":9062,"Code":"BD-0776","Name":"Trường trung học cơ sở Bình Phú","StopType":"Ô sơn","Zone":"Bình Dương","Ward":null,"AddressNo":"Trường trung học cơ sở Bình Phú","Street":"Quốc lộ 13","SupportDisability":"","Status":"Đang khai thác","Lng":106.639293,"Lat":11.036076,"Search":"TthcsBP TthcsBP Ql13","Routes":"61-2"},{"StopId":9063,"Code":"BD-0777","Name":"Trường trung cấp kinh tế Bình Dương","StopType":"Ô sơn","Zone":"Bình Dương","Ward":null,"AddressNo":"Trường trung cấp kinh tế Bình Dương","Street":"Quốc lộ 13","SupportDisability":"","Status":"Đang khai thác","Lng":106.635479,"Lat":11.042773,"Search":"TtcktBD TtcktBD Ql13","Routes":"61-2"},{"StopId":9064,"Code":"BD-0778","Name":"Shop thời trang Nga","StopType":"Ô sơn","Zone":"Bình Dương","Ward":null,"AddressNo":"Shop thời trang Nga","Street":"Quốc lộ 13","SupportDisability":"","Status":"Đang khai thác","Lng":106.633145,"Lat":11.047096,"Search":"SttN SttN Ql13","Routes":"61-2"},{"StopId":9696,"Code":"BD-0799","Name":"Cs sản xuất bánh mì út tâm","StopType":"Ô sơn","Zone":"Bình Dương","Ward":null,"AddressNo":"số 406a, ql 13, phường Thới Hòa","Street":"Quốc lộ 13","SupportDisability":"","Status":"Đang khai thác","Lng":106.630798,"Lat":11.051546,"Search":"Csxbmut s406a,q13,pTH Ql13","Routes":"61-2"},{"StopId":9081,"Code":"BD-0795","Name":"Trường mẫu giáo Tân Định","StopType":"Ô sơn","Zone":"Bình Dương","Ward":null,"AddressNo":"Trường mẫu giáo Tân Định","Street":"Quốc lộ 13","SupportDisability":"","Status":"Đang khai thác","Lng":106.629514,"Lat":11.054903,"Search":"TmgTD TmgTD Ql13","Routes":"61-2"},{"StopId":9600,"Code":"BD-0881","Name":"Nhà máy thép tqk","StopType":"Ô sơn","Zone":"Bình Dương","Ward":null,"AddressNo":" ......., ql 13 , phường  Thới hòa","Street":"Quốc lộ 13","SupportDisability":"Có","Status":"Đang khai thác","Lng":106.627878,"Lat":11.069622,"Search":"Nmtt .......,q13,pTh Ql13","Routes":"61-2"},{"StopId":9080,"Code":"BD-0794","Name":"Văn phòng kp 2","StopType":"Ô sơn","Zone":"Bình Dương","Ward":null,"AddressNo":"đối diện cây xăng dầu Tân định, ql 13 , phường Thới Hòa ","Street":"Quốc lộ 13","SupportDisability":"","Status":"Đang khai thác","Lng":106.627866,"Lat":11.077076,"Search":"Vpk2 ddcxdTdq13,pTH Ql13","Routes":"61-2"},{"StopId":9601,"Code":"BD-0543","Name":"Vlxd phạm gia 2","StopType":"Ô sơn","Zone":"Bình Dương","Ward":null,"AddressNo":"số 279, ql 13 , phường Thới hòa ","Street":"Quốc lộ 13","SupportDisability":"Có","Status":"Đang khai thác","Lng":106.626589,"Lat":11.083566,"Search":"Vpg2 s279,q13,pTh Ql13","Routes":"61-2"},{"StopId":9079,"Code":"BD-0793","Name":"Becamex","StopType":"Ô sơn","Zone":"Bình Dương","Ward":null,"AddressNo":"đối diện hội đồng nhân dân phường thới hòa, ql 13 , phường thới hoà","Street":"Quốc lộ 13","SupportDisability":"","Status":"Đang khai thác","Lng":106.626477,"Lat":11.09075,"Search":"B ddhdndpthq13,pth Ql13","Routes":"61-2"},{"StopId":9070,"Code":"BD-0784","Name":"Honda Long Ngân","StopType":"Ô sơn","Zone":"Bình Dương","Ward":null,"AddressNo":"Honda Long Ngân","Street":"Quốc lộ 13","SupportDisability":"","Status":"Đang khai thác","Lng":106.625893,"Lat":11.096425,"Search":"HLN HLN Ql13","Routes":"61-2"},{"StopId":9077,"Code":"BD-0791","Name":"Cổng khu công nghiệp Mỹ Phước 3.1","StopType":"Ô sơn","Zone":"Bình Dương","Ward":null,"AddressNo":"Cổng khu công nghiệp Mỹ Phước 3.1","Street":"Quốc lộ 13","SupportDisability":"","Status":"Đang khai thác","Lng":106.625656,"Lat":11.098514,"Search":"CkcnMP3.1 CkcnMP3.1 Ql13","Routes":"61-2, 61-70"},{"StopId":8526,"Code":"BD-0168","Name":"Trạm Xăng Thới Hòa","StopType":"Trụ - hộp thông tin","Zone":"Bình Dương","Ward":null,"AddressNo":"Trạm Xăng Thới Hòa","Street":"Quốc Lộ 13","SupportDisability":"Có","Status":"Đang khai thác","Lng":106.623845,"Lat":11.103394,"Search":"TXTH TXTH QL13","Routes":"61-2, 61-70"},{"StopId":8534,"Code":"BD-0171","Name":"EcoLakes Mỹ Phước","StopType":"Nhà chờ","Zone":"Bình Dương","Ward":null,"AddressNo":"EcoLakes Mỹ Phước","Street":"Quốc Lộ 13","SupportDisability":"Có","Status":"Đang khai thác","Lng":106.61843,"Lat":11.111283,"Search":"EMP EMP QL13","Routes":"61-2, 61-70"},{"StopId":8536,"Code":"BD-0173","Name":"Giáo Xứ Thới Hòa","StopType":"Trụ - hộp thông tin","Zone":"Bình Dương","Ward":null,"AddressNo":"Giáo Xứ Thới Hòa","Street":"Quốc Lộ 13","SupportDisability":"Có","Status":"Đang khai thác","Lng":106.615517,"Lat":11.119274,"Search":"GXTH GXTH QL13","Routes":"61-2, 61-70"},{"StopId":8568,"Code":"BD-0181","Name":"Ủy Ban Nhân Dân Phường Mỹ Phước","StopType":"Trụ - hộp thông tin","Zone":"Bình Dương","Ward":null,"AddressNo":"Ủy Ban Nhân Dân Phường Mỹ Phước","Street":"Quốc Lộ 13","SupportDisability":"Có","Status":"Đang khai thác","Lng":106.606418,"Lat":11.132822,"Search":"?BNDPMP ?BNDPMP QL13","Routes":"61-2, 61-70"},{"StopId":8570,"Code":"BD-0183","Name":"Ngã ba Bệnh viện Mỹ Phước","StopType":"Trụ - hộp thông tin","Zone":"Bình Dương","Ward":null,"AddressNo":"Ngã ba Bệnh viện Mỹ Phước","Street":"Quốc Lộ 13","SupportDisability":"Có","Status":"Đang khai thác","Lng":106.603911,"Lat":11.14023,"Search":"NbBvMP NbBvMP QL13","Routes":"61-2, 61-70"},{"StopId":8574,"Code":"BD-0185","Name":"Golden Center City","StopType":"Nhà chờ","Zone":"Bình Dương","Ward":null,"AddressNo":"Golden Center City","Street":"Quốc Lộ 13","SupportDisability":"Có","Status":"Đang khai thác","Lng":106.60014,"Lat":11.145825,"Search":"GCC GCC QL13","Routes":"61-2, 61-70"},{"StopId":8577,"Code":"BD-0187","Name":"Ủy Ban Nhân Dân TP.Bến Cát","StopType":"Nhà chờ","Zone":"Bình Dương","Ward":null,"AddressNo":"Ủy Ban Nhân Dân TP.Bến Cát","Street":"30/4","SupportDisability":"Có","Status":"Đang khai thác","Lng":106.593653,"Lat":11.151322,"Search":"?BNDTC ?BNDTC 30/4","Routes":"61-2, 61-70"},{"StopId":9346,"Code":"BD BX  0013","Name":"Bưu điện Thành phố Bến Cát","StopType":"Bến xe","Zone":"Bình Dương","Ward":null,"AddressNo":"Bưu điện Thành phố Bến Cát","Street":"Đường 30 tháng 4","SupportDisability":"","Status":"Đang khai thác","Lng":106.591904,"Lat":11.152417,"Search":"BdTpBC BdTpBC D30t4","Routes":"61-2, 61-70"},{"StopId":8579,"Code":"BD-0189","Name":"Bưu điện TP Bến Cát","StopType":"Trụ - hộp thông tin","Zone":"Bình Dương","Ward":null,"AddressNo":"Bưu điện TP Bến Cát","Street":"30/4","SupportDisability":"Có","Status":"Đang khai thác","Lng":106.591583,"Lat":11.152639,"Search":"BdTBC BdTBC 30/4","Routes":"61-2"},{"StopId":8533,"Code":"BD-0306","Name":"Đội thuế liên phường xã số 1","StopType":"Trụ - hộp thông tin","Zone":"Bình Dương","Ward":null,"AddressNo":"Đội thuế liên phường xã số 1","Street":"Hùng Vương","SupportDisability":"","Status":"Đang khai thác","Lng":106.591029,"Lat":11.153993,"Search":"Dtlpxs1 Dtlpxs1 HV","Routes":"61-2"},{"StopId":9336,"Code":"BD BX 0003","Name":"Ngã ba Công an Bến Cát","StopType":"Bến xe","Zone":"Bình Dương","Ward":null,"AddressNo":"Ngã ba Công an Bến Cát","Street":"Quốc lộ 13","SupportDisability":"Có","Status":"Đang khai thác","Lng":106.592719,"Lat":11.155688,"Search":"NbCaBC NbCaBC Ql13","Routes":"61-2"}]