[{"StopId":35,"Code":"BX 01","Name":"Bến xe buýt Sài Gòn","StopType":"Bến xe","Zone":"Quận 1","Ward":"Phường Phạm Ngũ Lão","AddressNo":"BẾN XE BUÝT SÀI GÒN","Street":"Lê Lai","SupportDisability":"Có","Status":"Đang khai thác","Lng":106.689362,"Lat":10.767676,"Search":"BxbSG BXBSG LL","Routes":"03, 04, 102, 109, 13, 140, 171, 172, 18, 19, 20, 27, 28, 34, 36, 39, 52, 65, 69, 72, 75, 86, 88, 93, D4, DL03, DL04, DL05"},{"StopId":7277,"Code":"Q1 191","Name":"Nguyễn Thị Nghĩa","StopType":"Trụ dừng","Zone":"Quận 1","Ward":"Phường Phạm Ngũ Lão","AddressNo":"187","Street":"Phạm Ngũ Lão","SupportDisability":"Có","Status":"Đang khai thác","Lng":106.693699,"Lat":10.768788,"Search":"NTN 187 PNL","Routes":"03, 04, 102, 109, 13, 140, 156V, 171, 172, 18, 19, 20, 28, 34, 36, 39, 46, 52, 65, 69, 72, 72-2B, 93, D4, DL01, DL02, DL05"},{"StopId":853,"Code":"Q1 001","Name":"Calmette","StopType":"Trụ dừng","Zone":"Quận 1","Ward":null,"AddressNo":"97","Street":"Calmette","SupportDisability":"","Status":"Đang khai thác","Lng":106.699219,"Lat":10.767768,"Search":"C 97 C","Routes":"102, 34, 38, 44, 86, DL05"},{"StopId":7699,"Code":"Q4 057","Name":"Bến nhà Rồng","StopType":"Trụ dừng","Zone":"Quận 4","Ward":"Phường 12","AddressNo":"Cột đèn thứ 2 (Cty cảng Sg)","Street":"Nguyễn Tất Thành","SupportDisability":"","Status":"Đang khai thác","Lng":106.705951,"Lat":10.767855,"Search":"BnR Cdt2(cS NTT","Routes":"DL02, DL05"},{"StopId":31,"Code":"Q1 024","Name":"Bến Bạch Đằng","StopType":"Nhà chờ","Zone":"Quận 1","Ward":null,"AddressNo":"Bến thủy nội địa Thủ Thiêm","Street":"Tôn Đức Thắng","SupportDisability":"","Status":"Đang khai thác","Lng":106.706654,"Lat":10.774094,"Search":"BBD BtndTT TDT","Routes":"01, 03, 19, 45, 53, 56, 88, DL01, DL02, DL05"},{"StopId":2568,"Code":"Q1 005","Name":"Nhà Thờ Đức Bà","StopType":"Trụ dừng","Zone":"Quận 1","Ward":null,"AddressNo":"1","Street":"Công xã Paris","SupportDisability":"","Status":"Đang khai thác","Lng":106.699154,"Lat":10.779233,"Search":"NTDB 1 CxP","Routes":"36, DL02, DL05"},{"StopId":7078,"Code":"Q1 174","Name":"Nhà hát Thành phố","StopType":"Ô sơn","Zone":"Quận 1","Ward":"Phường Bến Nghé","AddressNo":"127-129","Street":"Đồng Khởi","SupportDisability":"","Status":"Đang khai thác","Lng":106.703709,"Lat":10.775407,"Search":"NhTp 127-129 DK","Routes":"155, DL05"},{"StopId":4261,"Code":"Q1 054","Name":"Lê Lợi","StopType":"Nhà chờ","Zone":"Quận 1","Ward":null,"AddressNo":"92-96","Street":"Nguyễn Huệ","SupportDisability":"","Status":"Đang khai thác","Lng":106.702883,"Lat":10.775127,"Search":"LL 92-96 NH","Routes":"DL01, DL02, DL05"},{"StopId":35,"Code":"BX 01","Name":"Bến xe buýt Sài Gòn","StopType":"Bến xe","Zone":"Quận 1","Ward":"Phường Phạm Ngũ Lão","AddressNo":"BẾN XE BUÝT SÀI GÒN","Street":"Lê Lai","SupportDisability":"Có","Status":"Đang khai thác","Lng":106.689362,"Lat":10.767676,"Search":"BxbSG BXBSG LL","Routes":"03, 04, 102, 109, 13, 140, 171, 172, 18, 19, 20, 27, 28, 34, 36, 39, 52, 65, 69, 72, 75, 86, 88, 93, D4, DL03, DL04, DL05"}]