[{"StopId":468,"Code":"BX43","Name":"Bãi hậu cần số 1","StopType":"Bến xe","Zone":"Quận Gò Vấp","Ward":null,"AddressNo":"Bãi hậu cần số 1","Street":"Phan Văn Trị","SupportDisability":"","Status":"Đang khai thác","Lng":106.69188,"Lat":10.823601,"Search":"Bhcs1 Bhcs1 PVT","Routes":"07, 148"},{"StopId":539,"Code":"QGV 001","Name":"Bãi hậu cần số 1","StopType":"Trụ dừng","Zone":"Quận Gò Vấp","Ward":null,"AddressNo":"Đối diện 439","Street":"Phan Văn Trị","SupportDisability":"","Status":"Đang khai thác","Lng":106.69195,"Lat":10.823964,"Search":"Bhcs1 Dd439 PVT","Routes":"07, 148, 161, 36"},{"StopId":540,"Code":"QGV 048","Name":"UBND Phường 5","StopType":"Trụ dừng","Zone":"Quận Gò Vấp","Ward":null,"AddressNo":"247","Street":"Nguyễn Thái Sơn","SupportDisability":"","Status":"Đang khai thác","Lng":106.688259,"Lat":10.825513,"Search":"UP5 247 NTS","Routes":"07, 146, 148"},{"StopId":541,"Code":"QGV 049","Name":"Trường Đại học Công nghiệp","StopType":"Trụ dừng","Zone":"Quận Gò Vấp","Ward":null,"AddressNo":"145","Street":"Nguyễn Thái Sơn","SupportDisability":"","Status":"Đang khai thác","Lng":106.685277,"Lat":10.822779,"Search":"TDhCn 145 NTS","Routes":"07, 148"},{"StopId":543,"Code":"QGV 050 ","Name":"Ngã ba Phạm Ngũ Lão","StopType":"Trụ dừng","Zone":"Quận Gò Vấp","Ward":null,"AddressNo":"63","Street":"Nguyễn Thái Sơn","SupportDisability":"","Status":"Đang khai thác","Lng":106.683925,"Lat":10.821045,"Search":"NbPNL 63 NTS","Routes":"07, 148"},{"StopId":60,"Code":"QGV 187 ","Name":"Cầu vượt ngã sáu Gò Vấp","StopType":"Trụ dừng","Zone":"Quận Gò Vấp","Ward":null,"AddressNo":"140-142","Street":"Phạm Ngũ Lão ","SupportDisability":"","Status":"Đang khai thác","Lng":106.681221,"Lat":10.824607,"Search":"CvnsGV 140-142 PNL","Routes":"03, 07, 103, 148, 55, 59"},{"StopId":219,"Code":"QGV 121","Name":"Cầu vượt ngã sáu Gò Vấp","StopType":"Trụ dừng","Zone":"Quận Gò Vấp","Ward":null,"AddressNo":"1001","Street":"Nguyễn Kiệm","SupportDisability":"","Status":"Đang khai thác","Lng":106.678968,"Lat":10.823738,"Search":"CvnsGV 1001 NK","Routes":"03, 07, 103, 148, 55, 59"},{"StopId":221,"Code":"QGV 123","Name":"Bệnh Viện 175","StopType":"Trụ dừng","Zone":"Quận Gò Vấp","Ward":null,"AddressNo":"883-885","Street":"Nguyễn Kiệm","SupportDisability":"","Status":"Đang khai thác","Lng":106.678727,"Lat":10.820044,"Search":"BV175 883-885 NK","Routes":"03, 07, 103, 148, 55, 59"},{"StopId":223,"Code":"QGV 124","Name":"Chợ Tân Sơn Nhất","StopType":"Trụ dừng","Zone":"Quận Gò Vấp","Ward":null,"AddressNo":"79-81","Street":"Nguyễn Kiệm","SupportDisability":"","Status":"Đang khai thác","Lng":106.678598,"Lat":10.816772,"Search":"CTSN 79-81 NK","Routes":"03, 07, 103, 148, 55, 59"},{"StopId":4729,"Code":"QGV 034","Name":"Đầu công viên Gia Định","StopType":"Nhà chờ","Zone":"Quận Gò Vấp","Ward":"Phường 03","AddressNo":"Rạp xiếc","Street":"Hoàng Minh Giám","SupportDisability":"Có","Status":"Đang khai thác","Lng":106.677788,"Lat":10.8136,"Search":"DcvGD Rx HMG","Routes":"03, 07, 148, 50, 55, 59"},{"StopId":225,"Code":"QPN 035","Name":"Cuối công viên Gia Định","StopType":"Nhà chờ","Zone":"Quận Phú Nhuận","Ward":null,"AddressNo":"Đối diện số 5","Street":"Hoàng Minh Giám","SupportDisability":"","Status":"Đang khai thác","Lng":106.674741,"Lat":10.809906,"Search":"CcvGD Dds5 HMG","Routes":"03, 07, 148, 50, 55, 59"},{"StopId":1772,"Code":"QPN 032 ","Name":"Trường Đại học Kỹ Thuật Công nghệ","StopType":"Trụ dừng","Zone":"Quận Phú Nhuận","Ward":null,"AddressNo":"199","Street":"Phổ Quang","SupportDisability":"","Status":"Đang khai thác","Lng":106.672107,"Lat":10.808426,"Search":"TDhKTCn 199 PQ","Routes":"148, 50, 59"},{"StopId":1773,"Code":"QTB 104","Name":"Cây xăng Quân đội","StopType":"Trụ dừng","Zone":"Quận Tân Bình","Ward":null,"AddressNo":"75","Street":"Phổ Quang","SupportDisability":"","Status":"Đang khai thác","Lng":106.668422,"Lat":10.807467,"Search":"CxQd 75 PQ","Routes":"148, 50, 59"},{"StopId":1775,"Code":"QTB 105","Name":"Bãi xe buýt Phổ Quang","StopType":"Trụ dừng","Zone":"Quận Tân Bình","Ward":null,"AddressNo":"Công ty Waseco","Street":"Phổ Quang","SupportDisability":"","Status":"Đang khai thác","Lng":106.666555,"Lat":10.805359,"Search":"BxbPQ CtW PQ","Routes":"148, 50, 59"},{"StopId":1774,"Code":"QTB 106","Name":"Rạp Tân Sơn Nhất","StopType":"Trụ dừng","Zone":"Quận Tân Bình","Ward":null,"AddressNo":"Rạp Tân Sơn Nhất","Street":"Phổ Quang","SupportDisability":"","Status":"Đang khai thác","Lng":106.665756,"Lat":10.802321,"Search":"RTSN RTSN PQ","Routes":"148, 50, 59"},{"StopId":911,"Code":"QTB 100","Name":"Quán Vườn Dừa","StopType":"Trụ dừng","Zone":"Quận Tân Bình","Ward":null,"AddressNo":"12 (1A)","Street":"Phan Đình Giót","SupportDisability":"","Status":"Đang khai thác","Lng":106.664909,"Lat":10.803641,"Search":"QVD 12( PDG","Routes":"103, 148, 152, 50, 59, 63-1, 72-1, 72-2B"},{"StopId":999,"Code":"QTB 109","Name":"Trần Quốc Hoàn","StopType":"Nhà chờ","Zone":"Quận Tân Bình","Ward":null,"AddressNo":"65","Street":"Trần Quốc Hoàn","SupportDisability":"","Status":"Đang khai thác","Lng":106.663925,"Lat":10.803644,"Search":"TQH 65 TQH","Routes":"103, 148, 152, 50, 59, 63-1, 72-2B"},{"StopId":258,"Code":"QTB 107","Name":"Vòng xoay Lăng Cha Cả","StopType":"Nhà chờ","Zone":"Quận Tân Bình","Ward":null,"AddressNo":"20","Street":"Trần Quốc Hoàn","SupportDisability":"","Status":"Đang khai thác","Lng":106.662312,"Lat":10.801365,"Search":"VxLCC 20 TQH","Routes":"04, 08, 103, 104, 148, 152, 50, 59, 63-1, 64, 72-2B"},{"StopId":600,"Code":"QTB 038","Name":"Vòng xoay Lăng Cha Cả","StopType":"Trụ dừng","Zone":"Quận Tân Bình","Ward":null,"AddressNo":"288-290","Street":"Hoàng Văn Thụ","SupportDisability":"","Status":"Đang khai thác","Lng":106.659071,"Lat":10.798725,"Search":"VxLCC 288-290 HVT","Routes":"08, 103, 145, 148, 50, 59, 63-1, 64"},{"StopId":602,"Code":"QTB 039","Name":"Công an Quận Tân Bình","StopType":"Trụ dừng","Zone":"Quận Tân Bình","Ward":null,"AddressNo":"340H","Street":"Hoàng Văn Thụ","SupportDisability":"","Status":"Đang khai thác","Lng":106.657425,"Lat":10.79717,"Search":"CaQTB 340H HVT","Routes":"08, 103, 145, 148, 50, 59, 63-1, 64"},{"StopId":604,"Code":"QTB 064","Name":"Hội Chợ Triển lãm Tân Bình","StopType":"Trụ dừng","Zone":"Quận Tân Bình","Ward":null,"AddressNo":"20 (B9)","Street":"Xuân Diệu","SupportDisability":"","Status":"Đang khai thác","Lng":106.655145,"Lat":10.796122,"Search":"HCTlTB 20( XD","Routes":"08, 103, 13, 145, 148, 30, 50, 59, 64, 94"},{"StopId":603,"Code":"QTB 065","Name":"Trường Phạm Ngũ Lão","StopType":"Trụ dừng","Zone":"Quận Tân Bình","Ward":null,"AddressNo":"149 (E62)","Street":"Xuân Hồng","SupportDisability":"","Status":"Đang khai thác","Lng":106.654066,"Lat":10.796032,"Search":"TPNL 149( XH","Routes":"08, 103, 13, 145, 148, 30, 50, 59, 64, 65, 94"},{"StopId":606,"Code":"QTB 066","Name":"Cây xăng Đôi","StopType":"Trụ dừng","Zone":"Quận Tân Bình","Ward":null,"AddressNo":"23","Street":"Xuân Hồng","SupportDisability":"","Status":"Đang khai thác","Lng":106.652184,"Lat":10.794256,"Search":"CxD 23 XH","Routes":"08, 103, 13, 145, 148, 30, 50, 59, 64, 65, 94"},{"StopId":605,"Code":"QTB 029","Name":"Bệnh viện Thống Nhất","StopType":"Trụ dừng","Zone":"Quận Tân Bình","Ward":null,"AddressNo":"733-739","Street":"Lý Thường Kiệt","SupportDisability":"","Status":"Đang khai thác","Lng":106.6528,"Lat":10.792122,"Search":"BvTN 733-739 LTK","Routes":"08, 145, 148, 50, 59, 63-1, 94"},{"StopId":1639,"Code":"QTB 131","Name":"Cây xăng Lạc Long Quân","StopType":"Biển treo","Zone":"Quận Tân Bình","Ward":null,"AddressNo":"1103","Street":"Lạc Long Quân","SupportDisability":"","Status":"Đang khai thác","Lng":106.651776,"Lat":10.788628,"Search":"CxLLQ 1103 LLQ","Routes":"145, 148"},{"StopId":1640,"Code":"QTB 132","Name":"Công Thọ","StopType":"Biển treo","Zone":"Quận Tân Bình","Ward":null,"AddressNo":"933","Street":"Lạc Long Quân","SupportDisability":"","Status":"Đang khai thác","Lng":106.650848,"Lat":10.784233,"Search":"CT 933 LLQ","Routes":"145, 148"},{"StopId":1641,"Code":"QTB 133","Name":"Ni sư Huỳnh Liên","StopType":"Biển treo","Zone":"Quận Tân Bình","Ward":null,"AddressNo":"759","Street":"Lạc Long Quân","SupportDisability":"","Status":"Đang khai thác","Lng":106.649994,"Lat":10.781511,"Search":"NsHL 759 LLQ","Routes":"145, 148"},{"StopId":1642,"Code":"QTB 134","Name":"Chùa Giác Lâm","StopType":"Trụ dừng","Zone":"Quận Tân Bình","Ward":null,"AddressNo":"656 (133)","Street":"Lạc Long Quân","SupportDisability":"","Status":"Đang khai thác","Lng":106.649786,"Lat":10.777941,"Search":"CGL 656( LLQ","Routes":"145, 148"},{"StopId":1643,"Code":"QTB 135","Name":"Ngã tư Lạc Long Quân","StopType":"Trụ dừng","Zone":"Quận Tân Bình","Ward":null,"AddressNo":"523-525 (176A)","Street":"Lạc Long Quân","SupportDisability":"","Status":"Đang khai thác","Lng":106.648396,"Lat":10.77547,"Search":"NtLLQ 523-525( LLQ","Routes":"145, 148"},{"StopId":1644,"Code":"Q11 074","Name":"Âu Cơ","StopType":"Trụ dừng","Zone":"Quận 11","Ward":null,"AddressNo":"501","Street":"Lạc Long Quân","SupportDisability":"","Status":"Đang khai thác","Lng":106.647484,"Lat":10.774116,"Search":"AC 501 LLQ","Routes":"145, 148, 38"},{"StopId":1646,"Code":"Q11 075","Name":"Trạm Đăng Kiểm","StopType":"Trụ dừng","Zone":"Quận 11","Ward":null,"AddressNo":"345F","Street":"Lạc Long Quân","SupportDisability":"","Status":"Đang khai thác","Lng":106.644716,"Lat":10.770237,"Search":"TDK 345F LLQ","Routes":"145, 148, 38"},{"StopId":1645,"Code":"Q11 076","Name":"Trường Lê Quý Đôn","StopType":"Nhà chờ","Zone":"Quận 11","Ward":null,"AddressNo":"Trường Lạc Long Quân","Street":"Lạc Long Quân","SupportDisability":"","Status":"Đang khai thác","Lng":106.642989,"Lat":10.767818,"Search":"TLQD TLLQ LLQ","Routes":"145, 148, 38"},{"StopId":1572,"Code":"Q11 077","Name":"Cổng 1 Đầm Sen","StopType":"Trụ dừng","Zone":"Quận 11","Ward":null,"AddressNo":"281","Street":"Lạc Long Quân","SupportDisability":"","Status":"Đang khai thác","Lng":106.642128,"Lat":10.765199,"Search":"C1DS 281 LLQ","Routes":"145, 148"},{"StopId":1776,"Code":"Q11 064","Name":"Công an Phường 10","StopType":"Trụ dừng","Zone":"Quận 11","Ward":null,"AddressNo":"569 ","Street":"Minh Phụng","SupportDisability":"","Status":"Đang khai thác","Lng":106.644706,"Lat":10.763649,"Search":"CaP10 569 MP","Routes":"145, 148"},{"StopId":1777,"Code":"Q11 065","Name":"Đội Cung","StopType":"Trụ dừng","Zone":"Quận 11","Ward":null,"AddressNo":"461","Street":"Minh Phụng","SupportDisability":"","Status":"Đang khai thác","Lng":106.644459,"Lat":10.761968,"Search":"DC 461 MP","Routes":"145, 148"},{"StopId":1779,"Code":"Q11 066","Name":"Trường Tiểu học Thái Phiên","StopType":"Trụ dừng","Zone":"Quận 11","Ward":null,"AddressNo":"385","Street":"Minh Phụng","SupportDisability":"","Status":"Đang khai thác","Lng":106.644051,"Lat":10.759449,"Search":"TThTP 385 MP","Routes":"145, 148"},{"StopId":1647,"Code":"Q11 067","Name":"UBND phường 2","StopType":"Trụ dừng","Zone":"Quận 11","Ward":null,"AddressNo":"341A","Street":"Minh Phụng","SupportDisability":"","Status":"Đang khai thác","Lng":106.643654,"Lat":10.75736,"Search":"Up2 341A MP","Routes":"145, 148"},{"StopId":1649,"Code":"Q11 068","Name":"Cây Gõ","StopType":"Ô sơn","Zone":"Quận 11","Ward":null,"AddressNo":"275","Street":"Minh Phụng","SupportDisability":"","Status":"Đang khai thác","Lng":106.643203,"Lat":10.755244,"Search":"CG 275 MP","Routes":"145, 148"},{"StopId":109,"Code":"Q6 061","Name":"Vòng xoay Cây Gõ","StopType":"Trụ dừng","Zone":"Quận 6","Ward":null,"AddressNo":"201","Street":"Minh Phụng","SupportDisability":"","Status":"Đang khai thác","Lng":106.642929,"Lat":10.753264,"Search":"VxCG 201 MP","Routes":"148"},{"StopId":108,"Code":"Q6 062","Name":"Chợ Minh Phụng","StopType":"Trụ dừng","Zone":"Quận 6","Ward":null,"AddressNo":"101A-101","Street":"Minh Phụng","SupportDisability":"","Status":"Đang khai thác","Lng":106.642495,"Lat":10.750922,"Search":"CMP 101A-101 MP","Routes":"148"},{"StopId":111,"Code":"Q6 025","Name":"Cầu Hậu Giang","StopType":"Trụ dừng","Zone":"Quận 6","Ward":null,"AddressNo":"212A","Street":"Hậu Giang","SupportDisability":"","Status":"Đang khai thác","Lng":106.641503,"Lat":10.749736,"Search":"CHG 212A HG","Routes":"10, 148, 25, 61, 91"},{"StopId":110,"Code":"Q6 026","Name":"Chợ Hoa","StopType":"Trụ dừng","Zone":"Quận 6","Ward":null,"AddressNo":"460-462","Street":"Hậu Giang","SupportDisability":"","Status":"Đang khai thác","Lng":106.637437,"Lat":10.748714,"Search":"CH 460-462 HG","Routes":"10, 148, 25, 61, 91"},{"StopId":113,"Code":"Q6 027","Name":"Nguyễn Văn Luông","StopType":"Trụ dừng","Zone":"Quận 6","Ward":null,"AddressNo":"620-622","Street":"Hậu Giang","SupportDisability":"","Status":"Đang khai thác","Lng":106.634663,"Lat":10.748039,"Search":"NVL 620-622 HG","Routes":"10, 148, 25, 91"},{"StopId":112,"Code":"Q6 028","Name":"Bình Phú","StopType":"Biển treo","Zone":"Quận 6","Ward":null,"AddressNo":"730-732","Street":"Hậu Giang","SupportDisability":"","Status":"Đang khai thác","Lng":106.633312,"Lat":10.747697,"Search":"BP 730-732 HG","Routes":"10, 148, 25, 91"},{"StopId":114,"Code":"Q6 029","Name":"Đồng Quê","StopType":"Biển treo","Zone":"Quận 6","Ward":null,"AddressNo":"910","Street":"Hậu Giang","SupportDisability":"","Status":"Đang khai thác","Lng":106.628382,"Lat":10.746511,"Search":"DQ 910 HG","Routes":"10, 148, 25, 91"},{"StopId":115,"Code":"Q6 030","Name":"Mũi Tàu Phú Lâm","StopType":"Trụ dừng","Zone":"Quận 6","Ward":null,"AddressNo":"1054","Street":"Hậu Giang","SupportDisability":"","Status":"Đang khai thác","Lng":106.624686,"Lat":10.745536,"Search":"MTPL 1054 HG","Routes":"10, 148, 25, 91"},{"StopId":117,"Code":"QBT 011","Name":"Vòng xoay Kinh Dương Vương","StopType":"Trụ dừng","Zone":"Quận Bình Tân","Ward":"Phường An Lạc","AddressNo":"212-214","Street":"Kinh Dương Vương","SupportDisability":"","Status":"Đang khai thác","Lng":106.622475,"Lat":10.744746,"Search":"VxKDV 212-214 KDV","Routes":"09, 10, 139, 14, 148, 25, 32, 61, 62-1, 62-10, 62-2, 62-8, 63-1, 84, 91"},{"StopId":116,"Code":"QBT 012","Name":"Bến xe Miền Tây","StopType":"Trụ dừng","Zone":"Quận Bình Tân","Ward":"Phường An Lạc","AddressNo":"358-360","Street":"Kinh Dương Vương","SupportDisability":"","Status":"Đang khai thác","Lng":106.619096,"Lat":10.741973,"Search":"BxMT 358-360 KDV","Routes":"09, 10, 139, 14, 148, 25, 32, 61, 62-10, 62-2, 62-8, 63-1, 84, 91"},{"StopId":725,"Code":"BX 46","Name":"Bến xe Miền Tây","StopType":"Bến xe","Zone":"Quận Bình Tân","Ward":null,"AddressNo":"Bến xe Miền Tây","Street":"Kinh Dương Vương","SupportDisability":"","Status":"Đang khai thác","Lng":106.619438,"Lat":10.739486,"Search":"BxMT BxMT KDV","Routes":"10, 102, 139, 14, 148, 151, 32, 39, 41, 60-1, 91"}]