[{"StopId":1979,"Code":"BX49","Name":"Bến xe buýt Tân Phú","StopType":"Bến xe","Zone":"Quận Tân Phú","Ward":"Phường Tây Thạnh","AddressNo":"BẾN XE BUÝT TÂN PHÚ","Street":"Trường Chinh","SupportDisability":"","Status":"Đang khai thác","Lng":106.633537,"Lat":10.809163,"Search":"BxbTP BXBTP TC","Routes":"16, 48, 63-1"},{"StopId":177,"Code":"QTP 014","Name":"Trạm Đài Liệt Sỹ","StopType":"Nhà chờ","Zone":"Quận Tân Phú","Ward":"Phường Tây Thạnh","AddressNo":"1/3","Street":"Trường Chinh","SupportDisability":"","Status":"Đang khai thác","Lng":106.634019,"Lat":10.808689,"Search":"TDLS 1/3 TC","Routes":"04, 104, 13, 145, 16, 23, 27, 28, 48, 62, 63-1, 65, 94"},{"StopId":268,"Code":"QTB 075","Name":"Mũi tàu Cộng Hòa","StopType":"Trụ dừng","Zone":"Quận Tân Bình","Ward":null,"AddressNo":"19B1","Street":"Trường Chinh","SupportDisability":"","Status":"Đang khai thác","Lng":106.634638,"Lat":10.808314,"Search":"MtCH 19B1 TC","Routes":"04, 104, 13, 145, 16, 23, 27, 28, 62, 63-1, 65, 94"},{"StopId":7129,"Code":"QTP 246","Name":"Trường Chinh","StopType":"Trụ dừng","Zone":"Quận Tân Phú","Ward":"Phường Tây Thạnh","AddressNo":"10-12","Street":"Chế Lan Viên","SupportDisability":"","Status":"Đang khai thác","Lng":106.632577,"Lat":10.81263,"Search":"TC 10-12 CLV","Routes":"16"},{"StopId":1977,"Code":"QTP 249","Name":"Lưu Chí Hiếu","StopType":"Trụ dừng","Zone":"Quận Tân Phú","Ward":"Phường Tây Thạnh","AddressNo":"đối diện 75/2","Street":"Chế Lan Viên","SupportDisability":"","Status":"Đang khai thác","Lng":106.62748,"Lat":10.811671,"Search":"LCH dd75/2 CLV","Routes":"16"},{"StopId":2653,"Code":"QTP 179","Name":"Trung tâm Văn Hóa Quận Tân Phú","StopType":"Trụ dừng","Zone":"Quận Tân Phú","Ward":"Phường Tây Thạnh","AddressNo":"Đối diện 90","Street":"Dương Đức Hiền","SupportDisability":"","Status":"Đang khai thác","Lng":106.626906,"Lat":10.810607,"Search":"TtVHQTP Dd90 DDH","Routes":"16, 32"},{"StopId":2655,"Code":"QTP 180","Name":"Lê Trọng Tấn","StopType":"Trụ dừng","Zone":"Quận Tân Phú","Ward":"Phường Tây Thạnh","AddressNo":"Đối diện 14 (Công ty may)","Street":"Dương Đức Hiền","SupportDisability":"","Status":"Đang khai thác","Lng":106.627228,"Lat":10.807314,"Search":"LTT Dd14(tm DDH","Routes":"16, 32"},{"StopId":2000,"Code":"QTP 062","Name":"Nguyễn Hữu Tiến","StopType":"Trụ dừng","Zone":"Quận Tân Phú","Ward":"Phường Tây Thạnh","AddressNo":"188","Street":"Lê Trọng Tấn","SupportDisability":"","Status":"Đang khai thác","Lng":106.625366,"Lat":10.806785,"Search":"NHT 188 LTT","Routes":"16, 41, 48, 69"},{"StopId":2005,"Code":"QTP 063","Name":"Trạm Bờ Bao Tân Thắng","StopType":"Trụ dừng","Zone":"Quận Tân Phú","Ward":"Phường Tây Thạnh","AddressNo":"284","Street":"Lê Trọng Tấn","SupportDisability":"","Status":"Đang khai thác","Lng":106.622177,"Lat":10.807464,"Search":"TBBTT 284 LTT","Routes":"16, 41, 48, 69"},{"StopId":2002,"Code":"QTP 214","Name":"Chợ Sơn Kỳ","StopType":"Trụ dừng","Zone":"Quận Tân Phú","Ward":"Phường Sơn Kỳ","AddressNo":"Đối diện chợ Sơn kỳ","Street":"Bờ Bao tân Thắng","SupportDisability":"","Status":"Đang khai thác","Lng":106.621708,"Lat":10.806144,"Search":"CSK DdcSk BBtT","Routes":"16"},{"StopId":2006,"Code":"QTP 215","Name":"Ủy ban phường Sơn Kỳ","StopType":"Trụ dừng","Zone":"Quận Tân Phú","Ward":"Phường Sơn Kỳ","AddressNo":"Đối diện Ủy ban phường Sơn Kỳ","Street":"Bờ Bao tân Thắng","SupportDisability":"","Status":"Đang khai thác","Lng":106.622014,"Lat":10.803341,"Search":"UbpSK DdUbpSK BBtT","Routes":"16"},{"StopId":2004,"Code":"QTP 082","Name":"Tân Quý","StopType":"Trụ dừng","Zone":"Quận Tân Phú","Ward":"Phường Sơn Kỳ","AddressNo":"Kế 410","Street":"Tân Kỳ Tân Quý","SupportDisability":"","Status":"Đang khai thác","Lng":106.618629,"Lat":10.799231,"Search":"TQ K410 TKTQ","Routes":"16, 69"},{"StopId":2007,"Code":"QTP 083","Name":"Trường Tiểu Học Tân Quý","StopType":"Trụ dừng","Zone":"Quận Tân Phú","Ward":"Phường Sơn Kỳ","AddressNo":"3/1B","Street":"Tân Kỳ Tân Quý","SupportDisability":"","Status":"Đang khai thác","Lng":106.616493,"Lat":10.798385,"Search":"TTHTQ 3/1B TKTQ","Routes":"16, 69"},{"StopId":2009,"Code":"QTP 084","Name":"Trạm Bình Long","StopType":"Trụ dừng","Zone":"Quận Tân Phú","Ward":"Phường Sơn Kỳ","AddressNo":"520-522","Street":"Tân Kỳ Tân Quý","SupportDisability":"","Status":"Đang khai thác","Lng":106.614571,"Lat":10.797263,"Search":"TBL 520-522 TKTQ","Routes":"16, 69"},{"StopId":2008,"Code":"QBT 127","Name":"Lò Thiêu","StopType":"Ô sơn","Zone":"Quận Bình Tân","Ward":null,"AddressNo":"Đối diện Thành Minh Trương Tế","Street":"Tân Kỳ Tân Quý","SupportDisability":"","Status":"Đang khai thác","Lng":106.612221,"Lat":10.795939,"Search":"LT DdTMTT TKTQ","Routes":"16"},{"StopId":1804,"Code":"QBT 128","Name":"UBND Phường Bình Hưng Hòa","StopType":"Ô sơn","Zone":"Quận Bình Tân","Ward":null,"AddressNo":"Đối diện Ủy ban nhân dân phường Bình Hưng Hòa","Street":"Tân Kỳ Tân Quý","SupportDisability":"","Status":"Đang khai thác","Lng":106.610229,"Lat":10.794702,"Search":"UPBHH Dd?bndpBHH TKTQ","Routes":"16"},{"StopId":1808,"Code":"QBT 129","Name":"Phòng khám Đa khoa","StopType":"Ô sơn","Zone":"Quận Bình Tân","Ward":null,"AddressNo":"722","Street":"Tân Kỳ Tân Quý","SupportDisability":"","Status":"Đang khai thác","Lng":106.606636,"Lat":10.792528,"Search":"PkDk 722 TKTQ","Routes":"16"},{"StopId":1810,"Code":"QBT 130","Name":"Bưu điện","StopType":"Ô sơn","Zone":"Quận Bình Tân","Ward":null,"AddressNo":"928","Street":"Tân Kỳ Tân Quý","SupportDisability":"","Status":"Đang khai thác","Lng":106.6007,"Lat":10.788981,"Search":"Bd 928 TKTQ","Routes":"16"},{"StopId":2011,"Code":"QBT 260","Name":"Ngã 3 Ao Đôi","StopType":"Trụ dừng","Zone":"Quận Bình Tân","Ward":"Phường Bình Trị Đông B","AddressNo":"339","Street":"Mã Lò","SupportDisability":"","Status":"Đang khai thác","Lng":106.600991,"Lat":10.775607,"Search":"N3AD 339 ML","Routes":"16, 41"},{"StopId":2010,"Code":"QBT 261","Name":"Công ty Đại Càng Phát","StopType":"Trụ dừng","Zone":"Quận Bình Tân","Ward":"Phường Bình Trị Đông B","AddressNo":"247","Street":"Mã Lò","SupportDisability":"","Status":"Đang khai thác","Lng":106.601849,"Lat":10.77235,"Search":"CtDCP 247 ML","Routes":"16, 41"},{"StopId":2013,"Code":"QBT 262","Name":"Phòng tiếp dân","StopType":"Trụ dừng","Zone":"Quận Bình Tân","Ward":"Phường Bình Trị Đông A","AddressNo":"201","Street":"Mã Lò","SupportDisability":"","Status":"Đang khai thác","Lng":106.60311,"Lat":10.768224,"Search":"Ptd 201 ML","Routes":"16, 41"},{"StopId":1866,"Code":"QBT 113","Name":"Thạch cao Thanh Tài","StopType":"Ô sơn","Zone":"Quận Bình Tân","Ward":"Phường Bình Trị Đông A","AddressNo":"737","Street":"Hương lộ 2","SupportDisability":"","Status":"Đang khai thác","Lng":106.605835,"Lat":10.766184,"Search":"TcTT 737 Hl2","Routes":"15, 16"},{"StopId":2012,"Code":"QBT 205","Name":"Đất Mới","StopType":"Ô sơn","Zone":"Quận Bình Tân","Ward":null,"AddressNo":"245","Street":"Đất Mới","SupportDisability":"","Status":"Đang khai thác","Lng":106.609535,"Lat":10.766664,"Search":"DM 245 DM","Routes":"16"},{"StopId":2015,"Code":"QBT 204","Name":"Quán Cau Xanh","StopType":"Ô sơn","Zone":"Quận Bình Tân","Ward":null,"AddressNo":"177","Street":"Đất Mới","SupportDisability":"","Status":"Đang khai thác","Lng":106.609634,"Lat":10.765465,"Search":"QCX 177 DM","Routes":"16"},{"StopId":2014,"Code":"QBT 203","Name":"Chợ Bình Trị Đông cũ","StopType":"Ô sơn","Zone":"Quận Bình Tân","Ward":null,"AddressNo":"107","Street":"Đất Mới","SupportDisability":"","Status":"Đang khai thác","Lng":106.609863,"Lat":10.762595,"Search":"CBTDc 107 DM","Routes":"16"},{"StopId":2017,"Code":"QBT 196","Name":"Chợ Bình Trị Đông mới","StopType":"Ô sơn","Zone":"Quận Bình Tân","Ward":null,"AddressNo":"108","Street":"Trương Phước Phan","SupportDisability":"","Status":"Đang khai thác","Lng":106.613121,"Lat":10.76277,"Search":"CBTDm 108 TPP","Routes":"16"},{"StopId":2016,"Code":"QBT 195","Name":"Làng nướng Tây Nguyên","StopType":"Ô sơn","Zone":"Quận Bình Tân","Ward":null,"AddressNo":"40","Street":"Trương Phước Phan","SupportDisability":"","Status":"Đang khai thác","Lng":106.613251,"Lat":10.765926,"Search":"LnTN 40 TPP","Routes":"16"},{"StopId":2021,"Code":"QBT 194","Name":"Lê Thái","StopType":"Ô sơn","Zone":"Quận Bình Tân","Ward":null,"AddressNo":"2","Street":"Trương Phước Phan","SupportDisability":"","Status":"Đang khai thác","Lng":106.613541,"Lat":10.767774,"Search":"LT 2 TPP","Routes":"16"},{"StopId":2019,"Code":"QBT 124","Name":"Ao cá Cây Bàng","StopType":"Ô sơn","Zone":"Quận Bình Tân","Ward":null,"AddressNo":"379","Street":"Tân Hòa Đông","SupportDisability":"","Status":"Đang khai thác","Lng":106.618065,"Lat":10.765296,"Search":"AcCB 379 THD","Routes":"16"},{"StopId":2024,"Code":"QBT 125","Name":"Bình Trị Đông","StopType":"Ô sơn","Zone":"Quận Bình Tân","Ward":null,"AddressNo":"331","Street":"Tân Hòa Đông","SupportDisability":"","Status":"Đang khai thác","Lng":106.62011,"Lat":10.763444,"Search":"BTD 331 THD","Routes":"16"},{"StopId":2020,"Code":"QBT 126","Name":"Ấp Chiến Lược","StopType":"Ô sơn","Zone":"Quận Bình Tân","Ward":null,"AddressNo":"275","Street":"Tân Hòa Đông","SupportDisability":"","Status":"Đang khai thác","Lng":106.62181,"Lat":10.761963,"Search":"ACL 275 THD","Routes":"16"},{"StopId":2025,"Code":"Q6 091","Name":"Chợ Tân Hòa Đông","StopType":"Trụ dừng","Zone":"Quận 6","Ward":null,"AddressNo":"243","Street":"Tân Hòa Đông","SupportDisability":"","Status":"Đang khai thác","Lng":106.625887,"Lat":10.759829,"Search":"CTHD 243 THD","Routes":"16"},{"StopId":2023,"Code":"Q6 092","Name":"Trường Tiểu học Trương Công Định","StopType":"Trụ dừng","Zone":"Quận 6","Ward":null,"AddressNo":"191","Street":"Tân Hòa Đông","SupportDisability":"","Status":"Đang khai thác","Lng":106.628215,"Lat":10.759523,"Search":"TThTCD 191 THD","Routes":"16"},{"StopId":2026,"Code":"Q6 093","Name":"Chợ Phú Lâm","StopType":"Trụ dừng","Zone":"Quận 6","Ward":null,"AddressNo":"55-57","Street":"Tân Hòa Đông","SupportDisability":"","Status":"Đang khai thác","Lng":106.631402,"Lat":10.757294,"Search":"CPL 55-57 THD","Routes":"16"},{"StopId":2027,"Code":"Q6 094","Name":"Coop Mart Phú Lâm","StopType":"Trụ dừng","Zone":"Quận 6","Ward":null,"AddressNo":"Đối diện 06","Street":"Tân Hòa Đông","SupportDisability":"","Status":"Đang khai thác","Lng":106.633875,"Lat":10.754616,"Search":"CMPL Dd06 THD","Routes":"16"},{"StopId":724,"Code":"Q6 039","Name":"Cầu Ông Buông","StopType":"Trụ dừng","Zone":"Quận 6","Ward":null,"AddressNo":"959","Street":"Hồng Bàng","SupportDisability":"","Status":"Đang khai thác","Lng":106.638429,"Lat":10.754543,"Search":"COB 959 HB","Routes":"09, 139, 14, 16, 62-1, 62-10, 62-2, 62-6, 62-7, 62-8, 63-1, 81, 84"},{"StopId":719,"Code":"Q6 040","Name":"Ngân hàng ACB","StopType":"Trụ dừng","Zone":"Quận 6","Ward":null,"AddressNo":"871","Street":"Hồng Bàng","SupportDisability":"","Status":"Đang khai thác","Lng":106.641245,"Lat":10.754295,"Search":"NhA 871 HB","Routes":"09, 139, 14, 16, 62-1, 62-10, 62-2, 62-6, 62-7, 62-8, 63-1, 81, 84"},{"StopId":721,"Code":"Q6 041","Name":"Trường Nguyễn Đức Cảnh","StopType":"Nhà chờ","Zone":"Quận 6","Ward":null,"AddressNo":"799","Street":"Hồng Bàng","SupportDisability":"","Status":"Đang khai thác","Lng":106.643761,"Lat":10.754021,"Search":"TNDC 799 HB","Routes":"09, 139, 145, 16, 62-1, 62-10, 62-2, 62-6, 62-7, 62-8, 63-1, 81, 84"},{"StopId":723,"Code":"Q6 042","Name":"Chùa Nam Phổ Đà","StopType":"Trụ dừng","Zone":"Quận 6","Ward":null,"AddressNo":"733-735","Street":"Hồng Bàng","SupportDisability":"","Status":"Đang khai thác","Lng":106.646116,"Lat":10.753742,"Search":"CNPD 733-735 HB","Routes":"09, 139, 145, 16, 62-1, 62-10, 62-2, 62-6, 62-7, 62-8, 63-1, 81, 84"},{"StopId":722,"Code":"Q6 043","Name":"Lò Siêu","StopType":"Trụ dừng","Zone":"Quận 6","Ward":null,"AddressNo":"647","Street":"Hồng Bàng","SupportDisability":"","Status":"Đang khai thác","Lng":106.648241,"Lat":10.753504,"Search":"LS 647 HB","Routes":"09, 139, 145, 16, 62-1, 62-10, 62-2, 62-6, 62-8, 63-1, 81, 84"},{"StopId":7282,"Code":"BX101","Name":"Bến xe buýt Chợ Lớn - A","StopType":"Bến xe","Zone":"Quận 6","Ward":"Phường 01","AddressNo":"BẾN XE BUÝT CHỢ LỚN A","Street":"Lê Quang Sung","SupportDisability":"Có","Status":"Đang khai thác","Lng":106.652607,"Lat":10.751259,"Search":"BxbCL-A BXBCLA LQS","Routes":"103, 16"}]