[{"StopId":7208,"Code":"BXLT Bien Hoa","Name":"Bến xe Biên Hòa","StopType":"Bến xe","Zone":"Ngoại thành","Ward":null,"AddressNo":"4 Nguyễn Ái Quốc","Street":"Quốc lộ 1K","SupportDisability":"Có","Status":"Đang khai thác","Lng":106.808953,"Lat":10.954127,"Search":"BxBH 4NAQ Ql1K","Routes":"05, 60-1, 60-5, 60-7"},{"StopId":7700,"Code":"Q9 286","Name":"Chung Cư Samsora Riverside","StopType":"Trụ dừng","Zone":"TP. Thủ Đức - KV2","Ward":null,"AddressNo":"Vườn kiểng Mai Vàng (đ/d 254/10)","Street":"Quốc Lộ 1","SupportDisability":"Có","Status":"Đang khai thác","Lng":106.833655,"Lat":10.899661,"Search":"CCSR VkMV(254/10) QL1","Routes":"60-1, 60-2, 60-3, 60-7"},{"StopId":1186,"Code":"Q9 230","Name":"Công ty TNHH Thuận Thành Tâm","StopType":"Trụ dừng","Zone":"TP. Thủ Đức - KV2","Ward":null,"AddressNo":"Công ty TNHH Thuận Thành Tâm","Street":"Quốc lộ 1","SupportDisability":"","Status":"Đang khai thác","Lng":106.822804,"Lat":10.892685,"Search":"CtTTTT CtTTTT Ql1","Routes":"60-1, 60-2, 60-3, 60-7"},{"StopId":1188,"Code":"Q9 231","Name":"Công ty Dosan","StopType":"Trụ dừng","Zone":"TP. Thủ Đức - KV2","Ward":null,"AddressNo":"Công ty Dosan","Street":"Quốc lộ 1","SupportDisability":"","Status":"Đang khai thác","Lng":106.820047,"Lat":10.888961,"Search":"CtD CtD Ql1","Routes":"60-1, 60-2, 60-3, 60-7"},{"StopId":1187,"Code":"Q9 232","Name":"Công ty Cp Đức Khải","StopType":"Trụ dừng","Zone":"TP. Thủ Đức - KV2","Ward":null,"AddressNo":"Công ty Cp Đức Khải","Street":"Quốc lộ 1","SupportDisability":"","Status":"Đang khai thác","Lng":106.812918,"Lat":10.879241,"Search":"CtCDK CtCDK Ql1","Routes":"60-1, 60-2, 60-3, 60-7"},{"StopId":572,"Code":"QTD 175","Name":"Đại học An Ninh Nhân Dân","StopType":"Trụ dừng","Zone":"TP. Thủ Đức - KV3","Ward":null,"AddressNo":"Nhà máy Tiến Thành","Street":"Quốc lộ 1","SupportDisability":"","Status":"Đang khai thác","Lng":106.806657,"Lat":10.871402,"Search":"DhANND NmTT Ql1","Routes":"08, 10, 150, 164V, 166, 19, 33, 53, 60-1, 60-2, 60-3, 60-7, 61-9, 67, 76, 99"},{"StopId":574,"Code":"QTD 177","Name":"Khu DL Suối Tiên","StopType":"Nhà chờ","Zone":"TP. Thủ Đức - KV3","Ward":"Phường Linh Trung","AddressNo":"9/29","Street":"Quốc lộ 1","SupportDisability":"","Status":"Đang khai thác","Lng":106.801116,"Lat":10.86605,"Search":"KDST 9/29 Ql1","Routes":"08, 10, 150, 19, 33, 53, 60-1, 60-2, 60-3, 60-7, 61-9, 67, 76, 93, 99"},{"StopId":2145,"Code":"QTD 179","Name":"Thảo Nguyên","StopType":"Trụ dừng","Zone":"TP. Thủ Đức - KV3","Ward":"Phường Linh Trung","AddressNo":"35B","Street":"Quốc lộ 1","SupportDisability":"","Status":"Đang khai thác","Lng":106.793938,"Lat":10.865335,"Search":"TN 35B Ql1","Routes":"164V, 19, 33, 50, 52, 53, 60-1, 60-2, 61-9, 93"},{"StopId":500,"Code":"QTD 180","Name":"Đại học Nông Lâm","StopType":"Trụ dừng","Zone":"TP. Thủ Đức - KV3","Ward":"Phường Linh Trung","AddressNo":"85 (Đối diện 1026-1028)","Street":"Quốc lộ 1","SupportDisability":"","Status":"Đang khai thác","Lng":106.791101,"Lat":10.866961,"Search":"DhNL 85(d1026-1028) Ql1","Routes":"06, 164D, 164V, 19, 33, 50, 52, 53, 60-1, 60-2, 61-9, 93"},{"StopId":1101,"Code":"QTD 181","Name":"ĐH Nông Lâm","StopType":"Nhà chờ","Zone":"TP. Thủ Đức - KV3","Ward":null,"AddressNo":"Kế 21","Street":"Quốc lộ 1","SupportDisability":"","Status":"Đang khai thác","Lng":106.787265,"Lat":10.867404,"Search":"DNL K21 Ql1","Routes":"167D, 19, 33, 50, 53, 60-1, 61-9, 93"},{"StopId":1102,"Code":"QTD 182","Name":"Công ty điện tử Samsung","StopType":"Trụ dừng","Zone":"TP. Thủ Đức - KV3","Ward":null,"AddressNo":"34/38 (Kế 59/6)","Street":"Quốc lộ 1","SupportDisability":"","Status":"Đang khai thác","Lng":106.782201,"Lat":10.867867,"Search":"CtdtS 34/38(59/6) Ql1","Routes":"167D, 19, 33, 50, 53, 60-1, 61-9, 93"},{"StopId":1103,"Code":"QTD 183","Name":"Đại học Kinh tế -Luật","StopType":"Nhà chờ","Zone":"TP. Thủ Đức - KV3","Ward":"Phường Linh Xuân","AddressNo":"Đại học Kinh tế -Luật","Street":"Quốc lộ 1","SupportDisability":"","Status":"Đang khai thác","Lng":106.77726,"Lat":10.869427,"Search":"DhKt-Luat DhKt-Luat Ql1","Routes":"167V, 19, 33, 50, 60-1, 61-9, 93"},{"StopId":2142,"Code":"QTD 184","Name":"Trung tâm kho vận Linh Xuân","StopType":"Nhà chờ","Zone":"TP. Thủ Đức - KV3","Ward":"Phường Linh Xuân","AddressNo":"Trung tâm kho vận Linh Xuân","Street":"Quốc lộ 1","SupportDisability":"","Status":"Đang khai thác","Lng":106.774932,"Lat":10.870254,"Search":"TtkvLX TtkvLX Ql1","Routes":"167V, 19, 33, 50, 53, 60-1, 61-9, 93"},{"StopId":2143,"Code":"QTD 186","Name":"Công ty Nissan","StopType":"Ô sơn","Zone":"TP. Thủ Đức - KV3","Ward":null,"AddressNo":"Đối diện công ty Nissan (559)","Street":"Quốc lộ 1","SupportDisability":"","Status":"Đang khai thác","Lng":106.768248,"Lat":10.872419,"Search":"CtN DdctN( Ql1","Routes":"167V, 19, 33, 50, 53, 60-1, 61-9, 93"},{"StopId":339,"Code":"QTD 187","Name":"Cầu vượt Linh Xuân","StopType":"Trụ dừng","Zone":"TP. Thủ Đức - KV3","Ward":"Phường Linh Xuân","AddressNo":"467B","Street":"Quốc lộ 1","SupportDisability":"","Status":"Đang khai thác","Lng":106.762095,"Lat":10.874474,"Search":"CvLX 467B Ql1","Routes":"05, 19, 33, 60-1, 61-9"},{"StopId":341,"Code":"QTD 188","Name":"Giày Thái Bình-Bình Đường","StopType":"Trụ dừng","Zone":"TP. Thủ Đức - KV3","Ward":null,"AddressNo":"467B","Street":"Quốc lộ 1","SupportDisability":"","Status":"Không có","Lng":106.758689,"Lat":10.875454,"Search":"GTBD 467B Ql1","Routes":"05, 19, 33, 60-1, 61-9"},{"StopId":342,"Code":"QTD 190","Name":"Bến xe Lam Hồng","StopType":"Trụ dừng","Zone":"TP. Thủ Đức - KV3","Ward":null,"AddressNo":"12A/28","Street":"Quốc lộ 1","SupportDisability":"","Status":"Đang khai thác","Lng":106.755631,"Lat":10.876049,"Search":"BxLH 12A/28 Ql1","Routes":"05, 19, 33, 60-1, 61-9"},{"StopId":344,"Code":"QTD 191","Name":"Cầu vượt Sóng Thần","StopType":"Nhà chờ","Zone":"TP. Thủ Đức - KV3","Ward":null,"AddressNo":"275","Street":"Quốc lộ 1","SupportDisability":"","Status":"Đang khai thác","Lng":106.746528,"Lat":10.874115,"Search":"CvST 275 Ql1","Routes":"05, 19, 33, 60-1"},{"StopId":346,"Code":"QTD 192","Name":"Chợ Tam Hải","StopType":"Ô sơn","Zone":"TP. Thủ Đức - KV3","Ward":"Phường Bình Chiểu","AddressNo":"251B","Street":"Quốc lộ 1","SupportDisability":"","Status":"Đang khai thác","Lng":106.744291,"Lat":10.873373,"Search":"CTH 251B Ql1","Routes":"05, 19, 33, 60-1"},{"StopId":345,"Code":"QTD 193","Name":"Hồ Bơi","StopType":"Trụ dừng","Zone":"TP. Thủ Đức - KV3","Ward":"Phường Bình Chiểu","AddressNo":"179","Street":"Quốc lộ 1","SupportDisability":"","Status":"Đang khai thác","Lng":106.739913,"Lat":10.872177,"Search":"HB 179 Ql1","Routes":"05, 19, 33, 60-1"},{"StopId":348,"Code":"QTD 194","Name":"Chợ Tam Bình","StopType":"Trụ dừng","Zone":"TP. Thủ Đức - KV3","Ward":"Phường Bình Chiểu","AddressNo":"Đối diện Bưu điện Tam Bình","Street":"Quốc lộ 1","SupportDisability":"","Status":"Đang khai thác","Lng":106.734474,"Lat":10.870828,"Search":"CTB DdBdTB Ql1","Routes":"05, 19, 33, 60-1"},{"StopId":347,"Code":"QTD 195","Name":"Chợ đầu mối nông sản Thủ Đức","StopType":"Nhà chờ","Zone":"TP. Thủ Đức - KV3","Ward":"Phường Tam Bình","AddressNo":"Chợ đầu mối nông sản Thủ Đức","Street":"Quốc lộ 1","SupportDisability":"","Status":"Đang khai thác","Lng":106.729158,"Lat":10.86812,"Search":"CdmnsTD CdmnsTD Ql1","Routes":"05, 19, 29, 33, 60-1"},{"StopId":2348,"Code":"QTD 196","Name":"Cầu Bình Phước","StopType":"Trụ dừng","Zone":"TP. Thủ Đức - KV3","Ward":null,"AddressNo":"39A","Street":"Quốc lộ 1","SupportDisability":"","Status":"Đang khai thác","Lng":106.719894,"Lat":10.863451,"Search":"CBP 39A Ql1","Routes":"33, 60-1, 61-3"},{"StopId":2345,"Code":"Q12 061","Name":"Aone","StopType":"Ô sơn","Zone":"Quận 12","Ward":null,"AddressNo":"Đối diện Aone","Street":"Quốc lộ 1A","SupportDisability":"","Status":"Đang khai thác","Lng":106.713096,"Lat":10.85997,"Search":"A DdA Ql1A","Routes":"33, 60-1, 61-3"},{"StopId":2349,"Code":"Q12 062","Name":"Công ty EUROPA","StopType":"Nhà chờ","Zone":"Quận 12","Ward":null,"AddressNo":"Công ty EUROPA","Street":"Quốc lộ 1A","SupportDisability":"","Status":"Đang khai thác","Lng":106.707727,"Lat":10.859148,"Search":"CtE CtE Ql1A","Routes":"33, 60-1, 61-3"},{"StopId":2350,"Code":"Q12 064","Name":"Công ty Mai Linh","StopType":"Trụ dừng","Zone":"Quận 12","Ward":null,"AddressNo":"1691/3N","Street":"Quốc lộ 1A","SupportDisability":"","Status":"Đang khai thác","Lng":106.701086,"Lat":10.860007,"Search":"CtML 1691/3N Ql1A","Routes":"33, 60-1, 61-3"},{"StopId":2351,"Code":"Q12 065","Name":"Đình An Phú Đông","StopType":"Biển treo","Zone":"Quận 12","Ward":null,"AddressNo":"Đối diện Đình An Phú Đông","Street":"Quốc lộ 1A","SupportDisability":"","Status":"Đang khai thác","Lng":106.695453,"Lat":10.86065,"Search":"DAPD DdDAPD Ql1A","Routes":"33, 60-1, 61-3"},{"StopId":2352,"Code":"Q12 067","Name":"Công ty Hồng Mã","StopType":"Trụ dừng","Zone":"Quận 12","Ward":null,"AddressNo":"Công ty Hồng Mã","Street":"Quốc lộ 1A","SupportDisability":"","Status":"Đang khai thác","Lng":106.689413,"Lat":10.86104,"Search":"CtHM CtHM Ql1A","Routes":"33, 60-1, 61-3"},{"StopId":2355,"Code":"Q12 068","Name":"Phường An Phú Đông","StopType":"Trụ dừng","Zone":"Quận 12","Ward":null,"AddressNo":"616 - 618","Street":"Quốc lộ 1A","SupportDisability":"","Status":"Đang khai thác","Lng":106.685175,"Lat":10.861324,"Search":"PAPD 616-618 Ql1A","Routes":"33, 60-1, 61-3"},{"StopId":2354,"Code":"Q12 070","Name":"Bến xe Ngã tư Ga","StopType":"Nhà chờ","Zone":"Quận 12","Ward":null,"AddressNo":"Bến xe Ngã tư ga","Street":"Quốc lộ 1A","SupportDisability":"","Status":"Đang khai thác","Lng":106.679354,"Lat":10.861725,"Search":"BxNtG BxNtg Ql1A","Routes":"33, 58, 60-1, 61-3"},{"StopId":976,"Code":"Q12 071","Name":"Khu QLGTĐT số 3","StopType":"Trụ dừng","Zone":"Quận 12","Ward":null,"AddressNo":"96/2","Street":"Quốc lộ 1A","SupportDisability":"","Status":"Đang khai thác","Lng":106.674564,"Lat":10.861967,"Search":"KQs3 96/2 Ql1A","Routes":"103, 161, 32, 33, 59, 60-1, 61-3"},{"StopId":965,"Code":"Q12 073","Name":"Trường Mầm non Ngôi Nhà Trẻ Thơ","StopType":"Trụ dừng","Zone":"Quận 12","Ward":null,"AddressNo":"990","Street":"Quốc lộ 1A","SupportDisability":"","Status":"Đang khai thác","Lng":106.667461,"Lat":10.861877,"Search":"TMnNNTT 990 Ql1A","Routes":"103, 146, 33, 60-1, 61-3"},{"StopId":977,"Code":"Q12 074","Name":"Cơ khí Minh Huy","StopType":"Trụ dừng","Zone":"Quận 12","Ward":null,"AddressNo":"1218/11","Street":"Quốc lộ 1A","SupportDisability":"","Status":"Đang khai thác","Lng":106.661389,"Lat":10.861819,"Search":"CkMH 1218/11 Ql1A","Routes":"103, 146, 33, 60-1, 61-3"},{"StopId":966,"Code":"Q12 075","Name":"Đá hoa cương Chí Thành","StopType":"Nhà chờ","Zone":"Quận 12","Ward":null,"AddressNo":"1360","Street":"Quốc lộ 1A","SupportDisability":"","Status":"Đang khai thác","Lng":106.657183,"Lat":10.861988,"Search":"DhcCT 1360 Ql1A","Routes":"103, 146, 33, 60-1, 61-3"},{"StopId":969,"Code":"Q12 076","Name":"Quận ủy Quận 12","StopType":"Trụ dừng","Zone":"Quận 12","Ward":null,"AddressNo":"1456 (Quận Ủy quận 12)","Street":"Quốc lộ 1A","SupportDisability":"","Status":"Đang khai thác","Lng":106.653428,"Lat":10.862114,"Search":"QuQ12 1456(Uq12) Ql1A","Routes":"103, 33, 60-1, 61-3"},{"StopId":2775,"Code":"Q12 078","Name":"Cao su Vina","StopType":"Trụ dừng","Zone":"Quận 12","Ward":null,"AddressNo":"67/3A","Street":"Quốc lộ 1A","SupportDisability":"","Status":"Đang khai thác","Lng":106.648536,"Lat":10.861767,"Search":"CsV 67/3A Ql1A","Routes":"33, 60-1, 61-3, 62"},{"StopId":2776,"Code":"Q12 079","Name":"Cây xăng Trung Tín","StopType":"Trụ dừng","Zone":"Quận 12","Ward":null,"AddressNo":"1828","Street":"Quốc lộ 1A","SupportDisability":"","Status":"Đang khai thác","Lng":106.645682,"Lat":10.860302,"Search":"CxTT 1828 Ql1A","Routes":"33, 60-1, 61-3, 62"},{"StopId":2777,"Code":"Q12 080","Name":"Trạm điện Hóc Môn","StopType":"Trụ dừng","Zone":"Quận 12","Ward":null,"AddressNo":"1956","Street":"Quốc lộ 1A","SupportDisability":"","Status":"Đang khai thác","Lng":106.640918,"Lat":10.857668,"Search":"TdHM 1956 Ql1A","Routes":"33, 60-1, 61-3, 62"},{"StopId":2778,"Code":"Q12 081","Name":"Ngã tư Đình","StopType":"Trụ dừng","Zone":"Quận 12","Ward":null,"AddressNo":"44D","Street":"Quốc lộ 1A","SupportDisability":"","Status":"Đang khai thác","Lng":106.638172,"Lat":10.856256,"Search":"NtD 44D Ql1A","Routes":"33, 60-1, 61-3, 62"},{"StopId":2781,"Code":"Q12 083","Name":"Trường Nguyễn Du","StopType":"Nhà chờ","Zone":"Quận 12","Ward":null,"AddressNo":"Đối diện Trường Nguyễn Du","Street":"Quốc lộ 1A","SupportDisability":"","Status":"Đang khai thác","Lng":106.632469,"Lat":10.853048,"Search":"TND DdTND Ql1A","Routes":"33, 60-1, 61-3, 62"},{"StopId":2254,"Code":"Q12 085","Name":"Chung cư Thái An","StopType":"Trụ dừng","Zone":"Quận 12","Ward":null,"AddressNo":"Chung cư Thái An","Street":"Quốc lộ 1A","SupportDisability":"","Status":"Đang khai thác","Lng":106.624348,"Lat":10.84907,"Search":"CcTA CcTA Ql1A","Routes":"33, 60-1, 61-3"},{"StopId":2250,"Code":"Q12 086","Name":"Trạm đăng kiểm","StopType":"Trụ dừng","Zone":"Quận 12","Ward":null,"AddressNo":"Trạm đăng kiểm","Street":"Quốc lộ 1A","SupportDisability":"","Status":"Đang khai thác","Lng":106.621059,"Lat":10.8475,"Search":"Tdk Tdk Ql1A","Routes":"33, 60-1, 61-3"},{"StopId":2252,"Code":"Q12 088","Name":"Cầu vượt An Sương","StopType":"Nhà chờ","Zone":"Quận 12","Ward":null,"AddressNo":"Xưởng Z735","Street":"Quốc lộ 1A","SupportDisability":"","Status":"Đang khai thác","Lng":106.616081,"Lat":10.843623,"Search":"CvAS XZ Ql1A","Routes":"33, 60-1, 61-3"},{"StopId":3843,"Code":"HHM 0160","Name":"cầu vượt An Sương","StopType":"Trụ dừng","Zone":"Huyện Hóc Môn","Ward":"Xã Bà Điểm","AddressNo":"45/8C","Street":"Quốc lộ 1A","SupportDisability":"","Status":"Đang khai thác","Lng":106.614225,"Lat":10.841978,"Search":"cvAS 45/8C Ql1A","Routes":"151, 60-1"},{"StopId":1926,"Code":"HHM 017","Name":"Trạm măng","StopType":"Trụ dừng","Zone":"Huyện Hóc Môn","Ward":"Xã Bà Điểm","AddressNo":"41/1B","Street":"Quốc lộ 1A","SupportDisability":"","Status":"Đang khai thác","Lng":106.612535,"Lat":10.840398,"Search":"Tm 41/1B Ql1A","Routes":"151, 60-1"},{"StopId":1921,"Code":"HHM 018","Name":"Hồng Mộc","StopType":"Trụ dừng","Zone":"Huyện Hóc Môn","Ward":"Xã Bà Điểm","AddressNo":"59/2A","Street":"Quốc lộ 1A","SupportDisability":"","Status":"Đang khai thác","Lng":106.60797,"Lat":10.836167,"Search":"HM 59/2A Ql1A","Routes":"151, 60-1"},{"StopId":1928,"Code":"HHM 019","Name":"Ngã tư Bà Điểm","StopType":"Trụ dừng","Zone":"Huyện Hóc Môn","Ward":"Xã Bà Điểm","AddressNo":"57/7B","Street":"Quốc lộ 1A","SupportDisability":"","Status":"Đang khai thác","Lng":106.605804,"Lat":10.832674,"Search":"NtBD 57/7B Ql1A","Routes":"151, 60-1"},{"StopId":1930,"Code":"QBT 073","Name":"Quang Châu","StopType":"Ô sơn","Zone":"Quận Bình Tân","Ward":"Phường Bình Hưng Hoà B","AddressNo":"5/30K (SỐ 6)","Street":"Quốc lộ 1A","SupportDisability":"","Status":"Đang khai thác","Lng":106.602554,"Lat":10.823311,"Search":"QC 5/30K(6) Ql1A","Routes":"151, 60-1"},{"StopId":1932,"Code":"QBT 075","Name":"Gò Mây","StopType":"Trụ dừng","Zone":"Quận Bình Tân","Ward":"Phường Bình Hưng Hoà B","AddressNo":"230","Street":"Quốc lộ 1A","SupportDisability":"","Status":"Đang khai thác","Lng":106.601379,"Lat":10.818021,"Search":"GM 230 Ql1A","Routes":"151, 60-1"},{"StopId":1927,"Code":"QBT 076","Name":"Phú Cường","StopType":"Ô sơn","Zone":"Quận Bình Tân","Ward":"Phường Bình Hưng Hoà B","AddressNo":"386","Street":"Quốc lộ 1A","SupportDisability":"","Status":"Đang khai thác","Lng":106.598412,"Lat":10.804263,"Search":"PC 386 Ql1A","Routes":"151, 60-1"},{"StopId":1934,"Code":"QBT 077","Name":"Hương Quê","StopType":"Ô sơn","Zone":"Quận Bình Tân","Ward":"Phường Bình Hưng Hoà B","AddressNo":"320","Street":"Quốc lộ 1A","SupportDisability":"","Status":"Đang khai thác","Lng":106.597427,"Lat":10.799784,"Search":"HQ 320 Ql1A","Routes":"151, 60-1"},{"StopId":1929,"Code":"QBT 078","Name":"Phát Đạt","StopType":"Trụ dừng","Zone":"Quận Bình Tân","Ward":"Phường Bình Hưng Hoà B","AddressNo":"502","Street":"Quốc lộ 1A","SupportDisability":"","Status":"Đang khai thác","Lng":106.595779,"Lat":10.791742,"Search":"PD 502 Ql1A","Routes":"151, 60-1"},{"StopId":1937,"Code":"QBT 079","Name":"Khu phố 5","StopType":"Trụ dừng","Zone":"Quận Bình Tân","Ward":"Phường Bình Hưng Hoà B","AddressNo":"576","Street":"Quốc lộ 1A","SupportDisability":"","Status":"Đang khai thác","Lng":106.594925,"Lat":10.787811,"Search":"Kp5 576 Ql1A","Routes":"151, 60-1"},{"StopId":1931,"Code":"QBT 080","Name":"Tân Kỳ Tân Quý (Hoàng Gia Phát)","StopType":"Trụ dừng","Zone":"Quận Bình Tân","Ward":"Phường Bình Hưng Hoà B","AddressNo":"642","Street":"Quốc lộ 1A","SupportDisability":"","Status":"Đang khai thác","Lng":106.594276,"Lat":10.784723,"Search":"TKTQ(GP 642 Ql1A","Routes":"151, 60-1"},{"StopId":1939,"Code":"QBT 081","Name":"Thiên Phúc Học","StopType":"Nhà chờ","Zone":"Quận Bình Tân","Ward":"Phường Bình Hưng Hoà B","AddressNo":"734 (kế 738)","Street":"Quốc lộ 1A","SupportDisability":"","Status":"Đang khai thác","Lng":106.593697,"Lat":10.781952,"Search":"TPH 734(738) Ql1A","Routes":"151, 60-1"},{"StopId":1941,"Code":"QBT 082","Name":"Ao Đôi","StopType":"Ô sơn","Zone":"Quận Bình Tân","Ward":null,"AddressNo":"790 (Đối diện Ao Đôi)","Street":"Quốc lộ 1A","SupportDisability":"","Status":"Đang khai thác","Lng":106.593262,"Lat":10.779601,"Search":"AD 790(dAD Ql1A","Routes":"151, 60-1"},{"StopId":1933,"Code":"QBT 083","Name":"Hương lộ 2","StopType":"Trụ dừng","Zone":"Quận Bình Tân","Ward":null,"AddressNo":"854","Street":"Quốc lộ 1A","SupportDisability":"","Status":"Đang khai thác","Lng":106.592377,"Lat":10.775476,"Search":"Hl2 854 Ql1A","Routes":"151, 60-1"},{"StopId":1935,"Code":"QBT 084","Name":"Qua ngã tư Hương lộ 2","StopType":"Trụ dừng","Zone":"Quận Bình Tân","Ward":"Phường Bình Trị Đông A","AddressNo":"892","Street":"Quốc lộ 1A","SupportDisability":"","Status":"Đang khai thác","Lng":106.591667,"Lat":10.77234,"Search":"QntHl2 892 Ql1A","Routes":"151, 60-1"},{"StopId":1789,"Code":"QBT 085","Name":"Nghĩa trang Bình TÂn","StopType":"Trụ dừng","Zone":"Quận Bình Tân","Ward":null,"AddressNo":"950","Street":"Quốc lộ 1A","SupportDisability":"","Status":"Đang khai thác","Lng":106.590935,"Lat":10.768545,"Search":"NtBT 950 Ql1A","Routes":"15, 151, 25, 60-1"},{"StopId":1788,"Code":"QBT 086","Name":"Bà Hom","StopType":"Trụ dừng","Zone":"Quận Bình Tân","Ward":"Phường Tân Tạo","AddressNo":"978A","Street":"Quốc lộ 1A","SupportDisability":"","Status":"Đang khai thác","Lng":106.590683,"Lat":10.762401,"Search":"BH 978A Ql1A","Routes":"15, 151, 25, 60-1"},{"StopId":1791,"Code":"QBT 087","Name":"Nhà sách Tân Tạo","StopType":"Trụ dừng","Zone":"Quận Bình Tân","Ward":"Phường Tân Tạo","AddressNo":"1024","Street":"Quốc lộ 1A","SupportDisability":"","Status":"Đang khai thác","Lng":106.591492,"Lat":10.758026,"Search":"NsTT 1024 Ql1A","Routes":"15, 151, 25, 60-1"},{"StopId":1790,"Code":"QBT 088","Name":"Khu Công nghiệp Tân Tạo","StopType":"Nhà chờ","Zone":"Quận Bình Tân","Ward":"Phường Tân Tạo","AddressNo":"1054B (số cũ 666)","Street":"Quốc lộ 1A","SupportDisability":"","Status":"Đang khai thác","Lng":106.592392,"Lat":10.752793,"Search":"KCnTT 1054B(c666) Ql1A","Routes":"15, 151, 60-1, 73"},{"StopId":1792,"Code":"QBT 089","Name":"Công ty Pouyuen","StopType":"Nhà chờ","Zone":"Quận Bình Tân","Ward":"Phường Tân Tạo","AddressNo":"Đối diện Pouyen (1054N)","Street":"Quốc lộ 1A","SupportDisability":"","Status":"Đang khai thác","Lng":106.595367,"Lat":10.746899,"Search":"CtP DdP( Ql1A","Routes":"15, 151, 60-1"},{"StopId":1794,"Code":"QBT 091","Name":"Trạm Điện Quốc lộ 1A","StopType":"Trụ dừng","Zone":"Quận Bình Tân","Ward":"Phường Tân Tạo A","AddressNo":"A5/3Q","Street":"Quốc lộ 1A","SupportDisability":"","Status":"Đang khai thác","Lng":106.599724,"Lat":10.740001,"Search":"TDQl1A A Ql1A","Routes":"15, 151, 60-1"},{"StopId":1795,"Code":"QBT 092","Name":"Công an Quận Bình Tân","StopType":"Trụ dừng","Zone":"Quận Bình Tân","Ward":null,"AddressNo":"1054 (Quán ăn Xa lộ)","Street":"Quốc lộ 1A","SupportDisability":"","Status":"Đang khai thác","Lng":106.602081,"Lat":10.736204,"Search":"CaQBT 1054(aXl Ql1A","Routes":"15, 151, 60-1"},{"StopId":708,"Code":"QBT 001","Name":"Cầu An Lạc","StopType":"Trụ dừng","Zone":"Quận Bình Tân","Ward":null,"AddressNo":"849-851","Street":"Kinh Dương Vương","SupportDisability":"","Status":"Đang khai thác","Lng":106.602337,"Lat":10.724317,"Search":"CAL 849-851 KDV","Routes":"09, 102, 60-1, 61, 62-1, 62-10, 62-2, 62-8, 63-1, 84"},{"StopId":712,"Code":"QBT 002","Name":"Hoa Hồng","StopType":"Trụ dừng","Zone":"Quận Bình Tân","Ward":null,"AddressNo":"771","Street":"Kinh Dương Vương","SupportDisability":"","Status":"Đang khai thác","Lng":106.605191,"Lat":10.726583,"Search":"HH 771 KDV","Routes":"09, 102, 60-1, 61, 62-1, 62-10, 62-2, 62-8, 63-1, 84"},{"StopId":709,"Code":"QBT 003","Name":"Hàng Dương","StopType":"Trụ dừng","Zone":"Quận Bình Tân","Ward":"Phường An Lạc","AddressNo":"703","Street":"Kinh Dương Vương","SupportDisability":"","Status":"Đang khai thác","Lng":106.607605,"Lat":10.72832,"Search":"HD 703 KDV","Routes":"09, 102, 151, 39, 60-1, 61, 62-1, 62-10, 62-2, 62-8, 63-1, 84"},{"StopId":714,"Code":"QBT 004","Name":"Ủy ban","StopType":"Trụ dừng","Zone":"Quận Bình Tân","Ward":"Phường An Lạc","AddressNo":"631-637","Street":"Kinh Dương Vương","SupportDisability":"","Status":"Đang khai thác","Lng":106.610255,"Lat":10.729977,"Search":"Ub 631-637 KDV","Routes":"09, 102, 151, 39, 60-1, 61, 62-1, 62-10, 62-2, 62-8, 63-1, 84"},{"StopId":710,"Code":"QBT 005","Name":"Lâm Thành","StopType":"Trụ dừng","Zone":"Quận Bình Tân","Ward":"Phường An Lạc","AddressNo":"289(561)","Street":"Kinh Dương Vương","SupportDisability":"","Status":"Đang khai thác","Lng":106.61298,"Lat":10.734278,"Search":"LT 289(561) KDV","Routes":"09, 102, 151, 39, 60-1, 61, 62-1, 62-10, 62-2, 62-8, 63-1, 84"},{"StopId":716,"Code":"QBT 006","Name":"Tên Lửa","StopType":"Trụ dừng","Zone":"Quận Bình Tân","Ward":"Phường An Lạc","AddressNo":"251(511)","Street":"Kinh Dương Vương","SupportDisability":"","Status":"Đang khai thác","Lng":106.614906,"Lat":10.737541,"Search":"TL 251(511) KDV","Routes":"09, 102, 151, 39, 60-1, 61, 62-1, 62-10, 62-2, 62-8, 63-1, 84"},{"StopId":713,"Code":"QBT 007","Name":"Bệnh viện Triều An","StopType":"Nhà chờ","Zone":"Quận Bình Tân","Ward":"Phường An Lạc","AddressNo":"Bệnh viện Triều An","Street":"Kinh Dương Vương","SupportDisability":"","Status":"Đang khai thác","Lng":106.61687,"Lat":10.739665,"Search":"BvTA BvTA KDV","Routes":"09, 102, 151, 25, 39, 41, 60-1, 61, 62-1, 62-10, 62-2, 62-8, 63-1, 84"},{"StopId":725,"Code":"BX 46","Name":"Bến xe Miền Tây","StopType":"Bến xe","Zone":"Quận Bình Tân","Ward":null,"AddressNo":"Bến xe Miền Tây","Street":"Kinh Dương Vương","SupportDisability":"","Status":"Đang khai thác","Lng":106.619438,"Lat":10.739486,"Search":"BxMT BxMT KDV","Routes":"10, 102, 139, 14, 148, 151, 32, 39, 41, 60-1, 91"}]