[{"StopId":9348,"Code":"BD BX 0015","Name":"Thành phố mới","StopType":"Bến xe","Zone":"Bình Dương","Ward":null,"AddressNo":"Thành phố mới","Street":"Lý Thái Tổ","SupportDisability":"","Status":"Đang khai thác","Lng":106.684244,"Lat":11.057913,"Search":"Tpm Tpm LTT","Routes":"61-73"},{"StopId":8419,"Code":"BD-0108","Name":"Khách sạn Becamex Thành phố Mới","StopType":"Nhà chờ","Zone":"Bình Dương","Ward":null,"AddressNo":"Khách sạn Becamex Thành phố Mới","Street":"Đường Lý Thái Tổ","SupportDisability":"Có","Status":"Đang khai thác","Lng":106.684672,"Lat":11.056832,"Search":"KsBTpM KsBTpM DLTT","Routes":"61-37, 61-39, 61-51, 61-52, 61-67, 61-68, 61-70, 61-73"},{"StopId":8408,"Code":"BD-0097","Name":"Ngã tư Đại lộ Hùng Vương - Lê Lợi","StopType":"Nhà chờ","Zone":"Bình Dương","Ward":null,"AddressNo":"Ngã tư Đại lộ Hùng Vương - Lê Lợi","Street":"Đại Lộ Hùng Vương","SupportDisability":"Có","Status":"Đang khai thác","Lng":106.681825,"Lat":11.052003,"Search":"NtDlHV-LL NtDlHV-LL DLHV","Routes":"171, 61-39, 61-51, 61-53, 61-67, 61-68, 61-70, 61-73"},{"StopId":8406,"Code":"BD-0095","Name":"SORA gardens","StopType":"Nhà chờ","Zone":"Bình Dương","Ward":null,"AddressNo":"SORA gardens","Street":"Đường nội bộ SORA gardens","SupportDisability":"Có","Status":"Đang khai thác","Lng":106.678817,"Lat":11.045967,"Search":"Sg Sg DnbSg","Routes":"61-39, 61-52, 61-53, 61-55, 61-68, 61-70, 61-73"},{"StopId":8242,"Code":"BX BD 012","Name":"Trạm trung chuyển Hikari","StopType":"Bến xe","Zone":"Bình Dương","Ward":null,"AddressNo":"Trạm trung chuyển Hikari (6)","Street":"Lý Thái Tổ","SupportDisability":"Có","Status":"Đang khai thác","Lng":106.68414,"Lat":11.05781,"Search":"TtcH TtcH( LTT","Routes":"61-37, 61-73, 61-77"},{"StopId":8416,"Code":"BD-0105","Name":"WTC EXPO B","StopType":"Nhà chờ","Zone":"Bình Dương","Ward":null,"AddressNo":"WTC EXPO B","Street":"Đường Lý Thái Tổ","SupportDisability":"Có","Status":"Đang khai thác","Lng":106.685781,"Lat":11.056072,"Search":"WEB WEB DLTT","Routes":"61-37, 61-39, 61-51, 61-52, 61-73"},{"StopId":8414,"Code":"BD-0103","Name":"Phố Thương mại - Lý Thái Tổ","StopType":"Trụ - hộp thông tin","Zone":"Bình Dương","Ward":null,"AddressNo":"Phố Thương mại - Lý Thái Tổ","Street":"Lý Thái Tổ","SupportDisability":"Có","Status":"Đang khai thác","Lng":106.687209,"Lat":11.055079,"Search":"PTm-LTT PTm-LTT LTT","Routes":"61-37, 61-39, 61-51, 61-52, 61-73"},{"StopId":8422,"Code":"BD-0111","Name":"Trường Ngô Thời Nhiệm","StopType":"Trụ - hộp thông tin","Zone":"Bình Dương","Ward":null,"AddressNo":"Trường Ngô Thời Nhiệm","Street":"Đường Lý Thái Tổ","SupportDisability":"Có","Status":"Đang khai thác","Lng":106.689316,"Lat":11.053595,"Search":"TNTN TNTN DLTT","Routes":"61-38, 61-73"},{"StopId":9121,"Code":"BD-0833","Name":"Chùa Long Ẩn","StopType":"Ô sơn","Zone":"Bình Dương","Ward":null,"AddressNo":"Chùa Long Ẩn","Street":"Đường ĐT 742","SupportDisability":"","Status":"Đang khai thác","Lng":106.6942,"Lat":11.056493,"Search":"CLA CLA DD742","Routes":"61-73"},{"StopId":8583,"Code":"BD-0193","Name":"Ngã 4 Huỳnh Văn Luỹ - Nguyễn Văn Linh","StopType":"Nhà chờ","Zone":"Bình Dương","Ward":null,"AddressNo":"Ngã 4 Huỳnh Văn Luỹ - Nguyễn Văn Linh","Street":"Nguyễn Văn Linh","SupportDisability":"Có","Status":"Đang khai thác","Lng":106.697393,"Lat":11.058825,"Search":"N4HVL-NVL N4HVL-NVL NVL","Routes":"61-73"},{"StopId":8585,"Code":"BD-0195","Name":"Đồn công an Kim Huy","StopType":"Trụ - hộp thông tin","Zone":"Bình Dương","Ward":null,"AddressNo":"Đồn công an Kim Huy","Street":"Nguyễn Văn Linh","SupportDisability":"Có","Status":"Đang khai thác","Lng":106.705567,"Lat":11.053112,"Search":"DcaKH DcaKH NVL","Routes":"61-73"},{"StopId":8615,"Code":"BD-0199","Name":"Vòng xoay Tân Hiệp","StopType":"Trụ - hộp thông tin","Zone":"Bình Dương","Ward":null,"AddressNo":"Vòng xoay Tân Hiệp","Street":"DT746","SupportDisability":"Có","Status":"Đang khai thác","Lng":106.724915,"Lat":11.041618,"Search":"VxTH VxTH D","Routes":"61-73"},{"StopId":8617,"Code":"BD-0201","Name":"Giáo xứ Bến Sắn","StopType":"Trụ - hộp thông tin","Zone":"Bình Dương","Ward":null,"AddressNo":"Giáo xứ Bến Sắn","Street":"DT746","SupportDisability":"Có","Status":"Đang khai thác","Lng":106.735828,"Lat":11.045956,"Search":"GxBS GxBS D","Routes":"61-73"},{"StopId":8619,"Code":"BD-0203","Name":"Khu điều trị phong Bến Sắn","StopType":"Nhà chờ","Zone":"Bình Dương","Ward":null,"AddressNo":"Khu điều trị phong Bến Sắn","Street":"DT746","SupportDisability":"Có","Status":"Đang khai thác","Lng":106.741185,"Lat":11.047781,"Search":"KdtpBS KdtpBS D","Routes":"61-73"},{"StopId":8621,"Code":"BD-0205","Name":"Khu công nghiệp Nam Tân Uyên","StopType":"Nhà chờ","Zone":"Bình Dương","Ward":null,"AddressNo":"Khu công nghiệp Nam Tân Uyên","Street":"DT746","SupportDisability":"Có","Status":"Đang khai thác","Lng":106.747825,"Lat":11.04952,"Search":"KcnNTU KcnNTU D","Routes":"61-73"},{"StopId":8623,"Code":"BD-0207","Name":"Vòng xoay Nam Tân Uyên","StopType":"Nhà chờ","Zone":"Bình Dương","Ward":null,"AddressNo":"Vòng xoay Nam Tân Uyên","Street":"DT746","SupportDisability":"Có","Status":"Đang khai thác","Lng":106.754873,"Lat":11.04951,"Search":"VxNTU VxNTU D","Routes":"61-73"},{"StopId":8625,"Code":"BD-0209","Name":"UBND Phường Khánh Bình","StopType":"Trụ - hộp thông tin","Zone":"Bình Dương","Ward":null,"AddressNo":"UBND Phường Khánh Bình","Street":"DT74","SupportDisability":"Có","Status":"Đang khai thác","Lng":106.760867,"Lat":11.050246,"Search":"UPKB UPKB D","Routes":"61-73"},{"StopId":8627,"Code":"BD-0211","Name":"Công an phường Khánh Bình","StopType":"Trụ - hộp thông tin","Zone":"Bình Dương","Ward":null,"AddressNo":"Công an phường Khánh Bình","Street":"DT746","SupportDisability":"Có","Status":"Đang khai thác","Lng":106.769007,"Lat":11.052813,"Search":"CapKB CapKB D","Routes":"61-73"},{"StopId":8628,"Code":"BD-0212","Name":"Ngã ba ĐT 746 - Nguyễn Hữu Cảnh","StopType":"Trụ - hộp thông tin","Zone":"Bình Dương","Ward":null,"AddressNo":"Ngã ba ĐT 746 - Nguyễn Hữu Cảnh","Street":"DT746","SupportDisability":"Có","Status":"Đang khai thác","Lng":106.773388,"Lat":11.056979,"Search":"NbD746-NHC NbD746-NHC D","Routes":"61-73"},{"StopId":8667,"Code":"BD-0214","Name":"Ngã ba Phan Đình Phùng - ĐT 747","StopType":"Trụ - hộp thông tin","Zone":"Bình Dương","Ward":null,"AddressNo":"Ngã ba Phan Đình Phùng - ĐT 747","Street":"Phan Đình Phùng","SupportDisability":"Có","Status":"Đang khai thác","Lng":106.788274,"Lat":11.056763,"Search":"NbPDP-D747 NbPDP-D747 PDP","Routes":"61-73"},{"StopId":8705,"Code":"BD-0216","Name":"Ngã ba ĐT 747 - Đoàn Thị Liên","StopType":"Trụ - hộp thông tin","Zone":"Bình Dương","Ward":null,"AddressNo":"Ngã ba ĐT 747 - Đoàn Thị Liên","Street":"Đường ĐT 747","SupportDisability":"Có","Status":"Đang khai thác","Lng":106.79198,"Lat":11.05704,"Search":"NbD747-DTL NbD747-DTL DD747","Routes":"61-73"},{"StopId":8785,"Code":"BD-0218","Name":"Bến đò Tân Uyên","StopType":"Trụ - hộp thông tin","Zone":"Bình Dương","Ward":null,"AddressNo":"Bến đò Tân Uyên","Street":"ĐT 747","SupportDisability":"Có","Status":"Đang khai thác","Lng":106.793405,"Lat":11.057622,"Search":"BdTU BdTU D747","Routes":"61-73"},{"StopId":8787,"Code":"BD-0220","Name":"UBND TP.Tân Uyên","StopType":"Trụ - hộp thông tin","Zone":"Bình Dương","Ward":null,"AddressNo":"UBND TP.Tân Uyên","Street":"ĐT 747","SupportDisability":"Có","Status":"Đang khai thác","Lng":106.797402,"Lat":11.060346,"Search":"UTU UTU D747","Routes":"61-73"},{"StopId":9043,"Code":"BD-0222","Name":"Trường THPT Huỳnh Văn Nghệ","StopType":"Nhà chờ","Zone":"Bình Dương","Ward":null,"AddressNo":"Trường THPT Huỳnh Văn Nghệ","Street":"ĐT 747","SupportDisability":"Có","Status":"Đang khai thác","Lng":106.797394,"Lat":11.062511,"Search":"TTHVN TTHVN D747","Routes":"61-73"},{"StopId":9345,"Code":"BD BX 0012","Name":"Thành phố Tân Uyên","StopType":"Bến xe","Zone":"Bình Dương","Ward":null,"AddressNo":"Thành phố Tân Uyên","Street":"ĐT746","SupportDisability":"","Status":"Đang khai thác","Lng":106.789984,"Lat":11.064774,"Search":"TpTU TpTU D","Routes":"61-73"}]