[{"StopId":9799,"Code":"VT BX 0002","Name":"Bến xe Bình Châu","StopType":"Bến xe","Zone":"Bà Rịa - Vũng Tàu","Ward":null,"AddressNo":"Bến xe Bình Châu","Street":"DT944","SupportDisability":"Có","Status":"Đang khai thác","Lng":107.548143,"Lat":10.555966,"Search":"BxBC BxBC D","Routes":"72-4"},{"StopId":9861,"Code":"VT-0001","Name":"Chợ Bình Châu","StopType":"Ô sơn","Zone":"Bà Rịa - Vũng Tàu","Ward":null,"AddressNo":"Chợ Bình Châu","Street":"QL55","SupportDisability":"","Status":"Chưa khai thác","Lng":107.546613,"Lat":10.55685,"Search":"CBC CBC Q","Routes":"72-4"},{"StopId":9864,"Code":"VT-0003","Name":"Ngã 3 Phước Thịnh","StopType":"Ô sơn","Zone":"Bà Rịa - Vũng Tàu","Ward":null,"AddressNo":"Ngã 3 Phước Thịnh","Street":"QL55","SupportDisability":"","Status":"Chưa khai thác","Lng":107.545294,"Lat":10.55918,"Search":"N3PT N3PT Q","Routes":"72-4"},{"StopId":9866,"Code":"VT-0005","Name":"Công an Bình Châu","StopType":"Nhà chờ","Zone":"Bà Rịa - Vũng Tàu","Ward":null,"AddressNo":"Công an Bình Châu","Street":"QL55","SupportDisability":"","Status":"Chưa khai thác","Lng":107.54181,"Lat":10.56034,"Search":"CaBC CaBC Q","Routes":"72-4"},{"StopId":9869,"Code":"VT-0007","Name":"Ngã ba Bầu Bàng - QL55","StopType":"Trụ dừng","Zone":"Bà Rịa - Vũng Tàu","Ward":null,"AddressNo":"Ngã ba Bầu Bàng - QL55","Street":"QL55","SupportDisability":"","Status":"Chưa khai thác","Lng":107.53743,"Lat":10.55843,"Search":"NbBB-Q NbBB-Q Q","Routes":"72-4"},{"StopId":9870,"Code":"VT-0009","Name":"Đền thờ liệt sỹ xã Bình Châu","StopType":"Trụ dừng","Zone":"Bà Rịa - Vũng Tàu","Ward":null,"AddressNo":"Đền thờ liệt sỹ xã Bình Châu","Street":"QL55","SupportDisability":"Có","Status":"Chưa khai thác","Lng":107.528712,"Lat":10.55762,"Search":"DtlsxBC DtlsxBC Q","Routes":"72-4"},{"StopId":9871,"Code":"VT-0011","Name":"Ngã ba kiểm lâm số 5","StopType":"Trụ dừng","Zone":"Bà Rịa - Vũng Tàu","Ward":null,"AddressNo":"Ngã ba kiểm lâm số 5","Street":"QL55","SupportDisability":"","Status":"Chưa khai thác","Lng":107.525639,"Lat":10.555329,"Search":"Nbkls5 Nbkls5 Q","Routes":"72-4"},{"StopId":9873,"Code":"VT-0013","Name":"Trường học Bưng Riềng","StopType":"Trụ dừng","Zone":"Bà Rịa - Vũng Tàu","Ward":null,"AddressNo":"Trường học Bưng Riềng","Street":"QL55","SupportDisability":"","Status":"Chưa khai thác","Lng":107.499561,"Lat":10.551078,"Search":"ThBR ThBR Q","Routes":"72-4"},{"StopId":9875,"Code":"VT-0015","Name":"Ấp văn hoá ấp 2","StopType":"Trụ dừng","Zone":"Bà Rịa - Vũng Tàu","Ward":null,"AddressNo":"Ấp văn hoá ấp 2","Street":"QL55","SupportDisability":"","Status":"Chưa khai thác","Lng":107.492573,"Lat":10.552381,"Search":"Avha2 Avha2 Q","Routes":"72-4"},{"StopId":9877,"Code":"VT-0017","Name":"Trung tâm học tập xã Bưng Riềng","StopType":"Nhà chờ","Zone":"Bà Rịa - Vũng Tàu","Ward":null,"AddressNo":"Trung tâm học tập xã Bưng Riềng","Street":"QL55","SupportDisability":"","Status":"Chưa khai thác","Lng":107.485163,"Lat":10.552475,"Search":"TthtxBR TthtxBR Q","Routes":"72-4"},{"StopId":9879,"Code":"VT-0019","Name":"Ngã ba ấp Trang Định","StopType":"Trụ dừng","Zone":"Bà Rịa - Vũng Tàu","Ward":null,"AddressNo":"Ngã ba ấp Trang Định","Street":"QL55","SupportDisability":"","Status":"Chưa khai thác","Lng":107.469309,"Lat":10.552131,"Search":"NbaTD NbaTD Q","Routes":"72-4"},{"StopId":9881,"Code":"VT-0021","Name":"Nhà thờ Bông Trang","StopType":"Trụ dừng","Zone":"Bà Rịa - Vũng Tàu","Ward":null,"AddressNo":"Nhà thờ Bông Trang","Street":"QL55","SupportDisability":"","Status":"Chưa khai thác","Lng":107.460082,"Lat":10.552531,"Search":"NtBT NtBT Q","Routes":"72-4"},{"StopId":9883,"Code":"VT-0023","Name":"Uỷ ban xã Xuyên Mộc","StopType":"Nhà chờ","Zone":"Bà Rịa - Vũng Tàu","Ward":null,"AddressNo":"Uỷ ban xã Xuyên Mộc","Street":"QL55","SupportDisability":"","Status":"Chưa khai thác","Lng":107.454802,"Lat":10.552948,"Search":"UbxXM UbxXM Q","Routes":"72-4"},{"StopId":9885,"Code":"VT-0025","Name":"Ngã ba ấp Trang Trí","StopType":"Trụ dừng","Zone":"Bà Rịa - Vũng Tàu","Ward":null,"AddressNo":"Ngã ba ấp Trang Trí","Street":"QL55","SupportDisability":"","Status":"Chưa khai thác","Lng":107.451993,"Lat":10.552468,"Search":"NbaTT NbaTT Q","Routes":"72-4"},{"StopId":9887,"Code":"VT-0027","Name":"Ngã ba cầu Suối Cát","StopType":"Trụ dừng","Zone":"Bà Rịa - Vũng Tàu","Ward":null,"AddressNo":"Ngã ba cầu Suối Cát","Street":"Đá Bạc","SupportDisability":"","Status":"Chưa khai thác","Lng":107.436719,"Lat":10.55353,"Search":"NbcSC NbcSC DB","Routes":"72-4"},{"StopId":9889,"Code":"VT-0029","Name":"Đền thờ đức thánh Trần Hưng Đạo","StopType":"Trụ dừng","Zone":"Bà Rịa - Vũng Tàu","Ward":null,"AddressNo":"Đền thờ đức thánh Trần Hưng Đạo","Street":"Đá Bạc","SupportDisability":"","Status":"Chưa khai thác","Lng":107.428696,"Lat":10.561863,"Search":"DtdtTHD DtdtTHD DB","Routes":"72-4"},{"StopId":9891,"Code":"VT-0031","Name":"Ngã 4 ấp Nhân Tâm","StopType":"Trụ dừng","Zone":"Bà Rịa - Vũng Tàu","Ward":null,"AddressNo":"Ngã 4 ấp Nhân Tâm","Street":"Đá Bạc","SupportDisability":"","Status":"Chưa khai thác","Lng":107.425477,"Lat":10.56383,"Search":"N4aNT N4aNT DB","Routes":"72-4"},{"StopId":9893,"Code":"VT-0033","Name":"Trường học THCS Xuyên Mộc","StopType":"Nhà chờ","Zone":"Bà Rịa - Vũng Tàu","Ward":null,"AddressNo":"Trường học THCS Xuyên Mộc","Street":"329","SupportDisability":"","Status":"Chưa khai thác","Lng":107.422391,"Lat":10.563314,"Search":"ThTXM ThTXM 329","Routes":"72-4"},{"StopId":9895,"Code":"VT-0035","Name":"Chùa Minh Quang","StopType":"Nhà chờ","Zone":"Bà Rịa - Vũng Tàu","Ward":null,"AddressNo":"Chùa Minh Quang","Street":"329","SupportDisability":"","Status":"Chưa khai thác","Lng":107.419306,"Lat":10.557402,"Search":"CMQ CMQ 329","Routes":"72-4"},{"StopId":9897,"Code":"VT-0037","Name":"Ngã ba ấp văn hoá Nhân Trí","StopType":"Trụ dừng","Zone":"Bà Rịa - Vũng Tàu","Ward":null,"AddressNo":"Ngã ba ấp văn hoá Nhân Trí","Street":"329","SupportDisability":"","Status":"Chưa khai thác","Lng":107.419301,"Lat":10.55356,"Search":"NbavhNT NbavhNT 329","Routes":"72-4"},{"StopId":9899,"Code":"VT-0039","Name":"Ngã ba ấp văn hoá Nhân Trung","StopType":"Nhà chờ","Zone":"Bà Rịa - Vũng Tàu","Ward":null,"AddressNo":"Ngã ba ấp văn hoá Nhân Trung","Street":"329","SupportDisability":"","Status":"Chưa khai thác","Lng":107.418386,"Lat":10.548719,"Search":"NbavhNT NbavhNT 329","Routes":"72-4"},{"StopId":9901,"Code":"VT-0041","Name":"Chợ đêm Xuyên Mộc","StopType":"Trụ dừng","Zone":"Bà Rịa - Vũng Tàu","Ward":null,"AddressNo":"Chợ đêm Xuyên Mộc","Street":"329","SupportDisability":"","Status":"Chưa khai thác","Lng":107.417028,"Lat":10.544854,"Search":"CdXM CdXM 329","Routes":"72-4"},{"StopId":9903,"Code":"VT-0043","Name":"Chi cục thuế Xuyên Mộc","StopType":"Trụ dừng","Zone":"Bà Rịa - Vũng Tàu","Ward":null,"AddressNo":"258 Quốc Lộ 55","Street":"QL55","SupportDisability":"","Status":"Chưa khai thác","Lng":107.412256,"Lat":10.53926,"Search":"CctXM 258QL55 Q","Routes":"72-4"},{"StopId":9905,"Code":"VT-0045","Name":"Trường THPT Xuyên Mộc","StopType":"Nhà chờ","Zone":"Bà Rịa - Vũng Tàu","Ward":null,"AddressNo":"461 Quốc lộ 55","Street":"QL55","SupportDisability":"","Status":"Chưa khai thác","Lng":107.409451,"Lat":10.538369,"Search":"TTXM 461Ql55 Q","Routes":"72-4"},{"StopId":9907,"Code":"VT-0047","Name":"Trụ sở tiếp công dân Hồ Tràm","StopType":"Nhà chờ","Zone":"Bà Rịa - Vũng Tàu","Ward":null,"AddressNo":"351 Quốc lộ 55","Street":"QL55","SupportDisability":"","Status":"Chưa khai thác","Lng":107.405435,"Lat":10.53709,"Search":"TstcdHT 351Ql55 Q","Routes":"72-4"},{"StopId":9909,"Code":"VT-0049","Name":"Bưu Điện Xuyên Mộc","StopType":"Nhà chờ","Zone":"Bà Rịa - Vũng Tàu","Ward":null,"AddressNo":"Bưu Điện Xuyên Mộc","Street":"QL55","SupportDisability":"","Status":"Chưa khai thác","Lng":107.403136,"Lat":10.536368,"Search":"BDXM BDXM Q","Routes":"72-4"},{"StopId":9911,"Code":"VT-0051","Name":"Ngã ba hẻm 198 (Tiệm vàng Kim Hương)","StopType":"Nhà chờ","Zone":"Bà Rịa - Vũng Tàu","Ward":null,"AddressNo":"194 Quốc lộ 55","Street":"QL55","SupportDisability":"","Status":"Chưa khai thác","Lng":107.400104,"Lat":10.535446,"Search":"Nbh198(vKH 194Ql55 Q","Routes":"72-4"},{"StopId":9913,"Code":"VT-0053","Name":"Ngân hàng MB Xuyên Mộc","StopType":"Trụ dừng","Zone":"Bà Rịa - Vũng Tàu","Ward":null,"AddressNo":"129 Quốc lộ 55","Street":"QL55","SupportDisability":"","Status":"Chưa khai thác","Lng":107.398655,"Lat":10.534999,"Search":"NhMXM 129Ql55 Q","Routes":"72-4"},{"StopId":9915,"Code":"VT-0055","Name":"Cửa hàng Yamaha Phúc Đại Lợi","StopType":"Trụ dừng","Zone":"Bà Rịa - Vũng Tàu","Ward":null,"AddressNo":"63 Quốc lộ 55","Street":"QL55","SupportDisability":"","Status":"Chưa khai thác","Lng":107.395822,"Lat":10.534131,"Search":"ChYPDL 63Ql55 Q","Routes":"72-4"},{"StopId":9918,"Code":"VT-0057","Name":"Cửa hàng xăng dầu VNBK","StopType":"Trụ dừng","Zone":"Bà Rịa - Vũng Tàu","Ward":null,"AddressNo":"Cửa hàng xăng dầu VNBK","Street":"QL55","SupportDisability":"","Status":"Chưa khai thác","Lng":107.389867,"Lat":10.531651,"Search":"ChxdV ChxdV Q","Routes":"72-4"},{"StopId":9919,"Code":"VT-0059","Name":"Cơn niêu Hồ Tràm","StopType":"Trụ dừng","Zone":"Bà Rịa - Vũng Tàu","Ward":null,"AddressNo":"Cơn niêu Hồ Tràm","Street":"QL55","SupportDisability":"","Status":"Chưa khai thác","Lng":107.386431,"Lat":10.529533,"Search":"CnHT CnHT Q","Routes":"72-4"},{"StopId":9709,"Code":"VT 0044","Name":"Khu phố Văn hóa Long Toàn","StopType":"Trụ dừng","Zone":"Bà Rịa - Vũng Tàu","Ward":null,"AddressNo":"Khu phố Văn hóa Long Toàn","Street":"Phạm Hùng","SupportDisability":"Có","Status":"Đang khai thác","Lng":107.188246,"Lat":10.491618,"Search":"KpVhLT KpVhLT PH","Routes":"72-4"},{"StopId":9711,"Code":"VT 0046","Name":"Trường Cao đẳng Biên phòng","StopType":"Trụ dừng","Zone":"Bà Rịa - Vũng Tàu","Ward":null,"AddressNo":"980","Street":"Phạm Hùng","SupportDisability":"Có","Status":"Đang khai thác","Lng":107.189532,"Lat":10.494527,"Search":"TCdBp 980 PH","Routes":"72-4"},{"StopId":9713,"Code":"VT 0048","Name":"Phan Thanh Giản","StopType":"Trụ dừng","Zone":"Bà Rịa - Vũng Tàu","Ward":null,"AddressNo":"1128","Street":"Phạm Hùng","SupportDisability":"Có","Status":"Đang khai thác","Lng":107.190937,"Lat":10.497655,"Search":"PTG 1128 PH","Routes":"72-4"},{"StopId":9715,"Code":"VT 0050","Name":"Công viên Bà Rịa","StopType":"Trụ dừng","Zone":"Bà Rịa - Vũng Tàu","Ward":null,"AddressNo":"1464","Street":"Phạm Hùng","SupportDisability":"Có","Status":"Đang khai thác","Lng":107.192326,"Lat":10.500746,"Search":"CvBR 1464 PH","Routes":"72-4"},{"StopId":9717,"Code":"VT 0052","Name":"Ngã 3 Lê Chân","StopType":"Trụ dừng","Zone":"Bà Rịa - Vũng Tàu","Ward":null,"AddressNo":"60","Street":"Võ Văn Kiệt","SupportDisability":"Có","Status":"Đang khai thác","Lng":107.193138,"Lat":10.502768,"Search":"N3LC 60 VVK","Routes":"72-4"},{"StopId":9719,"Code":"VT 0054","Name":"Ngã 3 Lê Long Vân","StopType":"Trụ dừng","Zone":"Bà Rịa - Vũng Tàu","Ward":null,"AddressNo":"432","Street":"Võ Văn Kiệt","SupportDisability":"Có","Status":"Đang khai thác","Lng":107.194107,"Lat":10.505754,"Search":"N3LLV 432 VVK","Routes":"72-4"},{"StopId":9721,"Code":"VT 0056","Name":"Bệnh Viện Bà Rịa","StopType":"Nhà chờ","Zone":"Bà Rịa - Vũng Tàu","Ward":null,"AddressNo":"Bệnh Viện Bà Rịa","Street":"Võ Văn Kiệt","SupportDisability":"Có","Status":"Đang khai thác","Lng":107.195395,"Lat":10.508923,"Search":"BVBR BVBR VVK","Routes":"72-4"},{"StopId":9722,"Code":"VT 0057","Name":"Bệnh Viện Bà Rịa","StopType":"Trụ dừng","Zone":"Bà Rịa - Vũng Tàu","Ward":null,"AddressNo":"685 (677)","Street":"Võ Văn Kiệt","SupportDisability":"Có","Status":"Đang khai thác","Lng":107.195387,"Lat":10.509203,"Search":"BVBR 685( VVK","Routes":"72-4"},{"StopId":9720,"Code":"VT 0055","Name":"Ngã 3 Lê Long Vân","StopType":"Trụ dừng","Zone":"Bà Rịa - Vũng Tàu","Ward":null,"AddressNo":"121-123","Street":"Võ Văn Kiệt","SupportDisability":"Có","Status":"Đang khai thác","Lng":107.193858,"Lat":10.50543,"Search":"N3LLV 121-123 VVK","Routes":"72-4"},{"StopId":9718,"Code":"VT 0053","Name":"Ngã 3 Lê Chân","StopType":"Trụ dừng","Zone":"Bà Rịa - Vũng Tàu","Ward":null,"AddressNo":"Chung cư cán bộ","Street":"Võ Văn Kiệt","SupportDisability":"Có","Status":"Đang khai thác","Lng":107.19295,"Lat":10.502602,"Search":"N3LC Cccb VVK","Routes":"72-4"},{"StopId":9716,"Code":"VT 0051","Name":"Công viên Bà Rịa","StopType":"Trụ dừng","Zone":"Bà Rịa - Vũng Tàu","Ward":null,"AddressNo":"Công viên Bà Rịa","Street":"Phạm Hùng","SupportDisability":"Có","Status":"Đang khai thác","Lng":107.192272,"Lat":10.500976,"Search":"CvBR CvBR PH","Routes":"72-4"},{"StopId":9714,"Code":"VT 0049","Name":"Nguyễn Thị Định","StopType":"Trụ dừng","Zone":"Bà Rịa - Vũng Tàu","Ward":null,"AddressNo":"999","Street":"Phạm Hùng","SupportDisability":"Có","Status":"Đang khai thác","Lng":107.190938,"Lat":10.497981,"Search":"NTD 999 PH","Routes":"72-4"},{"StopId":9712,"Code":"VT 0047","Name":"Trường Cao đẳng Biên phòng","StopType":"Trụ dừng","Zone":"Bà Rịa - Vũng Tàu","Ward":null,"AddressNo":"955 (bờ tường Trường biên phòng)","Street":"Phạm Hùng","SupportDisability":"Có","Status":"Đang khai thác","Lng":107.189601,"Lat":10.494985,"Search":"TCdBp 955(tTbp PH","Routes":"72-4"},{"StopId":9710,"Code":"VT 0045","Name":"Khu phố Văn hóa Long Toàn","StopType":"Trụ dừng","Zone":"Bà Rịa - Vũng Tàu","Ward":null,"AddressNo":"745","Street":"Phạm Hùng","SupportDisability":"Có","Status":"Đang khai thác","Lng":107.188172,"Lat":10.491802,"Search":"KpVhLT 745 PH","Routes":"72-4"},{"StopId":9708,"Code":"VT 0043","Name":"Cách Mạng Tháng 8","StopType":"Trụ dừng","Zone":"Bà Rịa - Vũng Tàu","Ward":null,"AddressNo":"99","Street":"Nguyễn Hữu Thọ","SupportDisability":"Có","Status":"Đang khai thác","Lng":107.173208,"Lat":10.494449,"Search":"CMT8 99 NHT","Routes":"72-4"},{"StopId":9705,"Code":"VT 0040","Name":"Trung tâm Thương mại Bà Rịa","StopType":"Trụ dừng","Zone":"Bà Rịa - Vũng Tàu","Ward":null,"AddressNo":"Đối diện 80-82","Street":"Huỳnh Tịnh Của","SupportDisability":"Có","Status":"Đang khai thác","Lng":107.172338,"Lat":10.491562,"Search":"TtTmBR Dd80-82 HTC","Routes":"72-4"},{"StopId":9703,"Code":"VT 0038","Name":"Chợ Bà Rịa","StopType":"Nhà chờ","Zone":"Bà Rịa - Vũng Tàu","Ward":null,"AddressNo":"Chợ Bà Rịa (đối diện 22)","Street":"Huỳnh Tịnh Của","SupportDisability":"Có","Status":"Đang khai thác","Lng":107.171852,"Lat":10.490409,"Search":"CBR CBR(d22) HTC","Routes":"72-4"},{"StopId":9372,"Code":"VT 0016","Name":"Vòng xoay Công viên Hòa Bình","StopType":"Trụ dừng","Zone":"Bà Rịa - Vũng Tàu","Ward":null,"AddressNo":"Vòng xoay Công viên Hòa Bình","Street":"Quốc lộ 51","SupportDisability":"Có","Status":"Đang khai thác","Lng":107.174037,"Lat":10.487684,"Search":"VxCvHB VxCvHB Ql51","Routes":"172, 72-4"},{"StopId":9785,"Code":"VT 0101","Name":"Ngã 3 Ẹo Ông Từ","StopType":"Ô sơn","Zone":"Bà Rịa - Vũng Tàu","Ward":null,"AddressNo":"1609-1611","Street":"30 tháng 4","SupportDisability":"Có","Status":"Đang khai thác","Lng":107.158198,"Lat":10.424307,"Search":"N3EOT 1609-1611 30t4","Routes":"72-4"},{"StopId":9788,"Code":"VT 0102","Name":"Ẹo Ông Từ","StopType":"Trụ dừng","Zone":"Bà Rịa - Vũng Tàu","Ward":null,"AddressNo":"1583","Street":"30 tháng 4","SupportDisability":"Có","Status":"Đang khai thác","Lng":107.155542,"Lat":10.421992,"Search":"EOT 1583 30t4","Routes":"72-4"},{"StopId":9791,"Code":"VT 0105","Name":"Giáo Xứ Nam Bình","StopType":"Trụ dừng","Zone":"Bà Rịa - Vũng Tàu","Ward":null,"AddressNo":"1469","Street":"30 tháng 4","SupportDisability":"Có","Status":"Đang khai thác","Lng":107.149794,"Lat":10.419266,"Search":"GXNB 1469 30t4","Routes":"72-4"},{"StopId":9793,"Code":"VT 0107","Name":"Hải Đoàn 129","StopType":"Trụ dừng","Zone":"Bà Rịa - Vũng Tàu","Ward":null,"AddressNo":"Cổng A Hải đoàn 129","Street":"30 tháng 4","SupportDisability":"Có","Status":"Đang khai thác","Lng":107.14751,"Lat":10.417627,"Search":"HD129 CAHd129 30t4","Routes":"72-4"},{"StopId":9796,"Code":"VT 0110","Name":"Miếu Bà Ngũ Hành Cát Lở","StopType":"Trụ dừng","Zone":"Bà Rịa - Vũng Tàu","Ward":null,"AddressNo":"1427","Street":"30 tháng 4","SupportDisability":"Có","Status":"Đang khai thác","Lng":107.144304,"Lat":10.415593,"Search":"MBNHCL 1427 30t4","Routes":"72-4"},{"StopId":9798,"Code":"VT 0112","Name":"Bưu điện Phước Thắng","StopType":"Trụ dừng","Zone":"Bà Rịa - Vũng Tàu","Ward":null,"AddressNo":"1305","Street":"30 tháng 4","SupportDisability":"Có","Status":"Đang khai thác","Lng":107.141343,"Lat":10.414346,"Search":"BdPT 1305 30t4","Routes":"72-4"},{"StopId":9800,"Code":"VT 0113","Name":"Nhà thờ Phước Thành","StopType":"Trụ dừng","Zone":"Bà Rịa - Vũng Tàu","Ward":null,"AddressNo":"1233-1235","Street":"30 tháng 4","SupportDisability":"Có","Status":"Đang khai thác","Lng":107.139892,"Lat":10.413682,"Search":"NtPT 1233-1235 30t4","Routes":"72-4"},{"StopId":9802,"Code":"VT 0115","Name":"Lữ đoàn 171","StopType":"Trụ dừng","Zone":"Bà Rịa - Vũng Tàu","Ward":null,"AddressNo":"1143","Street":"30 tháng 4","SupportDisability":"Có","Status":"Đang khai thác","Lng":107.136745,"Lat":10.411793,"Search":"Ld171 1143 30t4","Routes":"72-4"},{"StopId":9805,"Code":"VT 0118","Name":"Đảng ủy phường Phước Thắng","StopType":"Trụ dừng","Zone":"Bà Rịa - Vũng Tàu","Ward":null,"AddressNo":"1025","Street":"30 tháng 4","SupportDisability":"Có","Status":"Đang khai thác","Lng":107.133699,"Lat":10.40977,"Search":"DupPT 1025 30t4","Routes":"72-4"},{"StopId":9807,"Code":"VT 0120","Name":"Cảng Cát Lở","StopType":"Trụ dừng","Zone":"Bà Rịa - Vũng Tàu","Ward":null,"AddressNo":"967","Street":"30 tháng 4","SupportDisability":"Có","Status":"Đang khai thác","Lng":107.130566,"Lat":10.407684,"Search":"CCL 967 30t4","Routes":"72-4"},{"StopId":9810,"Code":"VT 0123","Name":"Bắc Sơn","StopType":"Trụ dừng","Zone":"Bà Rịa - Vũng Tàu","Ward":null,"AddressNo":"837","Street":"30 tháng 4","SupportDisability":"Có","Status":"Đang khai thác","Lng":107.124048,"Lat":10.403193,"Search":"BS 837 30t4","Routes":"72-4"},{"StopId":9812,"Code":"VT 0125","Name":"Cầu Rạch Bà","StopType":"Trụ dừng","Zone":"Bà Rịa - Vũng Tàu","Ward":null,"AddressNo":"755","Street":"30 tháng 4","SupportDisability":"Có","Status":"Đang khai thác","Lng":107.11982,"Lat":10.400877,"Search":"CRB 755 30t4","Routes":"72-4"},{"StopId":9814,"Code":"VT 0127","Name":"KCN Đông Xuyên","StopType":"Trụ dừng","Zone":"Bà Rịa - Vũng Tàu","Ward":null,"AddressNo":"657-659","Street":"30 tháng 4","SupportDisability":"Có","Status":"Đang khai thác","Lng":107.117103,"Lat":10.399904,"Search":"KDX 657-659 30t4","Routes":"72-4"},{"StopId":9816,"Code":"VT 0129","Name":"Chợ Rạch Dừa","StopType":"Trụ dừng","Zone":"Bà Rịa - Vũng Tàu","Ward":null,"AddressNo":"601-603","Street":"30 tháng 4","SupportDisability":"Có","Status":"Đang khai thác","Lng":107.115358,"Lat":10.399278,"Search":"CRD 601-603 30t4","Routes":"72-4"},{"StopId":9818,"Code":"VT 0131","Name":"Nơ Trang Long","StopType":"Trụ dừng","Zone":"Bà Rịa - Vũng Tàu","Ward":null,"AddressNo":"447","Street":"30 tháng 4","SupportDisability":"Có","Status":"Đang khai thác","Lng":107.11093,"Lat":10.3977,"Search":"NTL 447 30t4","Routes":"72-4"},{"StopId":9820,"Code":"VT 0133","Name":"Công viên Thủy Giang","StopType":"Trụ dừng","Zone":"Bà Rịa - Vũng Tàu","Ward":null,"AddressNo":"363","Street":"30 tháng 4","SupportDisability":"Có","Status":"Đang khai thác","Lng":107.1073,"Lat":10.39608,"Search":"CvTG 363 30t4","Routes":"72-4"},{"StopId":9822,"Code":"VT 0135","Name":"Nhà thờ Thủy Giang","StopType":"Ô sơn","Zone":"Bà Rịa - Vũng Tàu","Ward":null,"AddressNo":"285","Street":"30 tháng 4","SupportDisability":"Có","Status":"Đang khai thác","Lng":107.105772,"Lat":10.394994,"Search":"NtTG 285 30t4","Routes":"72-4"},{"StopId":9824,"Code":"VT 0137","Name":"Chợ Thắng Nhất","StopType":"Trụ dừng","Zone":"Bà Rịa - Vũng Tàu","Ward":null,"AddressNo":"doanh trại quân đội (đối diện 54)","Street":"30 tháng 4","SupportDisability":"Có","Status":"Đang khai thác","Lng":107.09994,"Lat":10.391515,"Search":"CTN dtqd(d54) 30t4","Routes":"72-4"},{"StopId":9826,"Code":"VT 0139","Name":"Cảng Dầu khí Vietsovpetro","StopType":"Ô sơn","Zone":"Bà Rịa - Vũng Tàu","Ward":null,"AddressNo":"Đối diện 52","Street":"30 tháng 4","SupportDisability":"Có","Status":"Đang khai thác","Lng":107.097273,"Lat":10.389158,"Search":"CDkV Dd52 30t4","Routes":"72-4"},{"StopId":9828,"Code":"VT 0141","Name":"Cảng Dầu khí Vietsovpetro","StopType":"Trụ dừng","Zone":"Bà Rịa - Vũng Tàu","Ward":null,"AddressNo":"Đối diện XN vận tải ôtô (67)","Street":"30 tháng 4","SupportDisability":"Có","Status":"Đang khai thác","Lng":107.095385,"Lat":10.387473,"Search":"CDkV DdXvto( 30t4","Routes":"72-4"},{"StopId":9830,"Code":"VT 0143","Name":"Cảng dịch vụ dầu khí","StopType":"Trụ dừng","Zone":"Bà Rịa - Vũng Tàu","Ward":null,"AddressNo":"hẻm 61","Street":"30 tháng 4","SupportDisability":"Có","Status":"Đang khai thác","Lng":107.093085,"Lat":10.381413,"Search":"Cdvdk h61 30t4","Routes":"72-4"},{"StopId":9831,"Code":"VT 0144","Name":"Trung tâm Đăng kiểm","StopType":"Trụ dừng","Zone":"Bà Rịa - Vũng Tàu","Ward":null,"AddressNo":"Trung tâm Đăng kiểm","Street":"30 tháng 4","SupportDisability":"Có","Status":"Đang khai thác","Lng":107.091591,"Lat":10.378478,"Search":"TtDk TtDk 30t4","Routes":"72-4"},{"StopId":9833,"Code":"VT 0146","Name":"Trường TH-THCS-THPT Einstein Vũng Tàu","StopType":"Trụ dừng","Zone":"Bà Rịa - Vũng Tàu","Ward":null,"AddressNo":"43","Street":"30 tháng 4","SupportDisability":"Có","Status":"Đang khai thác","Lng":107.090093,"Lat":10.375432,"Search":"TTEVT 43 30t4","Routes":"72-4"},{"StopId":9835,"Code":"VT 0148","Name":"SÂN BAY TRỰC THĂNG ","StopType":"Trụ dừng","Zone":"Bà Rịa - Vũng Tàu","Ward":null,"AddressNo":"Đối diện sân bay trực thăng","Street":"30 tháng 4","SupportDisability":"Có","Status":"Đang khai thác","Lng":107.088674,"Lat":10.372726,"Search":"SBTT Ddsbtt 30t4","Routes":"72-4"},{"StopId":9837,"Code":"VT 0150","Name":"Công ty Trực Thăng Miền Nam","StopType":"Trụ dừng","Zone":"Bà Rịa - Vũng Tàu","Ward":null,"AddressNo":"35D (đối diện sân bay)","Street":"30 tháng 4","SupportDisability":"Có","Status":"Đang khai thác","Lng":107.088131,"Lat":10.371976,"Search":"CtTTMN 35D(dsb 30t4","Routes":"72-4"},{"StopId":9839,"Code":"VT 0152","Name":"Điện lực Vũng Tàu","StopType":"Trụ dừng","Zone":"Bà Rịa - Vũng Tàu","Ward":null,"AddressNo":"24D3","Street":"30 tháng 4","SupportDisability":"Có","Status":"Đang khai thác","Lng":107.08675,"Lat":10.370481,"Search":"DlVT 24D3 30t4","Routes":"72-4"},{"StopId":9840,"Code":"VT 0153","Name":"THPT Trần Nguyên Hãn","StopType":"Trụ dừng","Zone":"Bà Rịa - Vũng Tàu","Ward":null,"AddressNo":"31","Street":"30 tháng 4","SupportDisability":"Có","Status":"Đang khai thác","Lng":107.08467,"Lat":10.369404,"Search":"TTNH 31 30t4","Routes":"72-4"},{"StopId":9782,"Code":"VT 0098","Name":"Ngã tư Nguyễn An Ninh - 30/4","StopType":"Ô sơn","Zone":"Bà Rịa - Vũng Tàu","Ward":null,"AddressNo":"265","Street":"Nguyễn An Ninh","SupportDisability":"Có","Status":"Đang khai thác","Lng":107.082755,"Lat":10.369006,"Search":"NtNAN-30/4 265 NAN","Routes":"72-4"},{"StopId":9780,"Code":"VT 0096","Name":"đường Hoàng Việt","StopType":"Trụ dừng","Zone":"Bà Rịa - Vũng Tàu","Ward":null,"AddressNo":"125","Street":"Nguyễn An Ninh","SupportDisability":"Có","Status":"Đang khai thác","Lng":107.079688,"Lat":10.370135,"Search":"dHV 125 NAN","Routes":"72-4"},{"StopId":9778,"Code":"VT 0094","Name":"Ngân hàng ViettinBank","StopType":"Trụ dừng","Zone":"Bà Rịa - Vũng Tàu","Ward":null,"AddressNo":"49","Street":"Nguyễn An Ninh","SupportDisability":"Có","Status":"Đang khai thác","Lng":107.078062,"Lat":10.370185,"Search":"NhV 49 NAN","Routes":"72-4"},{"StopId":9776,"Code":"VT 0092","Name":"Đình Thắng Nhì","StopType":"Trụ dừng","Zone":"Bà Rịa - Vũng Tàu","Ward":null,"AddressNo":"19","Street":"Nguyễn An Ninh","SupportDisability":"Có","Status":"Đang khai thác","Lng":107.077112,"Lat":10.370278,"Search":"DTN 19 NAN","Routes":"72-4"},{"StopId":9774,"Code":"VT 0090","Name":"Ngã tư Trần Phú - Lê Lợi","StopType":"Trụ dừng","Zone":"Bà Rịa - Vũng Tàu","Ward":null,"AddressNo":"195","Street":"Lê Lợi","SupportDisability":"Có","Status":"Đang khai thác","Lng":107.07651,"Lat":10.36974,"Search":"NtTP-LL 195 LL","Routes":"72-4"},{"StopId":9772,"Code":"VT 0088","Name":"Trường TH Lê Lợi","StopType":"Trụ dừng","Zone":"Bà Rịa - Vũng Tàu","Ward":null,"AddressNo":"105","Street":"Lê Lợi","SupportDisability":"Có","Status":"Đang khai thác","Lng":107.076183,"Lat":10.367264,"Search":"TTLL 105 LL","Routes":"72-4"},{"StopId":9770,"Code":"VT 0086","Name":"Tổng công ty Khí Việt Nam","StopType":"Trụ dừng","Zone":"Bà Rịa - Vũng Tàu","Ward":null,"AddressNo":"101","Street":"Lê Lợi","SupportDisability":"Có","Status":"Đang khai thác","Lng":107.075641,"Lat":10.363443,"Search":"TctKVN 101 LL","Routes":"72-4"},{"StopId":9768,"Code":"VT 0084","Name":"Ngã 3 Lê Hồng Phong","StopType":"Trụ dừng","Zone":"Bà Rịa - Vũng Tàu","Ward":null,"AddressNo":"Đối diện 236","Street":"Lê Lợi","SupportDisability":"Có","Status":"Đang khai thác","Lng":107.075279,"Lat":10.360767,"Search":"N3LHP Dd236 LL","Routes":"72-4"},{"StopId":9766,"Code":"VT 0082","Name":"Trường THCS Duy Tân","StopType":"Trụ dừng","Zone":"Bà Rịa - Vũng Tàu","Ward":null,"AddressNo":"Trường THCS Duy Tân","Street":"Lê Lợi","SupportDisability":"Có","Status":"Đang khai thác","Lng":107.074948,"Lat":10.358086,"Search":"TTDT TTDT LL","Routes":"72-4"},{"StopId":9763,"Code":"VT 0079","Name":"Đường Hùng Vương","StopType":"Trụ dừng","Zone":"Bà Rịa - Vũng Tàu","Ward":null,"AddressNo":"29","Street":"Lê Lợi","SupportDisability":"Có","Status":"Đang khai thác","Lng":107.07462,"Lat":10.35516,"Search":"DHV 29 LL","Routes":"72-4"},{"StopId":9762,"Code":"VT 0078","Name":"Sân vận động Lam Sơn","StopType":"Trụ dừng","Zone":"Bà Rịa - Vũng Tàu","Ward":null,"AddressNo":"20","Street":"Lê Lợi","SupportDisability":"Có","Status":"Đang khai thác","Lng":107.074304,"Lat":10.352485,"Search":"SvdLS 20 LL","Routes":"72-4"},{"StopId":9759,"Code":"VT 0075","Name":"Petro House Vũng Tàu","StopType":"Trụ dừng","Zone":"Bà Rịa - Vũng Tàu","Ward":null,"AddressNo":"Petro House Vũng Tàu","Street":"Trần Hưng Đạo","SupportDisability":"Có","Status":"Đang khai thác","Lng":107.07505,"Lat":10.349661,"Search":"PHVT PHVT THD","Routes":"72-4"},{"StopId":9757,"Code":"VT 0073","Name":"Đảng ủy phường Vũng Tàu","StopType":"Trụ dừng","Zone":"Bà Rịa - Vũng Tàu","Ward":null,"AddressNo":"24","Street":"Ba Cu","SupportDisability":"Có","Status":"Đang khai thác","Lng":107.075744,"Lat":10.349135,"Search":"DupVT 24 BC","Routes":"72-4"},{"StopId":9755,"Code":"VT 0071","Name":"Đường Lý Thường Kiệt","StopType":"Trụ dừng","Zone":"Bà Rịa - Vũng Tàu","Ward":null,"AddressNo":"62","Street":"Ba Cu","SupportDisability":"Có","Status":"Đang khai thác","Lng":107.07698,"Lat":10.34989,"Search":"DLTK 62 BC","Routes":"72-4"},{"StopId":9753,"Code":"VT 0069","Name":"đường Bà Triệu","StopType":"Trụ dừng","Zone":"Bà Rịa - Vũng Tàu","Ward":null,"AddressNo":"130","Street":"Ba Cu","SupportDisability":"Có","Status":"Đang khai thác","Lng":107.078844,"Lat":10.351093,"Search":"dBT 130 BC","Routes":"72-4"},{"StopId":9751,"Code":"VT 0067","Name":"Chùa Phật Bửu","StopType":"Ô sơn","Zone":"Bà Rịa - Vũng Tàu","Ward":null,"AddressNo":"172","Street":"Ba Cu","SupportDisability":"Có","Status":"Đang khai thác","Lng":107.08087,"Lat":10.35235,"Search":"CPB 172 BC","Routes":"72-4"},{"StopId":9749,"Code":"VT 0065","Name":"Trường TH Nguyễn Thái Học","StopType":"Ô sơn","Zone":"Bà Rịa - Vũng Tàu","Ward":null,"AddressNo":"234-236","Street":"Ba Cu","SupportDisability":"Có","Status":"Đang khai thác","Lng":107.08278,"Lat":10.35355,"Search":"TTNTH 234-236 BC","Routes":"72-4"},{"StopId":9747,"Code":"VT 0063","Name":"Ngã 5 BA CU","StopType":"Ô sơn","Zone":"Bà Rịa - Vũng Tàu","Ward":null,"AddressNo":"276","Street":"Ba Cu","SupportDisability":"Có","Status":"Đang khai thác","Lng":107.08408,"Lat":10.35436,"Search":"N5BC 276 BC","Routes":"72-4"},{"StopId":9745,"Code":"VT 0061","Name":"Ngã 5 Ba Cu - Trương Công Định","StopType":"Trụ dừng","Zone":"Bà Rịa - Vũng Tàu","Ward":null,"AddressNo":"124","Street":"Lê Hồng Phong","SupportDisability":"Có","Status":"Đang khai thác","Lng":107.085354,"Lat":10.354383,"Search":"N5BC-TCD 124 LHP","Routes":"172, 72-4"},{"StopId":9743,"Code":"VT 0059","Name":"Đường Thống Nhất","StopType":"Trụ dừng","Zone":"Bà Rịa - Vũng Tàu","Ward":null,"AddressNo":"368","Street":"Lê Hồng Phong","SupportDisability":"Có","Status":"Đang khai thác","Lng":107.087035,"Lat":10.353169,"Search":"DTN 368 LHP","Routes":"172, 72-4"},{"StopId":7595,"Code":"VT BX 0001","Name":"BẾN XE VŨNG TÀU","StopType":"Bến xe","Zone":"Bà Rịa - Vũng Tàu","Ward":null,"AddressNo":"Bến xe Vũng Tàu","Street":"Nam Kỳ Khởi Nghĩa","SupportDisability":"Có","Status":"Đang khai thác","Lng":107.086723,"Lat":10.350457,"Search":"BXVT BxVT NKKN","Routes":"172, 72-1, 72-4"}]