[{"StopId":732,"Code":"BX 63","Name":"Bến xe Củ Chi","StopType":"Bến xe","Zone":"Huyện Củ Chi","Ward":null,"AddressNo":"Bến xe Củ Chi","Street":"Quốc lộ 22","SupportDisability":"","Status":"Đang khai thác","Lng":106.482099,"Lat":10.971617,"Search":"BxCC BxCC Ql22","Routes":"100, 107, 126, 13, 62-3, 70-1, 70-2, 74, 79, 87, 94"},{"StopId":7617,"Code":"HCC 279","Name":"chợ Củ Chi","StopType":"Nhà chờ","Zone":"Huyện Củ Chi","Ward":"Thị trấn Củ Chi","AddressNo":"chợ Củ Chi","Street":"Quốc lộ 22","SupportDisability":"Có","Status":"Đang khai thác","Lng":106.482453,"Lat":10.970495,"Search":"cCC cCC Ql22","Routes":"100, 107, 126, 13, 62-3, 70-1, 70-2, 74, 94"},{"StopId":1387,"Code":"HCC 038","Name":"Trường trung học cơ sở Củ Chi","StopType":"Nhà chờ","Zone":"Huyện Củ Chi","Ward":"Thị trấn Củ Chi","AddressNo":"607","Street":"Quốc lộ 22","SupportDisability":"Có","Status":"Đang khai thác","Lng":106.48903,"Lat":10.967041,"Search":"TthcsCC 607 Ql22","Routes":"13, 74, 94"},{"StopId":3650,"Code":"HCC 039","Name":"Quán Tư Râu","StopType":"Trụ dừng","Zone":"Huyện Củ Chi","Ward":"Thị trấn Củ Chi","AddressNo":"517","Street":"Quốc lộ 22","SupportDisability":"","Status":"Đang khai thác","Lng":106.492994,"Lat":10.965524,"Search":"QTR 517 Ql22","Routes":"13, 74, 94"},{"StopId":3652,"Code":"HCC 040","Name":"xóm Huế","StopType":"Trụ dừng","Zone":"Huyện Củ Chi","Ward":"Xã Tân Thông Hội","AddressNo":"457","Street":"Quốc lộ 22","SupportDisability":"","Status":"Đang khai thác","Lng":106.49735,"Lat":10.963449,"Search":"xH 457 Ql22","Routes":"13, 74, 94"},{"StopId":7135,"Code":"HCC 041","Name":"Điện lực Củ Chi - Ngã 3 Việt Kiều","StopType":"Trụ dừng","Zone":"Huyện Củ Chi","Ward":"Xã Tân Thông Hội","AddressNo":"413","Street":"Quốc lộ 22","SupportDisability":"Có","Status":"Đang khai thác","Lng":106.503161,"Lat":10.9602,"Search":"DlCC-N3VK 413 Ql22","Routes":"13, 74, 94"},{"StopId":1383,"Code":"HCC 042","Name":"Nhà thiếu nhi Củ Chi","StopType":"Nhà chờ","Zone":"Huyện Củ Chi","Ward":"Xã Tân Thông Hội","AddressNo":"Nhà thiếu nhi Củ Chi","Street":"Quốc lộ 22","SupportDisability":"Có","Status":"Đang khai thác","Lng":106.505027,"Lat":10.959204,"Search":"NtnCC NtnCC Ql22","Routes":"13, 74, 94"},{"StopId":3649,"Code":"HCC 043","Name":"Công ty Sài Gòn Cáp","StopType":"Trụ dừng","Zone":"Huyện Củ Chi","Ward":"Xã Tân Thông Hội","AddressNo":"299","Street":"Quốc lộ 22","SupportDisability":"","Status":"Đang khai thác","Lng":106.509694,"Lat":10.956818,"Search":"CtSGC 299 Ql22","Routes":"13, 74, 94"},{"StopId":3651,"Code":"HCC 044","Name":"Trường Mầm non Tân Thông Hội 1","StopType":"Trụ dừng","Zone":"Huyện Củ Chi","Ward":"Xã Tân Thông Hội","AddressNo":"223","Street":"Quốc lộ 22","SupportDisability":"","Status":"Đang khai thác","Lng":106.515434,"Lat":10.953068,"Search":"TMnTTH1 223 Ql22","Routes":"13, 74, 94"},{"StopId":3653,"Code":"HCC 045","Name":"Trạm Hồng Đào","StopType":"Trụ dừng","Zone":"Huyện Củ Chi","Ward":"Xã Tân Thông Hội","AddressNo":"157","Street":"Quốc lộ 22","SupportDisability":"","Status":"Đang khai thác","Lng":106.518974,"Lat":10.950651,"Search":"THD 157 Ql22","Routes":"13, 74, 94"},{"StopId":3654,"Code":"HCC 046","Name":"Ngã tư Quán đôi","StopType":"Trụ dừng","Zone":"Huyện Củ Chi","Ward":"Xã Tân Thông Hội","AddressNo":"97","Street":"Quốc lộ 22","SupportDisability":"","Status":"Đang khai thác","Lng":106.522923,"Lat":10.947954,"Search":"NtQd 97 Ql22","Routes":"13, 74, 94"},{"StopId":3655,"Code":"HCC 047","Name":"Chùa Pháp Hạnh","StopType":"Trụ dừng","Zone":"Huyện Củ Chi","Ward":"Xã Tân Thông Hội","AddressNo":"455A (Đ/d 450)","Street":"Quốc lộ 22","SupportDisability":"","Status":"Đang khai thác","Lng":106.530776,"Lat":10.943678,"Search":"CPH 455A(450) Ql22","Routes":"13, 74, 94"},{"StopId":3656,"Code":"HCC 048","Name":"Nhà thờ Sơn Lộc","StopType":"Trụ dừng","Zone":"Huyện Củ Chi","Ward":"Xã Tân Phú Trung","AddressNo":"351","Street":"Quốc lộ 22","SupportDisability":"","Status":"Đang khai thác","Lng":106.536346,"Lat":10.941083,"Search":"NtSL 351 Ql22","Routes":"13, 74, 94"},{"StopId":1384,"Code":"HCC 049","Name":"trường Tân Phú Trung","StopType":"Nhà chờ","Zone":"Huyện Củ Chi","Ward":null,"AddressNo":"Đối diện Trường Tân Phú Trung","Street":"Quốc lộ 22","SupportDisability":"Có","Status":"Đang khai thác","Lng":106.540223,"Lat":10.93918,"Search":"tTPT DdTTPT Ql22","Routes":"13, 74, 94"},{"StopId":3657,"Code":"HCC 050","Name":"Nhà thờ Bắc Đoàn","StopType":"Trụ dừng","Zone":"Huyện Củ Chi","Ward":"Xã Tân Phú Trung","AddressNo":"215 (231)","Street":"Quốc lộ 22","SupportDisability":"","Status":"Đang khai thác","Lng":106.543602,"Lat":10.937558,"Search":"NtBD 215( Ql22","Routes":"13, 74, 94"},{"StopId":1391,"Code":"HCC 051","Name":"Mũi tàu Tỉnh lộ 2","StopType":"Trụ dừng","Zone":"Huyện Củ Chi","Ward":"Xã Tân Phú Trung","AddressNo":"151 (số cũ 135)","Street":"Quốc lộ 22","SupportDisability":"","Status":"Đang khai thác","Lng":106.549798,"Lat":10.93454,"Search":"MtTl2 151(c135) Ql22","Routes":"13, 74, 94"},{"StopId":3658,"Code":"HCC 052","Name":"Chợ chiều Tân Phú Trung","StopType":"Trụ dừng","Zone":"Huyện Củ Chi","Ward":"Xã Tân Phú Trung","AddressNo":"85C","Street":"Quốc lộ 22","SupportDisability":"","Status":"Đang khai thác","Lng":106.552808,"Lat":10.931917,"Search":"CcTPT 85C Ql22","Routes":"13, 74, 94"},{"StopId":7847,"Code":"HCC 355","Name":"Công ty Thủy lợi TP.HCM","StopType":"Ô sơn","Zone":"Huyện Củ Chi","Ward":"Xã Tân Phú Trung","AddressNo":"Công ty Thủy lợi TP.HCM (21)","Street":"Quốc lộ 22","SupportDisability":"Có","Status":"Đang khai thác","Lng":106.555012,"Lat":10.929399,"Search":"CtTlT CtTlT( Ql22","Routes":"13, 74, 94"},{"StopId":3660,"Code":"HCC 053","Name":"Bệnh viện Xuyên Á","StopType":"Nhà chờ","Zone":"Huyện Củ Chi","Ward":"Xã Tân Phú Trung","AddressNo":"Đối diện cây xăng Ngọc Sương","Street":"Quốc lộ 22","SupportDisability":"","Status":"Đang khai thác","Lng":106.557201,"Lat":10.926381,"Search":"BvXA DdcxNS Ql22","Routes":"13, 74, 94"},{"StopId":4147,"Code":"HCC 054","Name":"Công ty Fujifilm","StopType":"Trụ dừng","Zone":"Huyện Củ Chi","Ward":"Xã Tân Phú Trung","AddressNo":"Cty Fujifilm","Street":"Quốc lộ 22","SupportDisability":"","Status":"Đang khai thác","Lng":106.559333,"Lat":10.923317,"Search":"CtF CF Ql22","Routes":"13, 24, 74, 94"},{"StopId":1388,"Code":"HHM 039","Name":"Cầu An Hạ","StopType":"Nhà chờ","Zone":"Huyện Hóc Môn","Ward":"Xã Tân Thới Nhì","AddressNo":"Giáo xứ Tân Thịnh","Street":"Quốc lộ 22","SupportDisability":"Có","Status":"Đang khai thác","Lng":106.564212,"Lat":10.916262,"Search":"CAH GxTT Ql22","Routes":"13, 24, 74, 94"},{"StopId":1389,"Code":"HHM 040","Name":"Công ty thoát nước đô thị","StopType":"Trụ dừng","Zone":"Huyện Hóc Môn","Ward":"Xã Tân Thới Nhì","AddressNo":"Đối diện Cty thoát nước đô thị","Street":"Quốc lộ 22","SupportDisability":"","Status":"Đang khai thác","Lng":106.567576,"Lat":10.911485,"Search":"Cttndt DdCtndt Ql22","Routes":"13, 24, 74, 94"},{"StopId":4753,"Code":"HHM 041","Name":"Cây xăng Hoàng Anh 2","StopType":"Trụ dừng","Zone":"Huyện Hóc Môn","Ward":"Xã Tân Thới Nhì","AddressNo":"Đối diện cây xăng Hoàng Anh 2","Street":"Quốc lộ 22","SupportDisability":"","Status":"Đang khai thác","Lng":106.571364,"Lat":10.906072,"Search":"CxHA2 DdcxHA2 Ql22","Routes":"13, 24, 74, 94"},{"StopId":1390,"Code":"HHM 042","Name":"Ngã 3 Hồng Châu","StopType":"Trụ dừng","Zone":"Huyện Hóc Môn","Ward":"Xã Tân Thới Nhì","AddressNo":"1/147","Street":"Quốc lộ 22","SupportDisability":"","Status":"Đang khai thác","Lng":106.575891,"Lat":10.899638,"Search":"N3HC 1/147 Ql22","Routes":"13, 24, 74, 94"},{"StopId":3659,"Code":"HHM 043","Name":"Doanh trại Quân Đội","StopType":"Trụ dừng","Zone":"Huyện Hóc Môn","Ward":"Xã Tân Thới Nhì","AddressNo":"48/10A","Street":"Quốc lộ 22","SupportDisability":"","Status":"Đang khai thác","Lng":106.578358,"Lat":10.896083,"Search":"DtQD 48/10A Ql22","Routes":"13, 24, 74, 94"},{"StopId":2263,"Code":"HHM 044","Name":"Ngã 3 Lam Sơn","StopType":"Trụ dừng","Zone":"Huyện Hóc Môn","Ward":"Xã Tân Thới Nhì","AddressNo":"65/15A","Street":"Quốc lộ 22","SupportDisability":"","Status":"Đang khai thác","Lng":106.581003,"Lat":10.892279,"Search":"N3LS 65/15A Ql22","Routes":"13, 24, 74, 94"},{"StopId":2328,"Code":"HHM 045","Name":"Dân Thắng","StopType":"Trụ dừng","Zone":"Huyện Hóc Môn","Ward":"Xã Tân Thới Nhì","AddressNo":"65/5","Street":"Quốc lộ 22","SupportDisability":"","Status":"Đang khai thác","Lng":106.583911,"Lat":10.888139,"Search":"DT 65/5 Ql22","Routes":"13, 24, 74, 94"},{"StopId":1395,"Code":"HHM 046","Name":"Ngã tư Hóc Môn","StopType":"Trụ dừng","Zone":"Huyện Hóc Môn","Ward":"Xã Xuân Thới Sơn","AddressNo":"49/6","Street":"Quốc lộ 22","SupportDisability":"","Status":"Đang khai thác","Lng":106.587263,"Lat":10.883308,"Search":"NtHM 49/6 Ql22","Routes":"13, 74, 94"},{"StopId":4759,"Code":"HHM 047","Name":"Công ty Khánh Đông","StopType":"Nhà chờ","Zone":"Huyện Hóc Môn","Ward":"Xã Xuân Thới Sơn","AddressNo":"5A","Street":"Quốc lộ 22","SupportDisability":"Có","Status":"Đang khai thác","Lng":106.58927,"Lat":10.880337,"Search":"CtKD 5A Ql22","Routes":"13, 74, 94"},{"StopId":1230,"Code":"HHM 048","Name":"Ngã tư giếng nước","StopType":"Trụ dừng","Zone":"Huyện Hóc Môn","Ward":"Thị trấn Hóc Môn","AddressNo":"Cây xăng Thành Công","Street":"Quốc lộ 22","SupportDisability":"","Status":"Đang khai thác","Lng":106.591684,"Lat":10.877023,"Search":"Ntgn CxTC Ql22","Routes":"13, 74, 94"},{"StopId":1232,"Code":"HHM 049","Name":"Cây xăng Hoàng Anh 1","StopType":"Ô sơn","Zone":"Huyện Hóc Môn","Ward":null,"AddressNo":"42/7B","Street":"Quốc lộ 22","SupportDisability":"","Status":"Đang khai thác","Lng":106.593078,"Lat":10.874969,"Search":"CxHA1 42/7B Ql22","Routes":"13, 74, 94"},{"StopId":4588,"Code":"HHM 0490","Name":"Công ty Suất ăn công nghiệp","StopType":"Trụ dừng","Zone":"Huyện Hóc Môn","Ward":"Xã Xuân Thới Đông","AddressNo":"43/1","Street":"Quốc lộ 22","SupportDisability":"","Status":"Đang khai thác","Lng":106.594666,"Lat":10.872947,"Search":"CtSacn 43/1 Ql22","Routes":"13, 74, 94"},{"StopId":1231,"Code":"HHM 050","Name":"Ngã 3 Bùi Môn","StopType":"Trụ dừng","Zone":"Huyện Hóc Môn","Ward":"Xã Xuân Thới Đông","AddressNo":"58/5","Street":"Quốc lộ 22","SupportDisability":"","Status":"Đang khai thác","Lng":106.596758,"Lat":10.869954,"Search":"N3BM 58/5 Ql22","Routes":"122, 13, 62-5, 74, 85, 94"},{"StopId":1235,"Code":"HHM 051","Name":"Trường học Tân Xuân","StopType":"Trụ dừng","Zone":"Huyện Hóc Môn","Ward":"Xã Tân Xuân","AddressNo":"1/4","Street":"Quốc lộ 22","SupportDisability":"","Status":"Đang khai thác","Lng":106.598904,"Lat":10.866919,"Search":"ThTX 1/4 Ql22","Routes":"122, 13, 62-5, 74, 85, 94"},{"StopId":1233,"Code":"HHM 052","Name":"Ngân Hàng Aribank","StopType":"Nhà chờ","Zone":"Huyện Hóc Môn","Ward":"Xã Trung Chánh","AddressNo":"5/1 (gần đường Nguyễn Thị Sóc)","Street":"Quốc lộ 22","SupportDisability":"Có","Status":"Đang khai thác","Lng":106.601978,"Lat":10.862546,"Search":"NHA 5/1(dNTS Ql22","Routes":"122, 13, 62-5, 74, 85, 94"},{"StopId":1234,"Code":"HHM 053","Name":"Ngã 3 Củ Cải","StopType":"Nhà chờ","Zone":"Huyện Hóc Môn","Ward":"Xã Xuân Thới Đông","AddressNo":"43/1 (kế 33/5A), 7/2A","Street":"Quốc lộ 22","SupportDisability":"Có","Status":"Đang khai thác","Lng":106.603324,"Lat":10.860602,"Search":"N3CC 43/1(33/5A),7/2A Ql22","Routes":"122, 13, 62-5, 71, 74, 85, 94"},{"StopId":3635,"Code":"HHM 055","Name":"Chùa Linh Sơn","StopType":"Trụ dừng","Zone":"Huyện Hóc Môn","Ward":null,"AddressNo":"G68A","Street":"Quốc lộ 22","SupportDisability":"","Status":"Đang khai thác","Lng":106.606178,"Lat":10.85662,"Search":"CLS G Ql22","Routes":"122, 13, 62-5, 71, 74, 85, 94"},{"StopId":1393,"Code":"HHM 056","Name":"Ngã tư Trung Chánh","StopType":"Nhà chờ","Zone":"Huyện Hóc Môn","Ward":"Xã Trung Chánh","AddressNo":"30/10B (kế 30)","Street":"Quốc lộ 22","SupportDisability":"Có","Status":"Đang khai thác","Lng":106.608152,"Lat":10.853595,"Search":"NtTC 30/10B(30) Ql22","Routes":"122, 13, 145, 62-5, 71, 74, 85, 94"},{"StopId":1238,"Code":"HHM 057","Name":"Cư xá Bà Điểm","StopType":"Nhà chờ","Zone":"Huyện Hóc Môn","Ward":"Xã Bà Điểm","AddressNo":"3A","Street":"Quốc lộ 22","SupportDisability":"Có","Status":"Đang khai thác","Lng":106.610641,"Lat":10.849713,"Search":"CxBD 3A Ql22","Routes":"122, 13, 145, 62-5, 71, 74, 85, 94"},{"StopId":1239,"Code":"HHM 058","Name":"Bến xe An Sương","StopType":"Trụ dừng","Zone":"Huyện Hóc Môn","Ward":"Xã Bà Điểm","AddressNo":"1B","Street":"Quốc lộ 22","SupportDisability":"","Status":"Đang khai thác","Lng":106.613522,"Lat":10.845187,"Search":"BxAS 1B Ql22","Routes":"04, 122, 13, 145, 151, 33, 41, 62-5, 65, 71, 74, 85, 94"},{"StopId":167,"Code":"Q12 135","Name":"Bitis","StopType":"Nhà chờ","Zone":"Quận 12","Ward":null,"AddressNo":"487","Street":"Trường Chinh","SupportDisability":"","Status":"Đang khai thác","Lng":106.617347,"Lat":10.838891,"Search":"B 487 TC","Routes":"04, 104, 13, 145, 27, 41, 65, 94"},{"StopId":172,"Code":"Q12 136","Name":"Chùa Lạc Quang","StopType":"Nhà chờ","Zone":"Quận 12","Ward":null,"AddressNo":"257","Street":"Trường Chinh","SupportDisability":"","Status":"Đang khai thác","Lng":106.620212,"Lat":10.834497,"Search":"CLQ 257 TC","Routes":"04, 104, 13, 145, 27, 41, 65, 94"},{"StopId":168,"Code":"Q12 137","Name":"Chùa Vĩnh Phước","StopType":"Nhà chờ","Zone":"Quận 12","Ward":null,"AddressNo":"Chùa Vĩnh Phước","Street":"Trường Chinh","SupportDisability":"","Status":"Đang khai thác","Lng":106.621794,"Lat":10.83202,"Search":"CVP CVP TC","Routes":"04, 104, 13, 145, 27, 41, 65, 94"},{"StopId":169,"Code":"Q12 139","Name":"Cầu Tham Lương - Siêu thị Thiên Hòa","StopType":"Nhà chờ","Zone":"Quận 12","Ward":null,"AddressNo":"21 (Kế 2/6B)","Street":"Trường Chinh","SupportDisability":"","Status":"Đang khai thác","Lng":106.62586,"Lat":10.82624,"Search":"CTL-StTH 21(2/6B) TC","Routes":"04, 104, 13, 145, 23, 27, 41, 62, 65, 94"},{"StopId":174,"Code":"QTP 010","Name":"Trạm Dệt Thành Công","StopType":"Nhà chờ","Zone":"Quận Tân Phú","Ward":"Phường Tây Thạnh","AddressNo":"8","Street":"Trường Chinh","SupportDisability":"Có","Status":"Đang khai thác","Lng":106.629825,"Lat":10.822315,"Search":"TDTC 8 TC","Routes":"04, 104, 13, 145, 23, 27, 32, 41, 62, 65, 94"},{"StopId":173,"Code":"QTP 011","Name":"Trạm KCN Tân Bình","StopType":"Nhà chờ","Zone":"Quận Tân Phú","Ward":"Phường Tây Thạnh","AddressNo":"881","Street":"Trường Chinh","SupportDisability":"Có","Status":"Đang khai thác","Lng":106.630615,"Lat":10.819386,"Search":"TKTB 881 TC","Routes":"04, 104, 13, 145, 23, 27, 28, 62, 65, 94"},{"StopId":176,"Code":"QTP 012","Name":"Ngã 3 Chế Lan Viên","StopType":"Nhà chờ","Zone":"Quận Tân Phú","Ward":"Phường Tây Thạnh","AddressNo":"831 (trước showroom o tô)","Street":"Trường Chinh","SupportDisability":"Có","Status":"Đang khai thác","Lng":106.632377,"Lat":10.814455,"Search":"N3CLV 831(sot TC","Routes":"04, 104, 13, 145, 23, 27, 28, 62, 65, 94"},{"StopId":177,"Code":"QTP 014","Name":"Trạm Đài Liệt Sỹ","StopType":"Nhà chờ","Zone":"Quận Tân Phú","Ward":"Phường Tây Thạnh","AddressNo":"1/3","Street":"Trường Chinh","SupportDisability":"","Status":"Đang khai thác","Lng":106.634019,"Lat":10.808689,"Search":"TDLS 1/3 TC","Routes":"04, 104, 13, 145, 16, 23, 27, 28, 48, 62, 63-1, 65, 94"},{"StopId":2292,"Code":"QTP 015","Name":"Siêu thị BigC","StopType":"Nhà chờ","Zone":"Quận Tân Phú","Ward":"Phường Tây Thạnh","AddressNo":"1/1","Street":"Trường Chinh","SupportDisability":"Có","Status":"Đang khai thác","Lng":106.634773,"Lat":10.806212,"Search":"StB 1/1 TC","Routes":"13, 23, 27, 48, 62, 65, 94"},{"StopId":2291,"Code":"QTP 016","Name":"Trạm Tân Kỳ Tân Quý","StopType":"Trụ dừng","Zone":"Quận Tân Phú","Ward":"Phường Tây Thạnh","AddressNo":"33/24 (659-661)","Street":"Trường Chinh","SupportDisability":"","Status":"Đang khai thác","Lng":106.635269,"Lat":10.8048,"Search":"TTKTQ 33/24( TC","Routes":"13, 23, 27, 62, 65, 94"},{"StopId":2293,"Code":"QTB 080","Name":"Chợ Võ Thành Trang","StopType":"Trụ dừng","Zone":"Quận Tân Bình","Ward":null,"AddressNo":"541","Street":"Trường Chinh","SupportDisability":"","Status":"Đang khai thác","Lng":106.637517,"Lat":10.801275,"Search":"CVTT 541 TC","Routes":"13, 23, 65, 94"},{"StopId":2296,"Code":"QTB 081","Name":"Ngã ba Trương Công Định","StopType":"Trụ dừng","Zone":"Quận Tân Bình","Ward":null,"AddressNo":"403","Street":"Trường Chinh","SupportDisability":"","Status":"Đang khai thác","Lng":106.641557,"Lat":10.799115,"Search":"NbTCD 403 TC","Routes":"13, 23, 65, 94"},{"StopId":2559,"Code":"QTB 082","Name":"Ngã ba Hồng Đào","StopType":"Trụ dừng","Zone":"Quận Tân Bình","Ward":null,"AddressNo":"351","Street":"Trường Chinh","SupportDisability":"","Status":"Đang khai thác","Lng":106.644266,"Lat":10.797666,"Search":"NbHD 351 TC","Routes":"13, 30, 64, 65, 94"},{"StopId":1392,"Code":"QTB 083","Name":"Ngã ba Hoàng Hoa Thám","StopType":"Trụ dừng","Zone":"Quận Tân Bình","Ward":null,"AddressNo":"233","Street":"Trường Chinh","SupportDisability":"","Status":"Đang khai thác","Lng":106.646218,"Lat":10.796606,"Search":"NbHHT 233 TC","Routes":"13, 30, 64, 65, 94"},{"StopId":1826,"Code":"QTB 084","Name":"Nhà thờ Đắc Lộ","StopType":"Nhà chờ","Zone":"Quận Tân Bình","Ward":null,"AddressNo":"97 (đối diện 160B)","Street":"Trường Chinh","SupportDisability":"","Status":"Đang khai thác","Lng":106.64926,"Lat":10.794978,"Search":"NtDL 97(d160B) TC","Routes":"13, 30, 64, 65, 94"},{"StopId":1830,"Code":"QTB 085","Name":"Ngã tư Bảy Hiền","StopType":"Nhà chờ","Zone":"Quận Tân Bình","Ward":null,"AddressNo":"67","Street":"Trường Chinh","SupportDisability":"","Status":"Đang khai thác","Lng":106.651368,"Lat":10.793856,"Search":"NtBH 67 TC","Routes":"13, 30, 64, 65, 94"},{"StopId":996,"Code":"QTB 059","Name":"Bệnh viện Thống Nhất","StopType":"Nhà chờ","Zone":"Quận Tân Bình","Ward":null,"AddressNo":"1125 (đối diện 544)","Street":"Cách Mạng Tháng Tám","SupportDisability":"","Status":"Đang khai thác","Lng":106.654131,"Lat":10.792391,"Search":"BvTN 1125(d544) CMTT","Routes":"103, 13, 30, 65"},{"StopId":998,"Code":"QTB 060","Name":"Y tế Phường 4","StopType":"Biển treo","Zone":"Quận Tân Bình","Ward":null,"AddressNo":"1057","Street":"Cách Mạng Tháng Tám","SupportDisability":"","Status":"Đang khai thác","Lng":106.655885,"Lat":10.791463,"Search":"YtP4 1057 CMTT","Routes":"103, 13, 30, 65"},{"StopId":1000,"Code":"QTB 061","Name":"Hồ Bơi Cộng Hòa","StopType":"Biển treo","Zone":"Quận Tân Bình","Ward":null,"AddressNo":"1003","Street":"Cách Mạng Tháng Tám","SupportDisability":"","Status":"Đang khai thác","Lng":106.65846,"Lat":10.790114,"Search":"HBCH 1003 CMTT","Routes":"103, 13, 30, 65"},{"StopId":1002,"Code":"QTB 062","Name":"Ông Tạ","StopType":"Trụ dừng","Zone":"Quận Tân Bình","Ward":null,"AddressNo":"907","Street":"Cách Mạng Tháng Tám","SupportDisability":"","Status":"Đang khai thác","Lng":106.660075,"Lat":10.789261,"Search":"OT 907 CMTT","Routes":"103, 13, 30, 65"},{"StopId":1001,"Code":"QTB 063","Name":"Ngã ba Bành Văn Trân","StopType":"Trụ dừng","Zone":"Quận Tân Bình","Ward":null,"AddressNo":"755-757 (771)","Street":"Cách Mạng Tháng Tám","SupportDisability":"","Status":"Đang khai thác","Lng":106.66274,"Lat":10.78785,"Search":"NbBVT 755-757( CMTT","Routes":"103, 13, 30, 65"},{"StopId":1003,"Code":"Q10 083","Name":"Công viên Lê Thị Riêng","StopType":"Nhà chờ","Zone":"Quận 10","Ward":null,"AddressNo":"875","Street":"Cách Mạng Tháng Tám","SupportDisability":"","Status":"Đang khai thác","Lng":106.665777,"Lat":10.786236,"Search":"CvLTR 875 CMTT","Routes":"103, 13, 30, 65"},{"StopId":2562,"Code":"Q10 084","Name":"Hội thánh tin lành Hòa Hưng","StopType":"Trụ dừng","Zone":"Quận 10","Ward":null,"AddressNo":"601","Street":"Cách Mạng Tháng Tám","SupportDisability":"","Status":"Đang khai thác","Lng":106.668684,"Lat":10.784671,"Search":"HttlHH 601 CMTT","Routes":"13, 30, 65"},{"StopId":2561,"Code":"Q10 085","Name":"Ngã ba Tô Hiến Thành","StopType":"Biển treo","Zone":"Quận 10","Ward":null,"AddressNo":"513","Street":"Cách Mạng Tháng Tám","SupportDisability":"","Status":"Đang khai thác","Lng":106.672699,"Lat":10.782535,"Search":"NbTHT 513 CMTT","Routes":"13, 30, 65"},{"StopId":1399,"Code":"Q10 086","Name":"Chùa Bửu Đà","StopType":"Trụ dừng","Zone":"Quận 10","Ward":null,"AddressNo":"427","Street":"Cách Mạng Tháng Tám","SupportDisability":"","Status":"Đang khai thác","Lng":106.675063,"Lat":10.78124,"Search":"CBD 427 CMTT","Routes":"13, 30, 65"},{"StopId":2564,"Code":"Q10 087","Name":" Ngã ba Hòa Hưng","StopType":"Biển treo","Zone":"Quận 10","Ward":null,"AddressNo":"385","Street":"Cách Mạng Tháng Tám","SupportDisability":"","Status":"Đang khai thác","Lng":106.676575,"Lat":10.780435,"Search":"NbHH 385 CMTT","Routes":"13, 30, 65"},{"StopId":1394,"Code":"Q10 088","Name":"Công trường Dân Chủ","StopType":"Nhà chờ","Zone":"Quận 10","Ward":null,"AddressNo":"Đối diện 132A","Street":"Cách Mạng Tháng Tám","SupportDisability":"","Status":"Đang khai thác","Lng":106.680706,"Lat":10.778205,"Search":"CtDC Dd132A CMTT","Routes":"13, 30, 65"},{"StopId":2563,"Code":"Q3 015","Name":"Công an Quận 3","StopType":"Nhà chờ","Zone":"Quận 3","Ward":null,"AddressNo":"243","Street":"Cách Mạng Tháng Tám","SupportDisability":"Có","Status":"Đang khai thác","Lng":106.68246,"Lat":10.777219,"Search":"CaQ3 243 CMTT","Routes":"13, 30, 65"},{"StopId":1400,"Code":"Q3 016","Name":"Bệnh viện Mắt - Bình Dân - Da Liễu","StopType":"Trụ dừng","Zone":"Quận 3","Ward":null,"AddressNo":"205","Street":"Cách Mạng Tháng Tám","SupportDisability":"Có","Status":"Đang khai thác","Lng":106.684338,"Lat":10.776202,"Search":"BvM-BD-DL 205 CMTT","Routes":"13, 65"},{"StopId":2477,"Code":"Q3 017","Name":"Võ Văn Tần","StopType":"Trụ dừng","Zone":"Quận 3","Ward":null,"AddressNo":"179C","Street":"Cách Mạng Tháng Tám","SupportDisability":"","Status":"Đang khai thác","Lng":106.687202,"Lat":10.77469,"Search":"VVT 179C CMTT","Routes":"13, 28, 65"},{"StopId":1396,"Code":"Q1 004","Name":"Trống Đồng","StopType":"Trụ dừng","Zone":"Quận 1","Ward":null,"AddressNo":"85","Street":"Cách Mạng Tháng Tám","SupportDisability":"","Status":"Đang khai thác","Lng":106.691499,"Lat":10.772345,"Search":"TD 85 CMTT","Routes":"13, 28, 38, 65, 69"},{"StopId":1401,"Code":"Q1 122","Name":"Nguyễn Thị Nghĩa","StopType":"Trụ dừng","Zone":"Quận 1","Ward":"Phường Bến Thành","AddressNo":"26 - 32","Street":"Nguyễn Thị Nghĩa","SupportDisability":"","Status":"Đang khai thác","Lng":106.693588,"Lat":10.770854,"Search":"NTN 26-32 NTN","Routes":"13, 152, 31, 38, 56, 69"},{"StopId":7274,"Code":"Q1 188","Name":"Nguyễn Thị Nghĩa","StopType":"Trụ dừng","Zone":"Quận 1","Ward":"Phường Bến Thành","AddressNo":"94-96","Street":"Lê Lai","SupportDisability":"Có","Status":"Đang khai thác","Lng":106.693495,"Lat":10.769952,"Search":"NTN 94-96 LL","Routes":"03, 04, 102, 109, 13, 140, 156D, 18, 19, 20, 34, 36, 39, 52, 53, 69, 72, 72-2B, 75, 86, 88, 93, D4"},{"StopId":7275,"Code":"Q1 189","Name":"Tôn Thất Tùng","StopType":"Trụ dừng","Zone":"Quận 1","Ward":"Phường Bến Thành","AddressNo":"202-204","Street":"Lê Lai","SupportDisability":"Có","Status":"Đang khai thác","Lng":106.690469,"Lat":10.768761,"Search":"TTT 202-204 LL","Routes":"03, 04, 102, 109, 13, 140, 156D, 18, 19, 20, 34, 36, 39, 52, 53, 69, 72, 72-2B, 75, 86, 88, 93, D4"},{"StopId":35,"Code":"BX 01","Name":"Bến xe buýt Sài Gòn","StopType":"Bến xe","Zone":"Quận 1","Ward":"Phường Phạm Ngũ Lão","AddressNo":"BẾN XE BUÝT SÀI GÒN","Street":"Lê Lai","SupportDisability":"Có","Status":"Đang khai thác","Lng":106.689362,"Lat":10.767676,"Search":"BxbSG BXBSG LL","Routes":"03, 04, 102, 109, 13, 140, 18, 19, 20, 27, 28, 34, 36, 39, 52, 65, 69, 72, 75, 86, 88, 93, D4, DL03, DL04, DRCB, BD, DRCB, VT"}]