[{"StopId":9335,"Code":"BD BX 0002","Name":"Bến xe Bình Dương","StopType":"Bến xe","Zone":"Bình Dương","Ward":null,"AddressNo":"Bến xe Bình Dương","Street":"30/4","SupportDisability":"","Status":"Đang khai thác","Lng":106.668204,"Lat":10.966152,"Search":"BxBD BxBD 30/4","Routes":"60-15, 61-2, 61-4"},{"StopId":8318,"Code":"BD-0018","Name":"Ngã ba Lò Chén","StopType":"Trụ - hộp thông tin","Zone":"Bình Dương","Ward":null,"AddressNo":"Ngã ba Lò Chén","Street":"Đường CMT8","SupportDisability":"Có","Status":"Đang khai thác","Lng":106.660462,"Lat":10.968819,"Search":"NbLC NbLC DC","Routes":"60-18, 61-2, 61-4, 61-51, 61-52, 61-53, 61-9"},{"StopId":8320,"Code":"BD-0020","Name":"Đối diện Nhà sách Bình Minh","StopType":"Trụ - hộp thông tin","Zone":"Bình Dương","Ward":null,"AddressNo":"Đối diện Nhà sách Bình Minh","Street":"Đường CMT8","SupportDisability":"Có","Status":"Đang khai thác","Lng":106.657635,"Lat":10.976586,"Search":"DdNsBM DdNsBM DC","Routes":"60-18, 61-2, 61-4, 61-51, 61-52, 61-9"},{"StopId":8322,"Code":"BD-0022","Name":"Công viên Phú Cường","StopType":"Nhà chờ","Zone":"Bình Dương","Ward":null,"AddressNo":"Công viên Phú Cường","Street":"CMT8","SupportDisability":"Có","Status":"Đang khai thác","Lng":106.656271,"Lat":10.978474,"Search":"CvPC CvPC C","Routes":"60-18, 61-2, 61-4, 61-51, 61-52, 61-53, 61-9"},{"StopId":8324,"Code":"BD-0024","Name":"Chùa Bà Thiên Hậu","StopType":"Nhà chờ","Zone":"Bình Dương","Ward":null,"AddressNo":"Chùa Bà Thiên Hậu","Street":"CMT8","SupportDisability":"Có","Status":"Đang khai thác","Lng":106.654238,"Lat":10.980366,"Search":"CBTH CBTH C","Routes":"60-18, 61-2, 61-4, 61-51, 61-52, 61-53, 61-9"},{"StopId":8338,"Code":"BD-0034","Name":"Ngã 3 Đại Lộ Bình Dương - Huỳnh Văn Luỹ ","StopType":"Trụ - hộp thông tin","Zone":"Bình Dương","Ward":null,"AddressNo":"Ngã 3 Đại Lộ Bình Dương - Huỳnh Văn Luỹ ","Street":"Quốc Lộ 13","SupportDisability":"Có","Status":"Đang khai thác","Lng":106.665939,"Lat":10.985588,"Search":"N3DLBD-HVL N3DLBD-HVL QL13","Routes":"171, 60-15, 61-4, 61-55"},{"StopId":9216,"Code":"BD-0926","Name":"Siêu thị Big C","StopType":"Ô sơn","Zone":"Bình Dương","Ward":null,"AddressNo":"Siêu thị Big C","Street":"Quốc lộ 13","SupportDisability":"","Status":"Đang khai thác","Lng":106.664774,"Lat":10.987542,"Search":"StBC StBC Ql13","Routes":"171, 60-15, 61-4, 61-55"},{"StopId":8337,"Code":"BD-0033","Name":"Ngã 3 ĐL Bình Dương - Nguyễn Đức Thuận","StopType":"Trụ - hộp thông tin","Zone":"Bình Dương","Ward":null,"AddressNo":"Ngã 3 ĐL Bình Dương - Nguyễn Đức Thuận","Street":"Quốc Lộ 13","SupportDisability":"Có","Status":"Đang khai thác","Lng":106.653053,"Lat":10.994719,"Search":"N3DBD-NDT N3DBD-NDT QL13","Routes":"60-15, 60-18, 61-4, 61-51, 61-52, 61-53"},{"StopId":9337,"Code":"BD BX 0004","Name":"Bến xe Dầu Tiếng","StopType":"Bến xe","Zone":"Bình Dương","Ward":null,"AddressNo":"Bến xe Dầu Tiếng","Street":"13/3","SupportDisability":"","Status":"Đang khai thác","Lng":106.362228,"Lat":11.280456,"Search":"BxDT BxDT 13/3","Routes":"61-4"}]