[{"StopId":3184,"Code":"BX36","Name":"Bến xe buýt Công viên phần mềm Quang Trung","StopType":"Bến xe","Zone":"Quận 12","Ward":null,"AddressNo":"BÃI XE CV PM QUANG TRUNG","Street":"Quốc lộ 1A","SupportDisability":"","Status":"Đang khai thác","Lng":106.63071,"Lat":10.852458,"Search":"BxbCvpmQT BXCPQT Ql1A","Routes":"55"},{"StopId":2057,"Code":"Q12 018","Name":"Công viên Phần mềm Quang Trung","StopType":"Nhà chờ","Zone":"Quận 12","Ward":null,"AddressNo":"Công viên Phần mềm Quang Trung","Street":"Tô Ký","SupportDisability":"","Status":"Đang khai thác","Lng":106.626531,"Lat":10.852726,"Search":"CvPmQT CvPmQT TK","Routes":"18, 24, 55, 62"},{"StopId":2089,"Code":"Q12 030","Name":"Đông Bắc","StopType":"Trụ dừng","Zone":"Quận 12","Ward":null,"AddressNo":"79 (A93-A95)","Street":"Tô Ký","SupportDisability":"","Status":"Đang khai thác","Lng":106.623881,"Lat":10.855118,"Search":"DB 79( TK","Routes":"18, 24, 55"},{"StopId":2090,"Code":"Q12 031","Name":"Công viên Phần mềm Quang Trung","StopType":"Trụ dừng","Zone":"Quận 12","Ward":null,"AddressNo":"389","Street":"Tô Ký","SupportDisability":"","Status":"Đang khai thác","Lng":106.625914,"Lat":10.853248,"Search":"CvPmQT 389 TK","Routes":"18, 24, 55, 62"},{"StopId":2091,"Code":"Q12 057","Name":"Cầu vượt Quang Trung","StopType":"Trụ dừng","Zone":"Quận 12","Ward":null,"AddressNo":"B45","Street":"Tô Ký","SupportDisability":"","Status":"Đang khai thác","Lng":106.632174,"Lat":10.84946,"Search":"CvQT B TK","Routes":"18, 24, 55, 62"},{"StopId":2056,"Code":"Q12 058","Name":"Chợ Cầu","StopType":"Trụ dừng","Zone":"Quận 12","Ward":null,"AddressNo":"B79","Street":"Tô Ký","SupportDisability":"","Status":"Đang khai thác","Lng":106.634068,"Lat":10.848148,"Search":"CC B TK","Routes":"18, 24, 55, 62"},{"StopId":2093,"Code":"QGV 169","Name":"Chợ Cầu","StopType":"Trụ dừng","Zone":"Quận Gò Vấp","Ward":null,"AddressNo":"927","Street":"Quang Trung","SupportDisability":"","Status":"Đang khai thác","Lng":106.638901,"Lat":10.844987,"Search":"CC 927 QT","Routes":"18, 24, 55"},{"StopId":2094,"Code":"QGV 170","Name":"Ngã tư Cầu cống","StopType":"Trụ dừng","Zone":"Quận Gò Vấp","Ward":null,"AddressNo":"869-871 (Kế A4-A5)","Street":"Quang Trung","SupportDisability":"","Status":"Đang khai thác","Lng":106.640822,"Lat":10.84367,"Search":"NtCc 869-871(A QT","Routes":"18, 24, 55"},{"StopId":2095,"Code":"QGV 171","Name":"Công ty Đồng Tâm","StopType":"Trụ dừng","Zone":"Quận Gò Vấp","Ward":null,"AddressNo":"819","Street":"Quang Trung","SupportDisability":"","Status":"Đang khai thác","Lng":106.643359,"Lat":10.841973,"Search":"CtDT 819 QT","Routes":"18, 24, 55"},{"StopId":2098,"Code":"QGV 172","Name":"Làng SOS","StopType":"Nhà chờ","Zone":"Quận Gò Vấp","Ward":null,"AddressNo":"751 (364)","Street":"Quang Trung","SupportDisability":"","Status":"Đang khai thác","Lng":106.64492,"Lat":10.840909,"Search":"LS 751( QT","Routes":"18, 24, 55"},{"StopId":2096,"Code":"QGV 173","Name":"Ngã ba Tân Sơn","StopType":"Nhà chờ","Zone":"Quận Gò Vấp","Ward":null,"AddressNo":"Đối diện 972 (Công ty ISUZU)","Street":"Quang Trung","SupportDisability":"","Status":"Đang khai thác","Lng":106.647736,"Lat":10.839012,"Search":"NbTS Dd972(tI QT","Routes":"18, 24, 55"},{"StopId":2099,"Code":"QGV 174","Name":"Dệt may Phương Đông","StopType":"Nhà chờ","Zone":"Quận Gò Vấp","Ward":null,"AddressNo":"695 (đối diện 97)","Street":"Quang Trung","SupportDisability":"","Status":"Đang khai thác","Lng":106.649839,"Lat":10.838469,"Search":"DmPD 695(d97) QT","Routes":"18, 24, 55"},{"StopId":2097,"Code":"QGV 175","Name":"Trường THPT Nguyễn Công Trứ","StopType":"Nhà chờ","Zone":"Quận Gò Vấp","Ward":null,"AddressNo":"Đối diện 842","Street":"Quang Trung","SupportDisability":"","Status":"Đang khai thác","Lng":106.653702,"Lat":10.837495,"Search":"TTNCT Dd842 QT","Routes":"18, 24, 55"},{"StopId":4627,"Code":"QGV 176","Name":"Chợ Hạnh Thông Tây","StopType":"Nhà chờ","Zone":"Quận Gò Vấp","Ward":null,"AddressNo":"Đối diện 746 (12B)","Street":"Quang Trung","SupportDisability":"","Status":"Đang khai thác","Lng":106.657376,"Lat":10.836552,"Search":"CHTT Dd746( QT","Routes":"18, 24, 55"},{"StopId":4628,"Code":"QGV 177","Name":"City Mart","StopType":"Trụ dừng","Zone":"Quận Gò Vấp","Ward":null,"AddressNo":"645","Street":"Quang Trung","SupportDisability":"","Status":"Đang khai thác","Lng":106.661164,"Lat":10.835614,"Search":"CM 645 QT","Routes":"103, 18, 24, 55"},{"StopId":926,"Code":"QGV 178","Name":"Chùa Huỳnh Kim","StopType":"Trụ dừng","Zone":"Quận Gò Vấp","Ward":null,"AddressNo":"621","Street":"Quang Trung","SupportDisability":"","Status":"Đang khai thác","Lng":106.663127,"Lat":10.835034,"Search":"CHK 621 QT","Routes":"103, 18, 24, 55"},{"StopId":1665,"Code":"QGV 179","Name":"VKSND Quận Gò Vấp","StopType":"Trụ dừng","Zone":"Quận Gò Vấp","Ward":null,"AddressNo":"523","Street":"Quang Trung","SupportDisability":"","Status":"Đang khai thác","Lng":106.666126,"Lat":10.83318,"Search":"VQGV 523 QT","Routes":"103, 18, 24, 55"},{"StopId":987,"Code":"QGV 180","Name":"UBND Quận Gò Vấp","StopType":"Nhà chờ","Zone":"Quận Gò Vấp","Ward":null,"AddressNo":"387","Street":"Quang Trung","SupportDisability":"","Status":"Đang khai thác","Lng":106.669414,"Lat":10.830593,"Search":"UQGV 387 QT","Routes":"103, 18, 24, 55"},{"StopId":984,"Code":"QGV 181","Name":"Nhà Thờ Xóm Thuốc","StopType":"Trụ dừng","Zone":"Quận Gò Vấp","Ward":null,"AddressNo":"305","Street":"Quang Trung","SupportDisability":"","Status":"Đang khai thác","Lng":106.671903,"Lat":10.82918,"Search":"NTXT 305 QT","Routes":"103, 18, 24, 55"},{"StopId":986,"Code":"QGV 182","Name":"Xóm thuốc","StopType":"Trụ dừng","Zone":"Quận Gò Vấp","Ward":null,"AddressNo":"205","Street":"Quang Trung","SupportDisability":"","Status":"Đang khai thác","Lng":106.673995,"Lat":10.82839,"Search":"Xt 205 QT","Routes":"103, 18, 24, 55"},{"StopId":988,"Code":"QGV 183","Name":"Công ty 32","StopType":"Trụ dừng","Zone":"Quận Gò Vấp","Ward":null,"AddressNo":"67","Street":"Quang Trung","SupportDisability":"","Status":"Đang khai thác","Lng":106.676688,"Lat":10.827468,"Search":"Ct32 67 QT","Routes":"103, 18, 24, 55"},{"StopId":991,"Code":"QGV 184","Name":"Siêu thị Văn Lang","StopType":"Nhà chờ","Zone":"Quận Gò Vấp","Ward":null,"AddressNo":"Đối diện Siêu thị Văn Lang","Street":"Quang Trung","SupportDisability":"","Status":"Đang khai thác","Lng":106.678813,"Lat":10.826757,"Search":"StVL DdStVL QT","Routes":"103, 18, 24, 55"},{"StopId":219,"Code":"QGV 121","Name":"Cầu vượt ngã sáu Gò Vấp","StopType":"Trụ dừng","Zone":"Quận Gò Vấp","Ward":null,"AddressNo":"1001","Street":"Nguyễn Kiệm","SupportDisability":"","Status":"Đang khai thác","Lng":106.678968,"Lat":10.823738,"Search":"CvnsGV 1001 NK","Routes":"03, 07, 103, 148, 55, 59"},{"StopId":221,"Code":"QGV 123","Name":"Bệnh Viện 175","StopType":"Trụ dừng","Zone":"Quận Gò Vấp","Ward":null,"AddressNo":"883-885","Street":"Nguyễn Kiệm","SupportDisability":"","Status":"Đang khai thác","Lng":106.678727,"Lat":10.820044,"Search":"BV175 883-885 NK","Routes":"03, 07, 103, 148, 55, 59"},{"StopId":223,"Code":"QGV 124","Name":"Chợ Tân Sơn Nhất","StopType":"Trụ dừng","Zone":"Quận Gò Vấp","Ward":null,"AddressNo":"79-81","Street":"Nguyễn Kiệm","SupportDisability":"","Status":"Đang khai thác","Lng":106.678598,"Lat":10.816772,"Search":"CTSN 79-81 NK","Routes":"03, 07, 103, 148, 55, 59"},{"StopId":224,"Code":"QPN 034","Name":"Đầu công viên Gia Định","StopType":"Nhà chờ","Zone":"Quận Phú Nhuận","Ward":null,"AddressNo":"Rạp xiếc","Street":"Hoàng Minh Giám","SupportDisability":"","Status":"Đang khai thác","Lng":106.677681,"Lat":10.813442,"Search":"DcvGD Rx HMG","Routes":"03, 07, 148, 50, 55, 59"},{"StopId":225,"Code":"QPN 035","Name":"Cuối công viên Gia Định","StopType":"Nhà chờ","Zone":"Quận Phú Nhuận","Ward":null,"AddressNo":"Đối diện số 5","Street":"Hoàng Minh Giám","SupportDisability":"","Status":"Đang khai thác","Lng":106.674741,"Lat":10.809906,"Search":"CcvGD Dds5 HMG","Routes":"03, 07, 148, 50, 55, 59"},{"StopId":226,"Code":"QPN 053","Name":"Đầu Đường Đào Duy Anh","StopType":"Trụ dừng","Zone":"Quận Phú Nhuận","Ward":null,"AddressNo":"155","Street":"Đào Duy Anh","SupportDisability":"","Status":"Đang khai thác","Lng":106.674057,"Lat":10.807978,"Search":"DDDDA 155 DDA","Routes":"03, 07, 55"},{"StopId":228,"Code":"QPN 054","Name":"Cuối Đường Đào Duy Anh","StopType":"Nhà chờ","Zone":"Quận Phú Nhuận","Ward":null,"AddressNo":"7-9","Street":"Đào Duy Anh","SupportDisability":"","Status":"Đang khai thác","Lng":106.677177,"Lat":10.805891,"Search":"CDDDA 7-9 DDA","Routes":"03, 07, 55"},{"StopId":230,"Code":"QPN 023","Name":"Ngã ba Đào Duy Anh","StopType":"Trụ dừng","Zone":"Quận Phú Nhuận","Ward":null,"AddressNo":"129","Street":"Hồ Văn Huê","SupportDisability":"","Status":"Đang khai thác","Lng":106.677729,"Lat":10.804858,"Search":"NbDDA 129 HVH","Routes":"03, 07, 55"},{"StopId":227,"Code":"QPN 024","Name":"Tháp Nước","StopType":"Trụ dừng","Zone":"Quận Phú Nhuận","Ward":null,"AddressNo":"43B","Street":"Hồ Văn Huê","SupportDisability":"","Status":"Đang khai thác","Lng":106.676366,"Lat":10.802434,"Search":"TN 43B HVH","Routes":"03, 07, 55"},{"StopId":229,"Code":"QPN 025","Name":"Trung tâm hội nghị tiệc cưới White Palace","StopType":"Trụ dừng","Zone":"Quận Phú Nhuận","Ward":null,"AddressNo":"1B","Street":"Hồ Văn Huê","SupportDisability":"","Status":"Đang khai thác","Lng":106.675025,"Lat":10.800074,"Search":"TthntcWP 1B HVH","Routes":"03, 07, 55"},{"StopId":232,"Code":"QPN 009","Name":"Ngã tư Phú Nhuận","StopType":"Trụ dừng","Zone":"Quận Phú Nhuận","Ward":null,"AddressNo":"59","Street":"Hoàng Văn Thụ","SupportDisability":"","Status":"Đang khai thác","Lng":106.679354,"Lat":10.799088,"Search":"NtPN 59 HVT","Routes":"03, 08, 104, 55, 64"},{"StopId":558,"Code":"QPN 015 ","Name":"Ngã tư Phan Xích Long","StopType":"Trụ dừng","Zone":"Quận Phú Nhuận","Ward":null,"AddressNo":"171","Street":"Phan Đăng Lưu","SupportDisability":"","Status":"Đang khai thác","Lng":106.681741,"Lat":10.800416,"Search":"NtPXL 171 PDL","Routes":"08, 104, 55, 64"},{"StopId":513,"Code":"QPN 016","Name":"Ngã Tư Thích Quảng Đức","StopType":"Trụ dừng","Zone":"Quận Phú Nhuận","Ward":null,"AddressNo":"137-139B","Street":"Phan Đăng Lưu","SupportDisability":"","Status":"Đang khai thác","Lng":106.684075,"Lat":10.802682,"Search":"NTTQD 137-139B PDL","Routes":"08, 104, 55, 64"},{"StopId":514,"Code":"QPN 017","Name":"Trường Đại học Văn Hiến","StopType":"Trụ dừng","Zone":"Quận Phú Nhuận","Ward":null,"AddressNo":"109","Street":"Phan Đăng Lưu","SupportDisability":"","Status":"Đang khai thác","Lng":106.686108,"Lat":10.803847,"Search":"TDhVH 109 PDL","Routes":"08, 104, 55, 64"},{"StopId":515,"Code":"QPN 018","Name":"Bệnh Viện Phước An","StopType":"Trụ dừng","Zone":"Quận Phú Nhuận","Ward":null,"AddressNo":"81 - 83","Street":"Phan Đăng Lưu","SupportDisability":"","Status":"Đang khai thác","Lng":106.687916,"Lat":10.803615,"Search":"BVPA 81-83 PDL","Routes":"08, 104, 55, 64"},{"StopId":7262,"Code":"QPN 060","Name":"Công viên Văn hóa Phú Nhuận","StopType":"Nhà chờ","Zone":"Quận Phú Nhuận","Ward":"Phường 07","AddressNo":"47","Street":"Phan Đăng Lưu","SupportDisability":"Có","Status":"Đang khai thác","Lng":106.690384,"Lat":10.803251,"Search":"CvVhPN 47 PDL","Routes":"08, 104, 55, 64"},{"StopId":422,"Code":"QBTHT056","Name":"UBND Quận Bình Thạnh","StopType":"Trụ dừng","Zone":"Quận Bình Thạnh","Ward":null,"AddressNo":"3","Street":"Phan Đăng Lưu","SupportDisability":"","Status":"Đang khai thác","Lng":106.695153,"Lat":10.802666,"Search":"UQBT 3 PDL","Routes":"08, 104, 55"},{"StopId":517,"Code":"QBTH 114","Name":"Lăng Ông Bà Chiểu","StopType":"Nhà chờ","Zone":"Quận Bình Thạnh","Ward":null,"AddressNo":"1","Street":"Phan Đăng Lưu","SupportDisability":"","Status":"Đang khai thác","Lng":106.697159,"Lat":10.802408,"Search":"LOBC 1 PDL","Routes":"08, 104, 55"},{"StopId":518,"Code":"QBTH 006","Name":"Chợ Bà Chiểu","StopType":"Trụ dừng","Zone":"Quận Bình Thạnh","Ward":null,"AddressNo":"473C","Street":"Bạch Đằng","SupportDisability":"","Status":"Đang khai thác","Lng":106.699471,"Lat":10.802893,"Search":"CBC 473C BD","Routes":"08, 104, 146, 24, 55, 91"},{"StopId":519,"Code":"QBTH 007","Name":"Tòa Án nhân dân Quận Bình Thạnh","StopType":"Trụ dừng","Zone":"Quận Bình Thạnh","Ward":null,"AddressNo":"449","Street":"Bạch Đằng","SupportDisability":"","Status":"Đang khai thác","Lng":106.701204,"Lat":10.803615,"Search":"TAndQBT 449 BD","Routes":"08, 104, 146, 24, 55, 91"},{"StopId":520,"Code":"QBTH 008","Name":"Chùa Bồ Đề","StopType":"Trụ dừng","Zone":"Quận Bình Thạnh","Ward":null,"AddressNo":"375","Street":"Bạch Đằng","SupportDisability":"","Status":"Đang khai thác","Lng":106.703988,"Lat":10.803293,"Search":"CBD 375 BD","Routes":"08, 104, 146, 24, 55, 91"},{"StopId":521,"Code":"QBTH 009","Name":"Nhà thờ Hàng Xanh","StopType":"Trụ dừng","Zone":"Quận Bình Thạnh","Ward":null,"AddressNo":"235","Street":"Bạch Đằng","SupportDisability":"","Status":"Đang khai thác","Lng":106.706713,"Lat":10.803077,"Search":"NtHX 235 BD","Routes":"08, 104, 146, 24, 55, 91"},{"StopId":366,"Code":"QBTH 010","Name":"Chợ Hàng Xanh","StopType":"Trụ dừng","Zone":"Quận Bình Thạnh","Ward":null,"AddressNo":"39","Street":"Bạch Đằng","SupportDisability":"","Status":"Đang khai thác","Lng":106.710511,"Lat":10.802793,"Search":"CHX 39 BD","Routes":"05, 08, 104, 146, 161, 24, 55, 60-3, 67, 91"},{"StopId":476,"Code":"QBTH 059","Name":"Đại học Hutech","StopType":"Ô sơn","Zone":"Quận Bình Thạnh","Ward":null,"AddressNo":"510-512","Street":"Điện Biên Phủ","SupportDisability":"","Status":"Đang khai thác","Lng":106.714255,"Lat":10.800827,"Search":"DhH 510-512 DBP","Routes":"06, 10, 104, 150, 157, 159, 161, 30, 43, 52, 55, 60-3, 67, 72-1"},{"StopId":473,"Code":"QBTH 058","Name":"Khu Du lịch Văn Thánh","StopType":"Nhà chờ","Zone":"Quận Bình Thạnh","Ward":null,"AddressNo":"600","Street":"Điện Biên Phủ","SupportDisability":"","Status":"Đang khai thác","Lng":106.717404,"Lat":10.799531,"Search":"KDlVT 600 DBP","Routes":"06, 10, 104, 150, 157, 159, 161, 30, 43, 52, 55, 60-3, 67"},{"StopId":475,"Code":"QBTH 057","Name":"Cầu Sài Gòn","StopType":"Trụ dừng","Zone":"Quận Bình Thạnh","Ward":null,"AddressNo":"658","Street":"Điện Biên Phủ","SupportDisability":"","Status":"Đang khai thác","Lng":106.719496,"Lat":10.798525,"Search":"CSG 658 DBP","Routes":"06, 10, 104, 150, 157, 160, 161, 30, 43, 52, 55, 60-3, 67"},{"StopId":8082,"Code":"QBTH 176","Name":"Công viên Cầu Sài Gòn","StopType":"Trụ dừng","Zone":"Quận Bình Thạnh","Ward":"Phường 25","AddressNo":"Phía trước 681 Điện Biên Phủ","Street":"Nguyễn Hữu Cảnh","SupportDisability":"Có","Status":"Chưa khai thác","Lng":106.722217,"Lat":10.799053,"Search":"CvCSG Pt681DBP NHC","Routes":"104, 158, 160, 161, 30, 55"},{"StopId":419,"Code":"QBTH 056","Name":"Cầu Sài Gòn","StopType":"Trụ dừng","Zone":"Quận Bình Thạnh","Ward":null,"AddressNo":"24(597)","Street":"Điện Biên Phủ","SupportDisability":"","Status":"Đang khai thác","Lng":106.719571,"Lat":10.798893,"Search":"CSG 24(597) DBP","Routes":"06, 10, 104, 150, 157, 158, 160, 161, 30, 43, 52, 55, 60-3, 67"},{"StopId":6940,"Code":"QHBT_2","Name":"Bến xe Văn Thánh","StopType":"Bến Bãi QH 568","Zone":"Quận Bình Thạnh","Ward":"Phường 01","AddressNo":"BX Văn Thánh","Street":"Điện Biên Phủ","SupportDisability":"Có","Status":"Chưa khai thác","Lng":106.717501,"Lat":10.801317,"Search":"BxVT BVT DBP","Routes":"104, 157, 158, 161, 30, 55"}]