[{"StopId":6940,"Code":"QHBT_2","Name":"Bến xe Văn Thánh","StopType":"Bến Bãi QH 568","Zone":"Quận Bình Thạnh","Ward":"Phường 01","AddressNo":"BX Văn Thánh","Street":"Điện Biên Phủ","SupportDisability":"Có","Status":"Chưa khai thác","Lng":106.717501,"Lat":10.801317,"Search":"BxVT BVT DBP","Routes":"104, 157, 158, 161, 30, 55"},{"StopId":420,"Code":"QBTH 055","Name":"Khu Du lịch Văn Thánh","StopType":"Nhà chờ","Zone":"Quận Bình Thạnh","Ward":null,"AddressNo":"152/72c(559)","Street":"Điện Biên Phủ","SupportDisability":"","Status":"Đang khai thác","Lng":106.717227,"Lat":10.800274,"Search":"KDlVT 152/72c(559) DBP","Routes":"06, 10, 104, 150, 157, 158, 159, 161, 30, 43, 44, 52, 55, 60-3, 67"},{"StopId":421,"Code":"QBTH 054","Name":"Đại học Hutech","StopType":"Nhà chờ","Zone":"Quận Bình Thạnh","Ward":null,"AddressNo":"483","Street":"Điện Biên Phủ","SupportDisability":"","Status":"Đang khai thác","Lng":106.714856,"Lat":10.801228,"Search":"DhH 483 DBP","Routes":"06, 10, 104, 14, 150, 157, 159, 161, 19, 30, 43, 44, 45, 52, 55, 60-3, 67, 72-1"},{"StopId":423,"Code":"QBTH 053","Name":"Cây xăng dầu","StopType":"Trụ dừng","Zone":"Quận Bình Thạnh","Ward":null,"AddressNo":"419","Street":"Điện Biên Phủ","SupportDisability":"","Status":"Đang khai thác","Lng":106.712834,"Lat":10.801697,"Search":"Cxd 419 DBP","Routes":"06, 10, 104, 14, 150, 157, 159, 161, 19, 30, 43, 44, 45, 52, 55, 67"},{"StopId":1114,"Code":"QBTH 001","Name":"Chợ Hàng Xanh","StopType":"Trụ dừng","Zone":"Quận Bình Thạnh","Ward":null,"AddressNo":"18","Street":"Bạch Đằng","SupportDisability":"","Status":"Đang khai thác","Lng":106.710441,"Lat":10.802998,"Search":"CHX 18 BD","Routes":"104, 55"},{"StopId":588,"Code":"QBTH 002","Name":"Nhà thờ Hàng Xanh","StopType":"Trụ dừng","Zone":"Quận Bình Thạnh","Ward":null,"AddressNo":"96","Street":"Bạch Đằng","SupportDisability":"","Status":"Đang khai thác","Lng":106.708032,"Lat":10.803177,"Search":"NtHX 96 BD","Routes":"08, 104, 146, 24, 55, 91"},{"StopId":589,"Code":"QBTH 003","Name":"Chùa Bồ Đề","StopType":"Trụ dừng","Zone":"Quận Bình Thạnh","Ward":null,"AddressNo":"246","Street":"Bạch Đằng","SupportDisability":"","Status":"Đang khai thác","Lng":106.704015,"Lat":10.803483,"Search":"CBD 246 BD","Routes":"08, 104, 146, 24, 55, 91"},{"StopId":590,"Code":"QBTH 004","Name":"Tòa Án nhân dân Quận Bình Thạnh","StopType":"Trụ dừng","Zone":"Quận Bình Thạnh","Ward":null,"AddressNo":"288","Street":"Bạch Đằng","SupportDisability":"","Status":"Đang khai thác","Lng":106.701187,"Lat":10.803873,"Search":"TAndQBT 288 BD","Routes":"08, 104, 146, 24, 55, 91"},{"StopId":592,"Code":"QBTH 005","Name":"Chợ Bà Chiểu","StopType":"Trụ dừng","Zone":"Quận Bình Thạnh","Ward":null,"AddressNo":"368","Street":"Bạch Đằng","SupportDisability":"","Status":"Đang khai thác","Lng":106.699374,"Lat":10.803125,"Search":"CBC 368 BD","Routes":"08, 104, 146, 24, 55, 91"},{"StopId":591,"Code":"QBTH 115","Name":"UBND Quận Bình Thạnh","StopType":"Trụ dừng","Zone":"Quận Bình Thạnh","Ward":"Phường 14","AddressNo":"6-8","Street":"Phan Đăng Lưu","SupportDisability":"","Status":"Đang khai thác","Lng":106.695786,"Lat":10.802819,"Search":"UQBT 6-8 PDL","Routes":"08, 104, 18, 31, 36, 55, 91"},{"StopId":594,"Code":"QBTH 116","Name":"Bệnh Viện Gia Định","StopType":"Nhà chờ","Zone":"Quận Bình Thạnh","Ward":"Phường 12","AddressNo":"10","Street":"Phan Đăng Lưu","SupportDisability":"","Status":"Đang khai thác","Lng":106.693543,"Lat":10.803119,"Search":"BVGD 10 PDL","Routes":"08, 104, 146, 55, 64"},{"StopId":593,"Code":"QBTH 117","Name":"PCCC quận Bình Thạnh","StopType":"Nhà chờ","Zone":"Quận Bình Thạnh","Ward":null,"AddressNo":"14-16","Street":"Phan Đăng Lưu","SupportDisability":"","Status":"Đang khai thác","Lng":106.691741,"Lat":10.803362,"Search":"PqBT 14-16 PDL","Routes":"08, 104, 55, 64"},{"StopId":595,"Code":"QPN 019","Name":"Bệnh viện Phước An","StopType":"Trụ dừng","Zone":"Quận Phú Nhuận","Ward":null,"AddressNo":"36A","Street":"Phan Đăng Lưu","SupportDisability":"","Status":"Đang khai thác","Lng":106.687637,"Lat":10.803878,"Search":"BvPA 36A PDL","Routes":"08, 104, 55, 64"},{"StopId":596,"Code":"QPN 020","Name":"Đại học Văn Hiến","StopType":"Trụ dừng","Zone":"Quận Phú Nhuận","Ward":null,"AddressNo":"94","Street":"Phan Đăng Lưu","SupportDisability":"","Status":"Đang khai thác","Lng":106.686119,"Lat":10.804078,"Search":"DhVH 94 PDL","Routes":"08, 104, 55, 64"},{"StopId":597,"Code":"QPN 021","Name":"Ngã Tư Thích Quảng Đức","StopType":"Trụ dừng","Zone":"Quận Phú Nhuận","Ward":null,"AddressNo":"124","Street":"Phan Đăng Lưu","SupportDisability":"","Status":"Đang khai thác","Lng":106.683608,"Lat":10.802529,"Search":"NTTQD 124 PDL","Routes":"08, 104, 55, 64"},{"StopId":598,"Code":"QPN 022","Name":"Ngã tư Phan Xích Long","StopType":"Trụ dừng","Zone":"Quận Phú Nhuận","Ward":null,"AddressNo":"172","Street":"Phan Đăng Lưu","SupportDisability":"","Status":"Đang khai thác","Lng":106.681892,"Lat":10.80088,"Search":"NtPXL 172 PDL","Routes":"08, 104, 55, 64"},{"StopId":50,"Code":"QPN 001","Name":"Ngã tư Phú Nhuận","StopType":"Trụ dừng","Zone":"Quận Phú Nhuận","Ward":null,"AddressNo":"392","Street":"Nguyễn Kiệm","SupportDisability":"","Status":"Đang khai thác","Lng":106.680138,"Lat":10.799713,"Search":"NtPN 392 NK","Routes":"03, 55"},{"StopId":51,"Code":"QPN 002","Name":"Nhà Truyền Thông","StopType":"Trụ dừng","Zone":"Quận Phú Nhuận","Ward":null,"AddressNo":"466","Street":"Nguyễn Kiệm","SupportDisability":"","Status":"Đang khai thác","Lng":106.679245,"Lat":10.802232,"Search":"NTT 466 NK","Routes":"03, 55"},{"StopId":52,"Code":"QPN 003 ","Name":"Ngã ba Hồ Văn Huê","StopType":"Trụ dừng","Zone":"Quận Phú Nhuận","Ward":null,"AddressNo":"582","Street":"Nguyễn Kiệm","SupportDisability":"","Status":"Đang khai thác","Lng":106.678759,"Lat":10.805259,"Search":"NbHVH 582 NK","Routes":"03, 55"},{"StopId":53,"Code":"QPN 004","Name":"Coop Mart Nguyễn Kiệm","StopType":"Trụ dừng","Zone":"Quận Phú Nhuận","Ward":null,"AddressNo":"668-670","Street":"Nguyễn Kiệm","SupportDisability":"","Status":"Đang khai thác","Lng":106.678528,"Lat":10.807077,"Search":"CMNK 668-670 NK","Routes":"03, 55"},{"StopId":54,"Code":"QPN 005","Name":"Chùa Vạn Hạnh","StopType":"Nhà chờ","Zone":"Quận Phú Nhuận","Ward":null,"AddressNo":"750","Street":"Nguyễn Kiệm","SupportDisability":"","Status":"Đang khai thác","Lng":106.67856,"Lat":10.810349,"Search":"CVH 750 NK","Routes":"03, 55"},{"StopId":55,"Code":"QGV 125","Name":"Trường Cao đẳng Hải Quan","StopType":"Nhà chờ","Zone":"Quận Gò Vấp","Ward":null,"AddressNo":"780A","Street":"Nguyễn Kiệm","SupportDisability":"","Status":"Đang khai thác","Lng":106.678711,"Lat":10.812475,"Search":"TCdHQ 780A NK","Routes":"03, 55"},{"StopId":56,"Code":"QGV 040","Name":"Cầu vượt Nguyễn Thái Sơn - Nguyễn Kiệm","StopType":"Trụ dừng","Zone":"Quận Gò Vấp","Ward":null,"AddressNo":"86 - 86C","Street":"Nguyễn Thái Sơn","SupportDisability":"","Status":"Đang khai thác","Lng":106.680443,"Lat":10.816282,"Search":"CvNTS-NK 86-86C NTS","Routes":"03, 07, 103, 148, 55, 59"},{"StopId":57,"Code":"QGV 042","Name":"Ngã ba Phạm Ngũ Lão","StopType":"Trụ dừng","Zone":"Quận Gò Vấp","Ward":null,"AddressNo":"182","Street":"Nguyễn Thái Sơn","SupportDisability":"","Status":"Đang khai thác","Lng":106.683147,"Lat":10.819712,"Search":"NbPNL 182 NTS","Routes":"03, 07, 103, 148, 55, 59"},{"StopId":60,"Code":"QGV 187 ","Name":"Cầu vượt ngã sáu Gò Vấp","StopType":"Trụ dừng","Zone":"Quận Gò Vấp","Ward":null,"AddressNo":"140-142","Street":"Phạm Ngũ Lão ","SupportDisability":"","Status":"Đang khai thác","Lng":106.681221,"Lat":10.824607,"Search":"CvnsGV 140-142 PNL","Routes":"03, 07, 103, 148, 55, 59"},{"StopId":921,"Code":"QGV 155 ","Name":"Siêu thị Văn Lang","StopType":"Trụ dừng","Zone":"Quận Gò Vấp","Ward":null,"AddressNo":"Siêu thị Văn Lang","Street":"Quang Trung","SupportDisability":"","Status":"Đang khai thác","Lng":106.679209,"Lat":10.826846,"Search":"StVL StVL QT","Routes":"103, 18, 24, 55"},{"StopId":920,"Code":"QGV 156","Name":"Công ty 32","StopType":"Trụ dừng","Zone":"Quận Gò Vấp","Ward":null,"AddressNo":"138","Street":"Quang Trung","SupportDisability":"","Status":"Đang khai thác","Lng":106.675487,"Lat":10.8281,"Search":"Ct32 138 QT","Routes":"103, 18, 24, 55"},{"StopId":922,"Code":"QGV 157","Name":"Nhà thờ Xóm Thuốc","StopType":"Nhà chờ","Zone":"Quận Gò Vấp","Ward":null,"AddressNo":"190","Street":"Quang Trung","SupportDisability":"","Status":"Đang khai thác","Lng":106.672606,"Lat":10.829186,"Search":"NtXT 190 QT","Routes":"103, 18, 24, 55"},{"StopId":923,"Code":"QGV 158","Name":"UBND Quận Gò Vấp","StopType":"Trụ dừng","Zone":"Quận Gò Vấp","Ward":null,"AddressNo":"328","Street":"Quang Trung","SupportDisability":"","Status":"Đang khai thác","Lng":106.669232,"Lat":10.83103,"Search":"UQGV 328 QT","Routes":"103, 18, 24, 55"},{"StopId":924,"Code":"QGV 159","Name":"VKSND Quận Gò Vấp","StopType":"Trụ dừng","Zone":"Quận Gò Vấp","Ward":null,"AddressNo":"402 - 404","Street":"Quang Trung","SupportDisability":"","Status":"Đang khai thác","Lng":106.666791,"Lat":10.832948,"Search":"VQGV 402-404 QT","Routes":"103, 18, 24, 55"},{"StopId":4745,"Code":"QGV 160","Name":"Chùa Huỳnh Kim","StopType":"Trụ dừng","Zone":"Quận Gò Vấp","Ward":"Phường 01","AddressNo":"548","Street":"Quang Trung","SupportDisability":"Có","Status":"Đang khai thác","Lng":106.663368,"Lat":10.835203,"Search":"CHK 548 QT","Routes":"103, 18, 24, 55"},{"StopId":925,"Code":"QGV 161","Name":"City Mart","StopType":"Trụ dừng","Zone":"Quận Gò Vấp","Ward":null,"AddressNo":"628A","Street":"Quang Trung","SupportDisability":"","Status":"Đang khai thác","Lng":106.66104,"Lat":10.835888,"Search":"CM 628A QT","Routes":"103, 18, 24, 55"},{"StopId":2049,"Code":"QGV 162","Name":"Chợ Hạnh Thông Tây","StopType":"Trụ dừng","Zone":"Quận Gò Vấp","Ward":null,"AddressNo":"734","Street":"Quang Trung","SupportDisability":"","Status":"Đang khai thác","Lng":106.657076,"Lat":10.836894,"Search":"CHTT 734 QT","Routes":"18, 24, 55"},{"StopId":2044,"Code":"QGV 163","Name":"Trường THPT Nguyễn Công Trứ","StopType":"Trụ dừng","Zone":"Quận Gò Vấp","Ward":null,"AddressNo":"872 (96H)","Street":"Quang Trung","SupportDisability":"","Status":"Đang khai thác","Lng":106.652629,"Lat":10.838,"Search":"TTNCT 872( QT","Routes":"18, 24, 55"},{"StopId":2045,"Code":"QGV 164","Name":"Dệt may Phương Đông","StopType":"Nhà chờ","Zone":"Quận Gò Vấp","Ward":null,"AddressNo":"930 (Kho 97)","Street":"Quang Trung","SupportDisability":"","Status":"Đang khai thác","Lng":106.650499,"Lat":10.838538,"Search":"DmPD 930(97) QT","Routes":"18, 24, 55"},{"StopId":2051,"Code":"QGV 165","Name":"Làng SOS","StopType":"Trụ dừng","Zone":"Quận Gò Vấp","Ward":null,"AddressNo":"1010","Street":"Quang Trung","SupportDisability":"","Status":"Đang khai thác","Lng":106.646508,"Lat":10.839929,"Search":"LS 1010 QT","Routes":"18, 24, 55"},{"StopId":2048,"Code":"QGV 166","Name":"Công ty Đồng Tâm","StopType":"Trụ dừng","Zone":"Quận Gò Vấp","Ward":null,"AddressNo":"1134","Street":"Quang Trung","SupportDisability":"","Status":"Đang khai thác","Lng":106.643322,"Lat":10.842273,"Search":"CtDT 1134 QT","Routes":"18, 24, 55"},{"StopId":2053,"Code":"QGV 167","Name":"Ngã tư Cầu cống","StopType":"Trụ dừng","Zone":"Quận Gò Vấp","Ward":null,"AddressNo":"1246","Street":"Quang Trung","SupportDisability":"","Status":"Đang khai thác","Lng":106.640747,"Lat":10.844007,"Search":"NtCc 1246 QT","Routes":"18, 24, 55"},{"StopId":2050,"Code":"QGV 168","Name":"Chợ Cầu","StopType":"Trụ dừng","Zone":"Quận Gò Vấp","Ward":null,"AddressNo":"1324","Street":"Quang Trung","SupportDisability":"","Status":"Đang khai thác","Lng":106.638488,"Lat":10.845514,"Search":"CC 1324 QT","Routes":"18, 24, 55"},{"StopId":2092,"Code":"Q12 060","Name":"Chợ Cầu","StopType":"Trụ dừng","Zone":"Quận 12","Ward":null,"AddressNo":"84A","Street":"Tô Ký","SupportDisability":"","Status":"Đang khai thác","Lng":106.634363,"Lat":10.848253,"Search":"CC 84A TK","Routes":"18, 24, 55, 62"},{"StopId":2052,"Code":"Q12 059","Name":"Cầu vượt Quang Trung","StopType":"Trụ dừng","Zone":"Quận 12","Ward":null,"AddressNo":"170","Street":"Tô Ký","SupportDisability":"","Status":"Đang khai thác","Lng":106.632185,"Lat":10.849823,"Search":"CvQT 170 TK","Routes":"18, 24, 55, 62"},{"StopId":3184,"Code":"BX36","Name":"Bến xe buýt Công viên phần mềm Quang Trung","StopType":"Bến xe","Zone":"Quận 12","Ward":null,"AddressNo":"BÃI XE CV PM QUANG TRUNG","Street":"Quốc lộ 1A","SupportDisability":"","Status":"Đang khai thác","Lng":106.63071,"Lat":10.852458,"Search":"BxbCvpmQT BXCPQT Ql1A","Routes":"55"}]