[{"StopId":3675,"Code":"BX 78","Name":"Bến xe buýt Cần Giờ","StopType":"Bến xe","Zone":"Huyện Cần Giờ","Ward":"Thị trấn Cần Thạnh","AddressNo":"BẾN XE BUÝT CẦN GIỜ","Street":"Đào Cử","SupportDisability":"","Status":"Đang khai thác","Lng":106.964441,"Lat":10.410474,"Search":"BxbCG BXBCG DC","Routes":"75, 77, 90"},{"StopId":3676,"Code":"HCG 025","Name":"Coop mart Đào Cử","StopType":"Nhà chờ","Zone":"Huyện Cần Giờ","Ward":"Thị trấn Cần Thạnh","AddressNo":"D/d Siêu thị Coop mart Đào Cử","Street":"Đào Cử","SupportDisability":"","Status":"Đang khai thác","Lng":106.96826,"Lat":10.412352,"Search":"CmDC DStCmDC DC","Routes":"75, 77, 90"},{"StopId":6912,"Code":"HCG 091","Name":"Lê Trọng Mân","StopType":"Ô sơn","Zone":"Huyện Cần Giờ","Ward":"Thị trấn Cần Thạnh","AddressNo":"1H","Street":"Đào Cử","SupportDisability":"","Status":"Đang khai thác","Lng":106.970862,"Lat":10.414114,"Search":"LTM 1H DC","Routes":"75, 77, 90"},{"StopId":6913,"Code":"HCG 092","Name":"Trường tiểu học Cần Thạnh","StopType":"Ô sơn","Zone":"Huyện Cần Giờ","Ward":"Thị trấn Cần Thạnh","AddressNo":"Trường tiểu học Cần Thạnh","Street":"Duyên Hải","SupportDisability":"","Status":"Đang khai thác","Lng":106.973163,"Lat":10.413486,"Search":"TthCT TthCT DH","Routes":"75, 77, 90"},{"StopId":6915,"Code":"HCG 094","Name":"Đặng Văn Kiều","StopType":"Ô sơn","Zone":"Huyện Cần Giờ","Ward":"Thị trấn Cần Thạnh","AddressNo":"Đối diện 161A","Street":"Duyên Hải","SupportDisability":"","Status":"Đang khai thác","Lng":106.970304,"Lat":10.409767,"Search":"DVK Dd161A DH","Routes":"75, 77, 90"},{"StopId":6917,"Code":"HCG 096","Name":"Bệnh viện huyện Cần Giờ (cũ)","StopType":"Ô sơn","Zone":"Huyện Cần Giờ","Ward":"Thị trấn Cần Thạnh","AddressNo":"Bệnh viện huyện Cần Giờ (cũ)","Street":"Duyên Hải","SupportDisability":"","Status":"Đang khai thác","Lng":106.965128,"Lat":10.407123,"Search":"BvhCG( BvhCG( DH","Routes":"75, 77, 90"},{"StopId":9423,"Code":"HCG 190","Name":"Duyên Hải","StopType":"Ô sơn","Zone":"Huyện Cần Giờ","Ward":"Thị trấn Cần Thạnh","AddressNo":"290/3","Street":"Duyên Hải","SupportDisability":"Có","Status":"Chưa khai thác","Lng":106.963259,"Lat":10.406061,"Search":"DH 290/3 DH","Routes":"77"},{"StopId":3677,"Code":"HCG 023","Name":"Ngã ba Lê Hùng Yên","StopType":"Nhà chờ","Zone":"Huyện Cần Giờ","Ward":null,"AddressNo":"Ngã ba Lê Hùng Yên - Duyên Hải","Street":"Duyên Hải","SupportDisability":"","Status":"Đang khai thác","Lng":106.958637,"Lat":10.403699,"Search":"NbLHY NbLHY-DH DH","Routes":"75, 77, 90"},{"StopId":6919,"Code":"HCG 098","Name":"Trung tâm BDCT Duyên Hải (cũ)","StopType":"Ô sơn","Zone":"Huyện Cần Giờ","Ward":"Thị trấn Cần Thạnh","AddressNo":"Đối diện TT BDCT Duyên Hải (cũ)","Street":"Duyên Hải","SupportDisability":"","Status":"Đang khai thác","Lng":106.95603,"Lat":10.40286,"Search":"TtBDH( DdTBDH( DH","Routes":"75, 77, 90"},{"StopId":6921,"Code":"HCG 100","Name":"Đối diện Đài liệt sỹ","StopType":"Ô sơn","Zone":"Huyện Cần Giờ","Ward":"Thị trấn Cần Thạnh","AddressNo":"Đối diện Đài liệt sỹ huyện Cần Giờ","Street":"Duyên Hải","SupportDisability":"","Status":"Đang khai thác","Lng":106.953498,"Lat":10.402496,"Search":"DdDls DdDlshCG DH","Routes":"75, 77, 90"},{"StopId":6923,"Code":"HCG 102","Name":"Trường THPT Cần Thạnh","StopType":"Ô sơn","Zone":"Huyện Cần Giờ","Ward":"Thị trấn Cần Thạnh","AddressNo":"Trường THPT Cần Thạnh","Street":"Duyên Hải","SupportDisability":"","Status":"Đang khai thác","Lng":106.948991,"Lat":10.402143,"Search":"TTCT TTCT DH","Routes":"75, 77, 90"},{"StopId":9394,"Code":"HCG 161","Name":"Đối diện trường THCS Cần Thạnh","StopType":"Ô sơn","Zone":"Huyện Cần Giờ","Ward":"Thị trấn Cần Thạnh","AddressNo":"Đối diện trường THCS Cần Thạnh","Street":"Giồng Cháy","SupportDisability":"Có","Status":"Chưa khai thác","Lng":106.947222,"Lat":10.406939,"Search":"DdtTCT DdtTCT GC","Routes":"77"},{"StopId":7675,"Code":"HCG 137","Name":"Bệnh viện Huyện Cần Giờ","StopType":"Nhà chờ","Zone":"Huyện Cần Giờ","Ward":"Thị trấn Cần Thạnh","AddressNo":"Đối diện BV huyện Cần Giờ","Street":"Lương Văn Nho","SupportDisability":"Có","Status":"Đang khai thác","Lng":106.937817,"Lat":10.405778,"Search":"BvHCG DdBhCG LVN","Routes":"77"},{"StopId":9393,"Code":"HCG 160","Name":"Trường Tiểu học Hòa Hiệp","StopType":"Ô sơn","Zone":"Huyện Cần Giờ","Ward":"Xã Long Hòa","AddressNo":"Trường Tiểu học Hòa Hiệp","Street":"Lương Văn Nho","SupportDisability":"Có","Status":"Chưa khai thác","Lng":106.929873,"Lat":10.404353,"Search":"TThHH TThHH LVN","Routes":"77"},{"StopId":9407,"Code":"HCG 176","Name":"Lương Văn Nho","StopType":"Ô sơn","Zone":"Huyện Cần Giờ","Ward":"Thị trấn Cần Thạnh","AddressNo":"Trụ điện T120P","Street":"Lương Văn Nho","SupportDisability":"Có","Status":"Chưa khai thác","Lng":106.923003,"Lat":10.402947,"Search":"LVN TdT LVN","Routes":"77"},{"StopId":3680,"Code":"HCG 019","Name":"Cây xăng Đức Thanh","StopType":"Nhà chờ","Zone":"Huyện Cần Giờ","Ward":null,"AddressNo":"Cây xăng Đức Thanh","Street":"Duyên Hải","SupportDisability":"","Status":"Đang khai thác","Lng":106.916596,"Lat":10.395326,"Search":"CxDT CxDT DH","Routes":"75, 77, 90"},{"StopId":3797,"Code":"HCG 026","Name":"Huy Hoàng","StopType":"Ô sơn","Zone":"Huyện Cần Giờ","Ward":null,"AddressNo":"1/13A","Street":"Duyên Hải","SupportDisability":"","Status":"Đang khai thác","Lng":106.91298,"Lat":10.394597,"Search":"HH 1/13A DH","Routes":"77"},{"StopId":3796,"Code":"HCG 027","Name":"Nhà văn hóa Long Thạnh","StopType":"Ô sơn","Zone":"Huyện Cần Giờ","Ward":null,"AddressNo":"Cột điện LH41","Street":"Duyên Hải","SupportDisability":"","Status":"Đang khai thác","Lng":106.911017,"Lat":10.392424,"Search":"NvhLT CdL DH","Routes":"77"},{"StopId":3799,"Code":"HCG 028","Name":"UBND xã Long Thạnh","StopType":"Ô sơn","Zone":"Huyện Cần Giờ","Ward":null,"AddressNo":"Đối diện 2/63","Street":"Duyên Hải","SupportDisability":"","Status":"Đang khai thác","Lng":106.911795,"Lat":10.39006,"Search":"UxLT Dd2/63 DH","Routes":"77"},{"StopId":3798,"Code":"HCG 029","Name":"Đình Long Thạnh","StopType":"Ô sơn","Zone":"Huyện Cần Giờ","Ward":null,"AddressNo":"2/84","Street":"Duyên Hải","SupportDisability":"","Status":"Đang khai thác","Lng":106.911451,"Lat":10.385754,"Search":"DLT 2/84 DH","Routes":"77"},{"StopId":3800,"Code":"HCG 030","Name":"Cánh buồm","StopType":"Ô sơn","Zone":"Huyện Cần Giờ","Ward":null,"AddressNo":"Cột điện LT1-423","Street":"Duyên Hải","SupportDisability":"","Status":"Đang khai thác","Lng":106.907444,"Lat":10.384388,"Search":"Cb CdL DH","Routes":"77"},{"StopId":9455,"Code":"HCG 222","Name":"Nghĩa trang Long Hòa","StopType":"Ô sơn","Zone":"Huyện Cần Giờ","Ward":"Xã Long Hòa","AddressNo":"Nghĩa trang Long Hòa","Street":"Duyên Hải","SupportDisability":"Có","Status":"Chưa khai thác","Lng":106.905529,"Lat":10.383526,"Search":"NtLH NtLH DH","Routes":"77"},{"StopId":9456,"Code":"HCG 223","Name":"Tạp Hóa Xuân Tùng","StopType":"Ô sơn","Zone":"Huyện Cần Giờ","Ward":"Xã Long Hòa","AddressNo":"Tạp Hóa Xuân Tùng","Street":"Duyên Hải","SupportDisability":"Có","Status":"Chưa khai thác","Lng":106.902677,"Lat":10.380983,"Search":"THXT THXT DH","Routes":"77"},{"StopId":3801,"Code":"HCG 031","Name":"Đình Ông Phước","StopType":"Ô sơn","Zone":"Huyện Cần Giờ","Ward":null,"AddressNo":"Đối diện Đình Ông Phước","Street":"Duyên Hải","SupportDisability":"","Status":"Đang khai thác","Lng":106.89431,"Lat":10.38082,"Search":"DOP DdDOP DH","Routes":"77"},{"StopId":9457,"Code":"HCG 224","Name":"Cửa hàng Ga Chẩy","StopType":"Ô sơn","Zone":"Huyện Cần Giờ","Ward":"Xã Long Hòa","AddressNo":"Cửa hàng Ga Chẩy","Street":"Duyên Hải","SupportDisability":"Có","Status":"Chưa khai thác","Lng":106.888701,"Lat":10.381967,"Search":"ChGC ChGC DH","Routes":"77"},{"StopId":3802,"Code":"HCG 032","Name":"Quán Cafê 207","StopType":"Ô sơn","Zone":"Huyện Cần Giờ","Ward":"Thị trấn Cần Thạnh","AddressNo":"Trường Đồng Hòa","Street":"Duyên Hải","SupportDisability":"","Status":"Đang khai thác","Lng":106.887022,"Lat":10.381132,"Search":"QC207 TDH DH","Routes":"77"},{"StopId":9408,"Code":"HCG 177","Name":"Duyên Hải","StopType":"Ô sơn","Zone":"Huyện Cần Giờ","Ward":"Xã Long Hòa","AddressNo":"Đối diện trụ điện T245T","Street":"Duyên Hải","SupportDisability":"Có","Status":"Chưa khai thác","Lng":106.884602,"Lat":10.379376,"Search":"DH DdtdT DH","Routes":"77"},{"StopId":3803,"Code":"HCG 033","Name":"Phương Nam","StopType":"Ô sơn","Zone":"Huyện Cần Giờ","Ward":"Thị trấn Cần Thạnh","AddressNo":"Đối diện Phương Nam Resort","Street":"Duyên Hải","SupportDisability":"","Status":"Đang khai thác","Lng":106.881421,"Lat":10.380425,"Search":"PN DdPNR DH","Routes":"77"},{"StopId":3771,"Code":"BX 83","Name":"Đình Đồng Hòa","StopType":"Bến xe","Zone":"Huyện Cần Giờ","Ward":null,"AddressNo":"ĐẦU BẾN ĐỒNG HÒA","Street":"Duyên Hải","SupportDisability":"","Status":"Đang khai thác","Lng":106.881126,"Lat":10.380525,"Search":"DDH DBDH DH","Routes":"77"}]