[{"StopId":7209,"Code":"BXLT Hau Nghia","Name":"Bến xe Hậu Nghĩa","StopType":"Bến xe","Zone":"Ngoại thành","Ward":null,"AddressNo":"Bến xe Hậu Nghĩa","Street":"3 tháng 2","SupportDisability":"Có","Status":"Đang khai thác","Lng":106.393039,"Lat":10.900982,"Search":"BxHN BxHN 3t2","Routes":"62-3, 62-5, 62-6"},{"StopId":3928,"Code":"HCC 203","Name":"Cầu Thầy Cai","StopType":"Trụ dừng","Zone":"Huyện Củ Chi","Ward":null,"AddressNo":"34","Street":"Tỉnh lộ 8","SupportDisability":"Có","Status":"Đang khai thác","Lng":106.455304,"Lat":10.943862,"Search":"CTC 34 Tl8","Routes":"62-3"},{"StopId":3930,"Code":"HCC 204","Name":"Công ty Kim Tường","StopType":"Trụ dừng","Zone":"Huyện Củ Chi","Ward":null,"AddressNo":"122 (Đối diện 83)","Street":"Tỉnh lộ 8","SupportDisability":"Có","Status":"Đang khai thác","Lng":106.459558,"Lat":10.948139,"Search":"CtKT 122(d83) Tl8","Routes":"62-3"},{"StopId":3929,"Code":"HCC 205","Name":"Trạm cấp nước","StopType":"Trụ dừng","Zone":"Huyện Củ Chi","Ward":null,"AddressNo":"178","Street":"Tỉnh lộ 8","SupportDisability":"Có","Status":"Đang khai thác","Lng":106.465614,"Lat":10.954522,"Search":"Tcn 178 Tl8","Routes":"62-3"},{"StopId":3925,"Code":"HCC 206","Name":"cafe Giọt Đắng","StopType":"Trụ dừng","Zone":"Huyện Củ Chi","Ward":null,"AddressNo":"256","Street":"Tỉnh lộ 8","SupportDisability":"Có","Status":"Đang khai thác","Lng":106.469085,"Lat":10.958082,"Search":"cGD 256 Tl8","Routes":"62-3"},{"StopId":3926,"Code":"HCC 207","Name":"UBND xã Tân An Hội","StopType":"Ô sơn","Zone":"Huyện Củ Chi","Ward":null,"AddressNo":"336","Street":"Tỉnh lộ 8","SupportDisability":"","Status":"Đang khai thác","Lng":106.472449,"Lat":10.961442,"Search":"UxTAH 336 Tl8","Routes":"62-3"},{"StopId":3927,"Code":"HCC 208","Name":"Cây xăng Tài Lộc 18","StopType":"Ô sơn","Zone":"Huyện Củ Chi","Ward":null,"AddressNo":"374","Street":"Tỉnh lộ 8","SupportDisability":"","Status":"Đang khai thác","Lng":106.475614,"Lat":10.961047,"Search":"CxTL18 374 Tl8","Routes":"62-3"},{"StopId":3932,"Code":"HCC 209","Name":"Nhà hàng Xuân Anh","StopType":"Trụ dừng","Zone":"Huyện Củ Chi","Ward":null,"AddressNo":"79","Street":"Tỉnh lộ 8","SupportDisability":"Có","Status":"Đang khai thác","Lng":106.482244,"Lat":10.962101,"Search":"NhXA 79 Tl8","Routes":"62-3"},{"StopId":3931,"Code":"HCC 210","Name":"Công an huyện Củ Chi","StopType":"Trụ dừng","Zone":"Huyện Củ Chi","Ward":null,"AddressNo":"532","Street":"Tỉnh lộ 8","SupportDisability":"Có","Status":"Đang khai thác","Lng":106.485275,"Lat":10.966082,"Search":"CahCC 532 Tl8","Routes":"62-3"},{"StopId":732,"Code":"BX 63","Name":"Bến xe Củ Chi","StopType":"Bến xe","Zone":"Huyện Củ Chi","Ward":null,"AddressNo":"Bến xe Củ Chi","Street":"Quốc lộ 22","SupportDisability":"","Status":"Đang khai thác","Lng":106.482099,"Lat":10.971617,"Search":"BxCC BxCC Ql22","Routes":"100, 107, 126, 13, 62-3, 70-1, 70-2, 74, 79, 87, 94"}]