[{"StopId":8244,"Code":"COVT","Name":"Co.opmart Vũng Tàu","StopType":"Bến xe","Zone":"Bà Rịa - Vũng Tàu","Ward":null,"AddressNo":"36","Street":"Nguyễn Thái Học","SupportDisability":"Có","Status":"Đang khai thác","Lng":107.085347,"Lat":10.367141,"Search":"CVT 36 NTH","Routes":"DRCB, VT"},{"StopId":8253,"Code":"VT DRCB01 001","Name":"CO.OP MART VŨNG TÀU","StopType":"Ô sơn","Zone":"Bà Rịa - Vũng Tàu","Ward":null,"AddressNo":"CO.OP MART VŨNG TÀU","Street":"Nguyễn An Ninh","SupportDisability":"Có","Status":"Đang khai thác","Lng":107.086209,"Lat":10.367196,"Search":"CMVT CMVT NAN","Routes":"DRCB, VT"},{"StopId":8254,"Code":"VT DRCB01 002","Name":"Chung cư Gateway","StopType":"Ô sơn","Zone":"Bà Rịa - Vũng Tàu","Ward":null,"AddressNo":"Chung cư Gateway","Street":"Nguyễn Hữu Cảnh","SupportDisability":"Có","Status":"Đang khai thác","Lng":107.112996,"Lat":10.376304,"Search":"CcG CcG NHC","Routes":"DRCB, VT"},{"StopId":8252,"Code":"VT DRCB01 003","Name":"Trung Tâm Hành Chính BR-VT","StopType":"Ô sơn","Zone":"Bà Rịa - Vũng Tàu","Ward":null,"AddressNo":"Trung Tâm Hành Chính BR-VT","Street":"Bạch Đằng","SupportDisability":"Có","Status":"Đang khai thác","Lng":107.179956,"Lat":10.490352,"Search":"TTHCB TTHCB BD","Routes":"DRCB, VT"},{"StopId":35,"Code":"BX 01","Name":"Bến xe buýt Sài Gòn","StopType":"Bến xe","Zone":"Quận 1","Ward":"Phường Phạm Ngũ Lão","AddressNo":"BẾN XE BUÝT SÀI GÒN","Street":"Lê Lai","SupportDisability":"Có","Status":"Đang khai thác","Lng":106.689362,"Lat":10.767676,"Search":"BxbSG BXBSG LL","Routes":"03, 04, 102, 109, 13, 140, 18, 19, 20, 27, 28, 34, 36, 39, 52, 65, 69, 72, 75, 86, 88, 93, D4, DL03, DL04, DRCB, BD, DRCB, VT"}]