[{"StopId":35,"Code":"BX 01","Name":"Bến xe buýt Sài Gòn","StopType":"Bến xe","Zone":"Quận 1","Ward":"Phường Phạm Ngũ Lão","AddressNo":"BẾN XE BUÝT SÀI GÒN","Street":"Lê Lai","SupportDisability":"Có","Status":"Đang khai thác","Lng":106.689362,"Lat":10.767676,"Search":"BxbSG BXBSG LL","Routes":"03, 04, 102, 109, 13, 140, 18, 19, 20, 27, 28, 34, 36, 39, 52, 65, 69, 72, 75, 86, 88, 93, D4, DL03, DL04, DRCB, BD, DRCB, VT"},{"StopId":7276,"Code":"Q1 190","Name":"Tôn Thất Tùng","StopType":"Trụ dừng","Zone":"Quận 1","Ward":"Phường Phạm Ngũ Lão","AddressNo":"277-279-275Y","Street":"Phạm Ngũ Lão","SupportDisability":"Có","Status":"Đang khai thác","Lng":106.690941,"Lat":10.76767,"Search":"TTT 277-279-275Y PNL","Routes":"03, 04, 102, 109, 13, 140, 156V, 18, 19, 20, 28, 34, 36, 39, 46, 52, 65, 69, 72, 72-2B, 75, 86, 88, 93, D4"},{"StopId":7277,"Code":"Q1 191","Name":"Nguyễn Thị Nghĩa","StopType":"Trụ dừng","Zone":"Quận 1","Ward":"Phường Phạm Ngũ Lão","AddressNo":"187","Street":"Phạm Ngũ Lão","SupportDisability":"Có","Status":"Đang khai thác","Lng":106.693699,"Lat":10.768788,"Search":"NTN 187 PNL","Routes":"03, 04, 102, 109, 13, 140, 156V, 18, 19, 20, 28, 34, 36, 39, 46, 52, 65, 69, 72, 72-2B, 93, D4, DL01, DL02"},{"StopId":7278,"Code":"Q1 192","Name":"Trường Emst Thalmann","StopType":"Nhà chờ","Zone":"Quận 1","Ward":"Phường Phạm Ngũ Lão","AddressNo":"Trường Emst Thalmann","Street":"Phạm Ngũ Lão","SupportDisability":"Có","Status":"Đang khai thác","Lng":106.695587,"Lat":10.769504,"Search":"TET TET PNL","Routes":"03, 04, 109, 13, 156V, 18, 19, 20, 28, 34, 36, 39, 52, 65, 69, 72-2B, 93, D4"},{"StopId":7264,"Code":"Q1 178","Name":"Trạm Trung chuyển trên đường Hàm Nghi","StopType":"Nhà chờ","Zone":"Quận 1","Ward":"Phường Nguyễn Thái Bình","AddressNo":"Hàm nghi 3","Street":"Hàm Nghi","SupportDisability":"Có","Status":"Đang khai thác","Lng":106.700758,"Lat":10.770985,"Search":"TTctdHN Hn3 HN","Routes":"18, 31, 36, 44, 65"},{"StopId":7693,"Code":"Q1 1950","Name":"Nam Kỳ Khởi Nghĩa","StopType":"Nhà chờ","Zone":"Quận 1","Ward":"Phường Nguyễn Thái Bình","AddressNo":"93-95","Street":"Hàm Nghi","SupportDisability":"Có","Status":"Đang khai thác","Lng":106.701354,"Lat":10.770875,"Search":"NKKN 93-95 HN","Routes":"01, 03, 04, 109, 152, 18, 19, 20, 31, 36, 45, 52, 53, 56, 75, 88, 93"},{"StopId":1256,"Code":"Q1 195","Name":"Chợ Cũ","StopType":"Nhà chờ","Zone":"Quận 1","Ward":"Phường Nguyễn Thái Bình","AddressNo":"89A","Street":"Hàm Nghi","SupportDisability":"","Status":"Đang khai thác","Lng":106.701998,"Lat":10.770811,"Search":"CC 89A HN","Routes":"01, 03, 04, 109, 152, 18, 19, 20, 31, 36, 45, 52, 53, 56, 75, 86, 88, 93"},{"StopId":4271,"Code":"Q1 078","Name":"Đền Thờ Ấn Giáo, Pasteur","StopType":"Nhà chờ","Zone":"Quận 1","Ward":null,"AddressNo":"Đền Thờ Ấn Giáo","Street":"Pasteur","SupportDisability":"","Status":"Đang khai thác","Lng":106.70139,"Lat":10.773595,"Search":"DTAGP DTAG P","Routes":"04, 109, 152, 155, 18, 31, 36, 52, 93, DRCB, BD"},{"StopId":2724,"Code":"Q1 079","Name":"Lê Thánh Tôn","StopType":"Trụ dừng","Zone":"Quận 1","Ward":null,"AddressNo":"144","Street":"Pasteur","SupportDisability":"","Status":"Đang khai thác","Lng":106.700768,"Lat":10.775088,"Search":"LTT 144 P","Routes":"04, 109, 152, 155, 18, 31, 36, 52, 93, DRCB, BD"},{"StopId":4272,"Code":"Q1 080","Name":"Lý Tự Trọng","StopType":"Nhà chờ","Zone":"Quận 1","Ward":"Phường Bến Nghé","AddressNo":"158D","Street":"Pasteur","SupportDisability":"","Status":"Đang khai thác","Lng":106.699657,"Lat":10.777089,"Search":"LTT 158D P","Routes":"04, 109, 152, 18, 31, 36, 52, 72-2B, 93, DRCB, BD"},{"StopId":4273,"Code":"Q1 081","Name":"Lê Duẫn","StopType":"Trụ dừng","Zone":"Quận 1","Ward":null,"AddressNo":"178","Street":"Pasteur","SupportDisability":"","Status":"Đang khai thác","Lng":106.698333,"Lat":10.778307999999999,"Search":"LD 178 P","Routes":"04, 109, 152, 18, 31, 36, 52, 72-2B, 93"},{"StopId":7721,"Code":"H07_02","Name":"Nhà Văn Hóa Thanh Niên","StopType":"Nhà chờ","Zone":"Quận 1","Ward":"Phường Bến Nghé","AddressNo":"1","Street":"Phạm Ngọc Thạch","SupportDisability":"Có","Status":"Chưa khai thác","Lng":106.697229,"Lat":10.781493,"Search":"NVHTN 1 PNT","Routes":"30, 36, 52"},{"StopId":2704,"Code":"Q3 116","Name":"Nhà Văn Hóa Thanh Niên","StopType":"Trụ dừng","Zone":"Quận 3","Ward":null,"AddressNo":"6B-8","Street":"Phạm Ngọc Thạch","SupportDisability":"","Status":"Đang khai thác","Lng":106.696874,"Lat":10.781862,"Search":"NVHTN 6B-8 PNT","Routes":"30, 36, 52"},{"StopId":2706,"Code":"Q3 076","Name":"Đại học Kinh tế","StopType":"Trụ dừng","Zone":"Quận 3","Ward":null,"AddressNo":"18Bis","Street":"Phạm Ngọc Thạch","SupportDisability":"","Status":"Đang khai thác","Lng":106.694573,"Lat":10.784012,"Search":"DhKt 18Bis PNT","Routes":"30, 36"},{"StopId":2707,"Code":"Q3 077","Name":"Điện Biên Phủ","StopType":"Trụ dừng","Zone":"Quận 3","Ward":null,"AddressNo":"42","Street":"Phạm Ngọc Thạch","SupportDisability":"","Status":"Đang khai thác","Lng":106.69335,"Lat":10.78514,"Search":"DBP 42 PNT","Routes":"30, 36"},{"StopId":43,"Code":"Q1 062","Name":"Công viên Lê Văn Tám","StopType":"Nhà chờ","Zone":"Quận 1","Ward":null,"AddressNo":"Đối diện 245","Street":"Hai Bà Trưng","SupportDisability":"","Status":"Đang khai thác","Lng":106.692599,"Lat":10.787427,"Search":"CvLVT Dd245 HBT","Routes":"03, 31, 36"},{"StopId":46,"Code":"Q1 063","Name":"Nhà thờ Tân Định","StopType":"Trụ dừng","Zone":"Quận 1","Ward":null,"AddressNo":"298","Street":"Hai Bà Trưng","SupportDisability":"","Status":"Đang khai thác","Lng":106.690399,"Lat":10.789215,"Search":"NtTD 298 HBT","Routes":"03, 31, 36"},{"StopId":47,"Code":"Q1 064","Name":"Chợ Tân Định","StopType":"Trụ dừng","Zone":"Quận 1","Ward":null,"AddressNo":"372-374","Street":"Hai Bà Trưng","SupportDisability":"","Status":"Đang khai thác","Lng":106.688843,"Lat":10.790456,"Search":"CTD 372-374 HBT","Routes":"03, 31, 36"},{"StopId":2728,"Code":"Q1 071","Name":"Bà Lê Chân","StopType":"Ô sơn","Zone":"Quận 1","Ward":null,"AddressNo":"151Bis","Street":"Trần Quang Khải","SupportDisability":"","Status":"Đang khai thác","Lng":106.690231,"Lat":10.79162,"Search":"BLC 151Bis TQK","Routes":"31, 36"},{"StopId":2726,"Code":"Q1 072","Name":"Chợ Dakao","StopType":"Trụ dừng","Zone":"Quận 1","Ward":null,"AddressNo":"45-47","Street":"Trần Quang Khải","SupportDisability":"","Status":"Đang khai thác","Lng":106.694878,"Lat":10.79239,"Search":"CD 45-47 TQK","Routes":"31, 36"},{"StopId":2033,"Code":"QBTH 043","Name":"Cầu Bông","StopType":"Trụ dừng","Zone":"Quận Bình Thạnh","Ward":null,"AddressNo":"96","Street":"Lê Văn Duyệt","SupportDisability":"","Status":"Đang khai thác","Lng":106.696225,"Lat":10.796032,"Search":"CB 96 LVD","Routes":"18, 31, 36, 91"},{"StopId":2727,"Code":"QBTH 044","Name":"Bệnh viện Bình Thạnh","StopType":"Nhà chờ","Zone":"Quận Bình Thạnh","Ward":null,"AddressNo":"114","Street":"Lê Văn Duyệt","SupportDisability":"","Status":"Đang khai thác","Lng":106.696419,"Lat":10.79864,"Search":"BvBT 114 LVD","Routes":"18, 31, 36, 91"},{"StopId":2109,"Code":"QBTH 045","Name":"Lăng Ông Bà Chiểu","StopType":"Nhà chờ","Zone":"Quận Bình Thạnh","Ward":null,"AddressNo":"Đối diện 129","Street":"Lê Văn Duyệt","SupportDisability":"","Status":"Đang khai thác","Lng":106.696579,"Lat":10.80107,"Search":"LOBC Dd129 LVD","Routes":"18, 31, 36, 91"},{"StopId":591,"Code":"QBTH 115","Name":"UBND Quận Bình Thạnh","StopType":"Trụ dừng","Zone":"Quận Bình Thạnh","Ward":"Phường 14","AddressNo":"6-8","Street":"Phan Đăng Lưu","SupportDisability":"","Status":"Đang khai thác","Lng":106.695786,"Lat":10.802819,"Search":"UQBT 6-8 PDL","Routes":"08, 104, 18, 31, 36, 55, 91"},{"StopId":2039,"Code":"QBTH 097","Name":"Bệnh Viện Gia Định","StopType":"Nhà chờ","Zone":"Quận Bình Thạnh","Ward":null,"AddressNo":"2","Street":"Nơ Trang Long","SupportDisability":"","Status":"Đang khai thác","Lng":106.695013,"Lat":10.803488,"Search":"BVGD 2 NTL","Routes":"146, 18, 31, 36, 64, 91"},{"StopId":2035,"Code":"QBTH 098","Name":"Hồ bơi Đại Đồng","StopType":"Trụ dừng","Zone":"Quận Bình Thạnh","Ward":null,"AddressNo":"48","Street":"Nơ Trang Long","SupportDisability":"","Status":"Đang khai thác","Lng":106.695131,"Lat":10.806355,"Search":"HbDD 48 NTL","Routes":"18, 31, 36, 64"},{"StopId":1650,"Code":"QBTH 099","Name":"Nhà thờ Bình Hòa","StopType":"Trụ dừng","Zone":"Quận Bình Thạnh","Ward":null,"AddressNo":"124","Street":"Nơ Trang Long","SupportDisability":"","Status":"Đang khai thác","Lng":106.695185,"Lat":10.809674,"Search":"NtBH 124 NTL","Routes":"31, 36, 64"},{"StopId":1654,"Code":"QBTH 118","Name":"Chợ Phan Văn Trị","StopType":"Trụ dừng","Zone":"Quận Bình Thạnh","Ward":null,"AddressNo":"186B","Street":"Phan Văn Trị","SupportDisability":"","Status":"Đang khai thác","Lng":106.695335,"Lat":10.812493,"Search":"CPVT 186B PVT","Routes":"161, 36"},{"StopId":1652,"Code":"QBTH 119","Name":"Chùa Giác Quang","StopType":"Trụ dừng","Zone":"Quận Bình Thạnh","Ward":"Phường 11","AddressNo":"342","Street":"Phan Văn Trị","SupportDisability":"","Status":"Đang khai thác","Lng":106.694595,"Lat":10.819544,"Search":"CGQ 342 PVT","Routes":"161, 36"},{"StopId":539,"Code":"QGV 001","Name":"Bãi hậu cần số 1","StopType":"Trụ dừng","Zone":"Quận Gò Vấp","Ward":null,"AddressNo":"Đối diện 439","Street":"Phan Văn Trị","SupportDisability":"","Status":"Đang khai thác","Lng":106.69195,"Lat":10.823964,"Search":"Bhcs1 Dd439 PVT","Routes":"07, 148, 161, 36"},{"StopId":2729,"Code":"QGV 002","Name":"Vincom Plaza","StopType":"Trụ dừng","Zone":"Quận Gò Vấp","Ward":null,"AddressNo":"12","Street":"Phan Văn Trị","SupportDisability":"","Status":"Đang khai thác","Lng":106.688409,"Lat":10.827184,"Search":"VP 12 PVT","Routes":"146, 161, 36"},{"StopId":2731,"Code":"QGV 003","Name":"PCCC Quận Gò Vấp","StopType":"Trụ dừng","Zone":"Quận Gò Vấp","Ward":null,"AddressNo":"B2 - 15-17","Street":"Phan Văn Trị","SupportDisability":"","Status":"Đang khai thác","Lng":106.684976,"Lat":10.828496,"Search":"PQGV B-15-17 PVT","Routes":"146, 161, 36"},{"StopId":2730,"Code":"QGV 004","Name":"Coop Mart","StopType":"Trụ dừng","Zone":"Quận Gò Vấp","Ward":null,"AddressNo":"30D","Street":"Phan Văn Trị","SupportDisability":"","Status":"Đang khai thác","Lng":106.681516,"Lat":10.829644,"Search":"CM 30D PVT","Routes":"36"},{"StopId":2733,"Code":"QGV 005","Name":"Cây xăng Petrolimex","StopType":"Trụ dừng","Zone":"Quận Gò Vấp","Ward":null,"AddressNo":"596","Street":"Phan Văn Trị","SupportDisability":"","Status":"Đang khai thác","Lng":106.679167,"Lat":10.830403,"Search":"CxP 596 PVT","Routes":"36"},{"StopId":2732,"Code":"QGV 006","Name":"Nhà máy Z751","StopType":"Trụ dừng","Zone":"Quận Gò Vấp","Ward":null,"AddressNo":"2A","Street":"Phan Văn Trị","SupportDisability":"","Status":"Đang khai thác","Lng":106.675454,"Lat":10.831694,"Search":"NmZ 2A PVT","Routes":"36"},{"StopId":2734,"Code":"QGV 007","Name":"Nhà khách Phía Nam","StopType":"Trụ dừng","Zone":"Quận Gò Vấp","Ward":null,"AddressNo":"670 (18A)","Street":"Phan Văn Trị","SupportDisability":"","Status":"Đang khai thác","Lng":106.672697,"Lat":10.832679,"Search":"NkPN 670( PVT","Routes":"36"},{"StopId":2737,"Code":"QGV 008","Name":"Country House","StopType":"Trụ dừng","Zone":"Quận Gò Vấp","Ward":null,"AddressNo":"Đối diện 1287","Street":"Phan Văn Trị","SupportDisability":"","Status":"Đang khai thác","Lng":106.669881,"Lat":10.833717,"Search":"CH Dd1287 PVT","Routes":"36"},{"StopId":2735,"Code":"QGV 009","Name":"Chợ Thông Tây","StopType":"Trụ dừng","Zone":"Quận Gò Vấp","Ward":null,"AddressNo":"676","Street":"Phan Văn Trị","SupportDisability":"","Status":"Đang khai thác","Lng":106.666469,"Lat":10.83495,"Search":"CTT 676 PVT","Routes":"36"},{"StopId":2738,"Code":"QGV 020","Name":"Chợ Thông Tây","StopType":"Trụ dừng","Zone":"Quận Gò Vấp","Ward":null,"AddressNo":"214","Street":"Thống Nhất","SupportDisability":"","Status":"Đang khai thác","Lng":106.664736,"Lat":10.835793,"Search":"CTT 214 TN","Routes":"36"},{"StopId":2736,"Code":"QGV 021","Name":"Ngã ba Nguyễn Văn Lượng","StopType":"Trụ dừng","Zone":"Quận Gò Vấp","Ward":null,"AddressNo":"308","Street":"Thống Nhất","SupportDisability":"","Status":"Đang khai thác","Lng":106.66523,"Lat":10.838159,"Search":"NbNVL 308 TN","Routes":"36"},{"StopId":4744,"Code":"QGV 022","Name":"UBND Phường 16","StopType":"Trụ dừng","Zone":"Quận Gò Vấp","Ward":"Phường 16","AddressNo":"328","Street":"Thống Nhất","SupportDisability":"Có","Status":"Đang khai thác","Lng":106.664811,"Lat":10.842126,"Search":"UP16 328 TN","Routes":"146, 36"},{"StopId":2741,"Code":"QGV 023","Name":"Trường Đại học Hồng Bàng","StopType":"Trụ dừng","Zone":"Quận Gò Vấp","Ward":null,"AddressNo":"452","Street":"Thống Nhất","SupportDisability":"","Status":"Đang khai thác","Lng":106.664833,"Lat":10.845503,"Search":"TDhHB 452 TN","Routes":"146, 36"},{"StopId":4726,"Code":"QGV 024","Name":"Chùa Tiên Long","StopType":"Ô sơn","Zone":"Quận Gò Vấp","Ward":"Phường 16","AddressNo":"540","Street":"Thống Nhất","SupportDisability":"Có","Status":"Đang khai thác","Lng":106.66465,"Lat":10.847995,"Search":"CTL 540 TN","Routes":"146, 36"},{"StopId":2632,"Code":"QGV 025","Name":"Nhà Thờ Hà Nội","StopType":"Trụ dừng","Zone":"Quận Gò Vấp","Ward":null,"AddressNo":"716","Street":"Thống Nhất","SupportDisability":"","Status":"Đang khai thác","Lng":106.665316,"Lat":10.851836,"Search":"NTHN 716 TN","Routes":"146, 32, 36"},{"StopId":2633,"Code":"QGV 075","Name":"Nhà thờ Hợp An","StopType":"Trụ dừng","Zone":"Quận Gò Vấp","Ward":null,"AddressNo":"671","Street":"Phạm Văn Chiêu","SupportDisability":"","Status":"Đang khai thác","Lng":106.66435,"Lat":10.853848,"Search":"NtHA 671 PVC","Routes":"32, 36"},{"StopId":4738,"Code":"QGV 076","Name":"Trường Lê Thị Hồng Gấm","StopType":"Trụ dừng","Zone":"Quận Gò Vấp","Ward":"Phường 13","AddressNo":"545","Street":"Phạm Văn Chiêu","SupportDisability":"Có","Status":"Đang khai thác","Lng":106.661893,"Lat":10.852969,"Search":"TLTHG 545 PVC","Routes":"32, 36"},{"StopId":2743,"Code":"QGV 059","Name":"Cầu Cụt","StopType":"Trụ dừng","Zone":"Quận Gò Vấp","Ward":null,"AddressNo":"1370","Street":"Lê Đức Thọ","SupportDisability":"","Status":"Đang khai thác","Lng":106.656711,"Lat":10.854575,"Search":"CC 1370 LDT","Routes":"36"},{"StopId":2742,"Code":"QGV 060","Name":"Nhà thờ Nữ Vương Hòa Bình","StopType":"Trụ dừng","Zone":"Quận Gò Vấp","Ward":null,"AddressNo":"1410 (408)","Street":"Lê Đức Thọ","SupportDisability":"","Status":"Đang khai thác","Lng":106.654528,"Lat":10.856419,"Search":"NtNVHB 1410( LDT","Routes":"103, 36"},{"StopId":1670,"Code":"Q12 001","Name":"Metro Hiệp Phú","StopType":"Trụ dừng","Zone":"Quận 12","Ward":null,"AddressNo":"48","Street":"Lê Văn Khương","SupportDisability":"","Status":"Đang khai thác","Lng":106.649705,"Lat":10.863711,"Search":"MHP 48 LVK","Routes":"36, 62"},{"StopId":1669,"Code":"Q12 002","Name":"Công ty Bia Tiger","StopType":"Trụ dừng","Zone":"Quận 12","Ward":null,"AddressNo":"Công ty Bia Tiger","Street":"Lê Văn Khương","SupportDisability":"","Status":"Đang khai thác","Lng":106.649555,"Lat":10.868094,"Search":"CtBT CtBT LVK","Routes":"36, 62"},{"StopId":1674,"Code":"Q12 003","Name":"Bảo hiểm xã hội Quận 12","StopType":"Trụ dừng","Zone":"Quận 12","Ward":null,"AddressNo":"270","Street":"Lê Văn Khương","SupportDisability":"","Status":"Đang khai thác","Lng":106.649335,"Lat":10.872066,"Search":"BhxhQ12 270 LVK","Routes":"36, 62"},{"StopId":1671,"Code":"Q12 004","Name":"UBND Phường Thới An","StopType":"Trụ dừng","Zone":"Quận 12","Ward":null,"AddressNo":"UBND Phường Thới An","Street":"Lê Văn Khương","SupportDisability":"","Status":"Đang khai thác","Lng":106.649185,"Lat":10.875195,"Search":"UPTA UPTA LVK","Routes":"36, 62"},{"StopId":2745,"Code":"BX35","Name":"Bến xe buýt Thới An","StopType":"Bến xe","Zone":"Quận 12","Ward":null,"AddressNo":"BẾN XE BUÝT THỚI AN","Street":"Lê Văn Khương","SupportDisability":"","Status":"Đang khai thác","Lng":106.64798,"Lat":10.878467,"Search":"BxbTA BXBTA LVK","Routes":"36, 62, 78"}]