[{"StopId":7280,"Code":"BXLT Phu Tuc","Name":"Bến xe Phú Túc","StopType":"Bến xe","Zone":"Ngoại thành","Ward":null,"AddressNo":"Bến xe Phú Túc","Street":"Quốc lộ 20","SupportDisability":"Có","Status":"Đang khai thác","Lng":107.217992,"Lat":11.09212,"Search":"BxPT BxPT Ql20","Routes":"60-2"},{"StopId":7700,"Code":"Q9 286","Name":"Chung Cư Samsora Riverside","StopType":"Trụ dừng","Zone":"TP. Thủ Đức - KV2","Ward":null,"AddressNo":"Vườn kiểng Mai Vàng (đ/d 254/10)","Street":"Quốc Lộ 1","SupportDisability":"Có","Status":"Đang khai thác","Lng":106.833655,"Lat":10.899661,"Search":"CCSR VkMV(254/10) QL1","Routes":"60-1, 60-2, 60-3, 60-7"},{"StopId":1186,"Code":"Q9 230","Name":"Công ty TNHH Thuận Thành Tâm","StopType":"Trụ dừng","Zone":"TP. Thủ Đức - KV2","Ward":null,"AddressNo":"Công ty TNHH Thuận Thành Tâm","Street":"Quốc lộ 1","SupportDisability":"","Status":"Đang khai thác","Lng":106.822804,"Lat":10.892685,"Search":"CtTTTT CtTTTT Ql1","Routes":"60-1, 60-2, 60-3, 60-7"},{"StopId":1188,"Code":"Q9 231","Name":"Công ty Dosan","StopType":"Trụ dừng","Zone":"TP. Thủ Đức - KV2","Ward":null,"AddressNo":"Công ty Dosan","Street":"Quốc lộ 1","SupportDisability":"","Status":"Đang khai thác","Lng":106.820047,"Lat":10.888961,"Search":"CtD CtD Ql1","Routes":"60-1, 60-2, 60-3, 60-7"},{"StopId":1187,"Code":"Q9 232","Name":"Công ty Cp Đức Khải","StopType":"Trụ dừng","Zone":"TP. Thủ Đức - KV2","Ward":null,"AddressNo":"Công ty Cp Đức Khải","Street":"Quốc lộ 1","SupportDisability":"","Status":"Đang khai thác","Lng":106.812918,"Lat":10.879241,"Search":"CtCDK CtCDK Ql1","Routes":"60-1, 60-2, 60-3, 60-7"},{"StopId":572,"Code":"QTD 175","Name":"Đại học An Ninh Nhân Dân","StopType":"Trụ dừng","Zone":"TP. Thủ Đức - KV3","Ward":null,"AddressNo":"Nhà máy Tiến Thành","Street":"Quốc lộ 1","SupportDisability":"","Status":"Đang khai thác","Lng":106.806657,"Lat":10.871402,"Search":"DhANND NmTT Ql1","Routes":"08, 10, 150, 164V, 166, 19, 33, 53, 60-1, 60-2, 60-3, 60-7, 61-9, 67, 99"},{"StopId":576,"Code":"QTD 176","Name":"Trường giáo dục Quốc phòng","StopType":"Trụ dừng","Zone":"TP. Thủ Đức - KV3","Ward":null,"AddressNo":"Trường giáo dục Quốc phòng","Street":"Quốc lộ 1","SupportDisability":"","Status":"Đang khai thác","Lng":106.804727,"Lat":10.869172,"Search":"TgdQp TgdQp Ql1","Routes":"08, 10, 150, 164V, 166, 19, 33, 53, 60-2, 60-3, 60-7, 61-9, 67, 99"},{"StopId":574,"Code":"QTD 177","Name":"Khu DL Suối Tiên","StopType":"Nhà chờ","Zone":"TP. Thủ Đức - KV3","Ward":"Phường Linh Trung","AddressNo":"9/29","Street":"Quốc lộ 1","SupportDisability":"","Status":"Đang khai thác","Lng":106.801116,"Lat":10.86605,"Search":"KDST 9/29 Ql1","Routes":"08, 10, 150, 19, 33, 53, 60-1, 60-2, 60-3, 60-7, 61-9, 67, 76, 93, 99"},{"StopId":2145,"Code":"QTD 179","Name":"Thảo Nguyên","StopType":"Trụ dừng","Zone":"TP. Thủ Đức - KV3","Ward":"Phường Linh Trung","AddressNo":"35B","Street":"Quốc lộ 1","SupportDisability":"","Status":"Đang khai thác","Lng":106.793938,"Lat":10.865335,"Search":"TN 35B Ql1","Routes":"164V, 19, 33, 50, 52, 53, 60-1, 60-2, 61-9, 93"},{"StopId":500,"Code":"QTD 180","Name":"Đại học Nông Lâm","StopType":"Trụ dừng","Zone":"TP. Thủ Đức - KV3","Ward":"Phường Linh Trung","AddressNo":"85 (Đối diện 1026-1028)","Street":"Quốc lộ 1","SupportDisability":"","Status":"Đang khai thác","Lng":106.791101,"Lat":10.866961,"Search":"DhNL 85(d1026-1028) Ql1","Routes":"06, 164D, 164V, 19, 33, 50, 52, 53, 60-1, 60-2, 61-9, 93"},{"StopId":394,"Code":"BX73","Name":"BẾN XE BUÝT ĐẠI HỌC NÔNG LÂM","StopType":"Bến xe","Zone":"TP. Thủ Đức - KV3","Ward":null,"AddressNo":"Bến xe buýt ĐH Nông Lâm","Street":"Quốc lộ 1","SupportDisability":"","Status":"Đang khai thác","Lng":106.787445,"Lat":10.868183,"Search":"BXBDHNL BxbDNL Ql1","Routes":"06, 164D, 164V, 165, 167D, 167V, 60-2, 89"}]