[{"StopId":394,"Code":"BX73","Name":"BẾN XE BUÝT ĐẠI HỌC NÔNG LÂM","StopType":"Bến xe","Zone":"TP. Thủ Đức - KV3","Ward":null,"AddressNo":"Bến xe buýt ĐH Nông Lâm","Street":"Quốc lộ 1","SupportDisability":"","Status":"Đang khai thác","Lng":106.787445,"Lat":10.868183,"Search":"BXBDHNL BxbDNL Ql1","Routes":"06, 164D, 164V, 165, 167D, 167V, 60-2, 89"},{"StopId":396,"Code":"QTD 174","Name":"ĐH Nông Lâm","StopType":"Trụ dừng","Zone":"TP. Thủ Đức - KV3","Ward":"Phường Linh Trung","AddressNo":"1026/2 (1030)","Street":"Quốc lộ 1","SupportDisability":"","Status":"Đang khai thác","Lng":106.790283,"Lat":10.866912,"Search":"DNL 1026/2( Ql1","Routes":"06, 164D, 164V, 165, 19, 33, 50, 52, 53, 60-1, 60-2, 61-9, 93"},{"StopId":8098,"Code":"TPTĐ 228","Name":"Ga metro Khu Công nghệ cao","StopType":"Nhà chờ","Zone":"TP. Thủ Đức - KV3","Ward":"Phường Linh Trung","AddressNo":"Đối diện ga metro Khu Công nghệ cao","Street":"Song Hành trái Xa Lộ Hà Nội","SupportDisability":"Có","Status":"Đang khai thác","Lng":106.788153,"Lat":10.85885,"Search":"GmKCnc DdgmKCnc SHtXLHN","Routes":"164D, 165, 167V"},{"StopId":8230,"Code":"TPTĐ 284","Name":"Tòa nhà OneHub Saigon","StopType":"Ô sơn","Zone":"TP. Thủ Đức - KV2","Ward":"Phường Tân Phú","AddressNo":"Đối diện Tòa nhà OneHub Saigon","Street":"Đường D1","SupportDisability":"Có","Status":"Đang khai thác","Lng":106.789132,"Lat":10.85564,"Search":"TnOS DdTnOS DD","Routes":"165"},{"StopId":7987,"Code":"TPTĐ 117","Name":"Nidec Vietnam Corporation","StopType":"Trụ dừng","Zone":"TP. Thủ Đức - KV2","Ward":"Phường Tân Phú","AddressNo":"Đội thủ tục hải quan Khu CNC","Street":"Đường D1","SupportDisability":"Có","Status":"Đang khai thác","Lng":106.794181,"Lat":10.853945,"Search":"NVC DtthqKC DD","Routes":"165"},{"StopId":7989,"Code":"TPTĐ 119","Name":"FPT Software HCM","StopType":"Trụ dừng","Zone":"TP. Thủ Đức - KV2","Ward":"Phường Tân Phú","AddressNo":"FPT Software HCM","Street":"Đường D1","SupportDisability":"Có","Status":"Đang khai thác","Lng":106.799405,"Lat":10.850275,"Search":"FSH FSH DD","Routes":"165"},{"StopId":7991,"Code":"TPTĐ 121","Name":"Đại học Công nghệ TP.HCM - HUTECH","StopType":"Nhà chờ","Zone":"TP. Thủ Đức - KV2","Ward":"Phường Long Thạnh Mỹ","AddressNo":"Gần Hitech Park Campus HUTECH Khu R","Street":"Đường D1","SupportDisability":"Có","Status":"Đang khai thác","Lng":106.808677,"Lat":10.841448,"Search":"DhCnT-H GHPCHKR DD","Routes":"165"},{"StopId":7776,"Code":"Q9 289","Name":"Trường ĐH Nguyễn Tất Thành","StopType":"Trụ dừng","Zone":"TP. Thủ Đức - KV2","Ward":"Phường Long Thạnh Mỹ","AddressNo":"Trường ĐH Nguyễn Tất Thành","Street":"D2 ","SupportDisability":"Có","Status":"Đang khai thác","Lng":106.80926,"Lat":10.83685,"Search":"TDNTT TDNTT D","Routes":"165, D4"},{"StopId":7778,"Code":"Q9 291","Name":"Công ty Platel Vina","StopType":"Trụ dừng","Zone":"TP. Thủ Đức - KV2","Ward":"Phường Long Thạnh Mỹ","AddressNo":"Công ty Platel Vina","Street":"D2 ","SupportDisability":"Có","Status":"Đang khai thác","Lng":106.804883,"Lat":10.830773,"Search":"CtPV CtPV D","Routes":"165, D4"},{"StopId":8141,"Code":"TPTĐ 233","Name":"Cổng số 7 Công ty SAMSUNG","StopType":"Trụ dừng","Zone":"TP. Thủ Đức - KV2","Ward":"Phường Tăng Nhơn Phú B","AddressNo":"Đối diện cổng số 7 Công ty SAMSUNG","Street":"Đường D14A","SupportDisability":"Có","Status":"Đang khai thác","Lng":106.8015,"Lat":10.829583,"Search":"Cs7CtS Ddcs7CtS DD","Routes":"165"},{"StopId":8142,"Code":"TPTĐ 234","Name":"Cổng số 6 Công ty SAMSUNG","StopType":"Trụ dừng","Zone":"TP. Thủ Đức - KV2","Ward":"Phường Tăng Nhơn Phú B","AddressNo":"gần cầu Rạch Lân 2","Street":"Đường D14A","SupportDisability":"Có","Status":"Đang khai thác","Lng":106.795903,"Lat":10.832603,"Search":"Cs6CtS gcRL2 DD","Routes":"165"},{"StopId":8143,"Code":"TPTĐ 235","Name":"Trạm cấp khí CNG","StopType":"Trụ dừng","Zone":"TP. Thủ Đức - KV2","Ward":"Phường Tăng Nhơn Phú B","AddressNo":"Đối diện cổng trạm nạp khí CNG","Street":"Đường D14A","SupportDisability":"Có","Status":"Đang khai thác","Lng":106.793888,"Lat":10.832773,"Search":"TckC DdctnkC DD","Routes":"165"},{"StopId":8144,"Code":"TPTĐ 236","Name":"Cổng 5 - Công ty Techtronic Tools Việt Nam","StopType":"Trụ dừng","Zone":"TP. Thủ Đức - KV2","Ward":"Phường Tăng Nhơn Phú B","AddressNo":"Đối diện Cổng 5 Công ty Techtronic Tools Việt Nam","Street":"Đường D14A","SupportDisability":"Có","Status":"Đang khai thác","Lng":106.789902,"Lat":10.833117,"Search":"C5-CtTTVN DdC5CtTTVN DD","Routes":"165"},{"StopId":8145,"Code":"TPTĐ 237","Name":"CÔNG TY TNHH TECHTRONIC INDUSTRIES VIỆT NAM MANUFACTURING","StopType":"Trụ dừng","Zone":"TP. Thủ Đức - KV2","Ward":"Phường Tăng Nhơn Phú B","AddressNo":"Đối diện Công ty TECHTRONIC INDUSTRIES","Street":"Đường D14A","SupportDisability":"Có","Status":"Đang khai thác","Lng":106.78781,"Lat":10.832091,"Search":"CTTTIVNM DdCtTI DD","Routes":"165"},{"StopId":8146,"Code":"TPTĐ 238","Name":"Công Ty TNHH Techtronic Tools (Cổng 3) 3)","StopType":"Trụ dừng","Zone":"TP. Thủ Đức - KV2","Ward":"Phường Tăng Nhơn Phú B","AddressNo":"Đối diện Cổng 3 Công Ty Techtronic Tools ","Street":"Đường D14A","SupportDisability":"Có","Status":"Đang khai thác","Lng":106.789405,"Lat":10.829892,"Search":"CTTTT(3)3) DdC3CTTT DD","Routes":"165"},{"StopId":8147,"Code":"TPTĐ 239","Name":"Bưng Ông Thoàn","StopType":"Trụ dừng","Zone":"TP. Thủ Đức - KV2","Ward":"Phường Tăng Nhơn Phú B","AddressNo":"Đối diện kho hàng công ty Samsung","Street":"Đường D14A","SupportDisability":"Có","Status":"Đang khai thác","Lng":106.789829,"Lat":10.828111,"Search":"BOT DdkhctS DD","Routes":"165"},{"StopId":8148,"Code":"TPTĐ 240","Name":"Besi VietNam","StopType":"Trụ dừng","Zone":"TP. Thủ Đức - KV2","Ward":"Phường Tăng Nhơn Phú B","AddressNo":"Besi VietNam","Street":"Đường D12","SupportDisability":"Có","Status":"Đang khai thác","Lng":106.788681,"Lat":10.826783,"Search":"BV BV DD","Routes":"165"},{"StopId":8149,"Code":"TPTĐ 241","Name":"Đường D2","StopType":"Trụ dừng","Zone":"TP. Thủ Đức - KV2","Ward":"Phường Tăng Nhơn Phú B","AddressNo":"gần giao lộ Đường D2-D12","Street":"Đường D12","SupportDisability":"Có","Status":"Đang khai thác","Lng":106.792307,"Lat":10.821888,"Search":"DD gglDD DD","Routes":"165"},{"StopId":7780,"Code":"Q9 293","Name":"Công ty Transimex","StopType":"Trụ dừng","Zone":"TP. Thủ Đức - KV2","Ward":"Phường Tăng Nhơn Phú B","AddressNo":"Công ty Transimex","Street":"D2","SupportDisability":"Có","Status":"Đang khai thác","Lng":106.79342,"Lat":10.82174,"Search":"CtT CtT D","Routes":"165, D4"},{"StopId":8150,"Code":"TPTĐ 242","Name":"Kho Transimex","StopType":"Trụ dừng","Zone":"TP. Thủ Đức - KV2","Ward":"Phường Tăng Nhơn Phú B","AddressNo":"Đối diện cây xăng Khu CNC","Street":"Bưng Ông Thoàn","SupportDisability":"Có","Status":"Đang khai thác","Lng":106.794716,"Lat":10.822231,"Search":"KT DdcxKC BOT","Routes":"165"},{"StopId":8151,"Code":"TPTĐ 243","Name":"Công ty TNHH Daihan Vina","StopType":"Trụ dừng","Zone":"TP. Thủ Đức - KV2","Ward":"Phường Tăng Nhơn Phú B","AddressNo":"Đối diện Công ty TNHH Daihan Vina","Street":"Đường D18","SupportDisability":"Có","Status":"Đang khai thác","Lng":106.796211,"Lat":10.821405,"Search":"CtTDV DdCtTDV DD","Routes":"165"},{"StopId":7996,"Code":"TPTĐ 126","Name":"Schneider Electric Manufacturing","StopType":"Trụ dừng","Zone":"TP. Thủ Đức - KV2","Ward":"Phường Tăng Nhơn Phú B","AddressNo":"Đối diện Schneider Electric Manufacturing","Street":"Đường D18","SupportDisability":"Có","Status":"Đang khai thác","Lng":106.80025,"Lat":10.824251,"Search":"SEM DdSEM DD","Routes":"165"},{"StopId":8152,"Code":"TPTĐ 244","Name":"Công ty TNHH MTV Daeyoung Electronics Vina","StopType":"Trụ dừng","Zone":"TP. Thủ Đức - KV2","Ward":"Phường Tăng Nhơn Phú B","AddressNo":"Đối diện Cổng sau Cty Daeyoung Electronics Vina","Street":"Đường D18","SupportDisability":"Có","Status":"Đang khai thác","Lng":106.802237,"Lat":10.827668,"Search":"CtTMDEV DdCsCDEV DD","Routes":"165"},{"StopId":7779,"Code":"Q9 292","Name":"Công ty Mekophar","StopType":"Trụ dừng","Zone":"TP. Thủ Đức - KV2","Ward":"Phường Long Thạnh Mỹ","AddressNo":"Công ty Mekophar","Street":"D2","SupportDisability":"Có","Status":"Đang khai thác","Lng":106.805019,"Lat":10.830429,"Search":"CtM CtM D","Routes":"165, D4"},{"StopId":8228,"Code":"TPTĐ 282","Name":"Đường D7","StopType":"Ô sơn","Zone":"TP. Thủ Đức - KV2","Ward":"Phường Long Thạnh Mỹ","AddressNo":"Cây xanh số 10","Street":"Đường D7","SupportDisability":"Có","Status":"Đang khai thác","Lng":106.80753,"Lat":10.832504,"Search":"DD Cxs10 DD","Routes":"165"},{"StopId":7995,"Code":"TPTĐ 125","Name":"Nipro Vietnam Co., Ltd.","StopType":"Trụ dừng","Zone":"TP. Thủ Đức - KV2","Ward":"Phường Long Thạnh Mỹ","AddressNo":"Gần Nipro Vietnam Co., Ltd","Street":"Đường D8","SupportDisability":"Có","Status":"Đang khai thác","Lng":106.810888,"Lat":10.833725,"Search":"NVCL GNVCL DD","Routes":"165"},{"StopId":7993,"Code":"TPTĐ 123","Name":"Jabil Vietnam","StopType":"Trụ dừng","Zone":"TP. Thủ Đức - KV2","Ward":"Phường Long Thạnh Mỹ","AddressNo":"Phía trước Jabil Vietnam - Gate","Street":"Đường D8","SupportDisability":"Có","Status":"Đang khai thác","Lng":106.813195,"Lat":10.836108,"Search":"JV PtJV-G DD","Routes":"165"},{"StopId":7992,"Code":"TPTĐ 122","Name":"Trường Đại học FPT TP.HCM","StopType":"Nhà chờ","Zone":"TP. Thủ Đức - KV2","Ward":"Phường Long Thạnh Mỹ","AddressNo":"Phía trước HPT Vietnam Corporation","Street":"Đường D1","SupportDisability":"Có","Status":"Đang khai thác","Lng":106.808868,"Lat":10.841721,"Search":"TDhFT PtHVC DD","Routes":"165"},{"StopId":7990,"Code":"TPTĐ 120","Name":"Công ty Geneworld","StopType":"Trụ dừng","Zone":"TP. Thủ Đức - KV2","Ward":"Phường Tân Phú","AddressNo":"N7 (Gần Geneworld)","Street":"Đường D1","SupportDisability":"Có","Status":"Đang khai thác","Lng":106.805,"Lat":10.845451,"Search":"CtG N(G DD","Routes":"165"},{"StopId":7988,"Code":"TPTĐ 118","Name":"FPT Software HCM","StopType":"Trụ dừng","Zone":"TP. Thủ Đức - KV2","Ward":"Phường Tân Phú","AddressNo":"Đối diện FPT Software HCM","Street":"Đường D1","SupportDisability":"Có","Status":"Đang khai thác","Lng":106.799654,"Lat":10.850502,"Search":"FSH DdFSH DD","Routes":"165"},{"StopId":7986,"Code":"TPTĐ 116","Name":"Nidec Vietnam Corporation","StopType":"Trụ dừng","Zone":"TP. Thủ Đức - KV2","Ward":"Phường Tân Phú","AddressNo":"Gần Công ty Nidec Vietnam Corporation","Street":"Đường D1","SupportDisability":"Có","Status":"Đang khai thác","Lng":106.794549,"Lat":10.854201,"Search":"NVC GCtNVC DD","Routes":"165"},{"StopId":8229,"Code":"TPTĐ 283","Name":"Tòa nhà OneHub Saigon","StopType":"Ô sơn","Zone":"TP. Thủ Đức - KV2","Ward":"Phường Tân Phú","AddressNo":"Tòa nhà OneHub Saigon","Street":"Đường D1","SupportDisability":"Có","Status":"Đang khai thác","Lng":106.789196,"Lat":10.856072,"Search":"TnOS TnOS DD","Routes":"165"},{"StopId":8155,"Code":"TPTĐ 245","Name":"Ga Khu Công nghệ Cao","StopType":"Trụ dừng","Zone":"TP. Thủ Đức - KV3","Ward":"Phường Linh Trung","AddressNo":"Cạnh bãi xe ga Khu Công nghệ cao","Street":"Song Hành trái Xa Lộ Hà Nội","SupportDisability":"Có","Status":"Đang khai thác","Lng":106.788295,"Lat":10.858764,"Search":"GKCnC CbxgKCnc SHtXLHN","Routes":"165, 167D"},{"StopId":8081,"Code":"TPTĐ 211","Name":"Sân Tennis Lâm Viên","StopType":"Trụ dừng","Zone":"TP. Thủ Đức - KV3","Ward":"Phường Linh Trung","AddressNo":"40-42","Street":"Đường số 17","SupportDisability":"Có","Status":"Đang khai thác","Lng":106.788213,"Lat":10.86008,"Search":"STLV 40-42 Ds17","Routes":"165, 167D"},{"StopId":4458,"Code":"QTĐ 240","Name":"Đường 17","StopType":"Trụ dừng","Zone":"TP. Thủ Đức - KV3","Ward":null,"AddressNo":"124","Street":"Đường 17","SupportDisability":"","Status":"Đang khai thác","Lng":106.7876,"Lat":10.8638,"Search":"D17 124 D17","Routes":"165, 167D, 89"},{"StopId":394,"Code":"BX73","Name":"BẾN XE BUÝT ĐẠI HỌC NÔNG LÂM","StopType":"Bến xe","Zone":"TP. Thủ Đức - KV3","Ward":null,"AddressNo":"Bến xe buýt ĐH Nông Lâm","Street":"Quốc lộ 1","SupportDisability":"","Status":"Đang khai thác","Lng":106.787445,"Lat":10.868183,"Search":"BXBDHNL BxbDNL Ql1","Routes":"06, 164D, 164V, 165, 167D, 167V, 60-2, 89"}]