[{"StopId":35,"Code":"BX 01","Name":"Bến xe buýt Sài Gòn","StopType":"Bến xe","Zone":"Quận 1","Ward":"Phường Phạm Ngũ Lão","AddressNo":"BẾN XE BUÝT SÀI GÒN","Street":"Lê Lai","SupportDisability":"Có","Status":"Đang khai thác","Lng":106.689362,"Lat":10.767676,"Search":"BxbSG BXBSG LL","Routes":"03, 04, 102, 109, 13, 140, 18, 19, 20, 27, 28, 34, 36, 39, 52, 65, 69, 72, 75, 86, 88, 93, D4, DL03, DL04, DRCB, BD, DRCB, VT"},{"StopId":7276,"Code":"Q1 190","Name":"Tôn Thất Tùng","StopType":"Trụ dừng","Zone":"Quận 1","Ward":"Phường Phạm Ngũ Lão","AddressNo":"277-279-275Y","Street":"Phạm Ngũ Lão","SupportDisability":"Có","Status":"Đang khai thác","Lng":106.690941,"Lat":10.76767,"Search":"TTT 277-279-275Y PNL","Routes":"03, 04, 102, 109, 13, 140, 156V, 18, 19, 20, 28, 34, 36, 39, 46, 52, 65, 69, 72, 72-2B, 75, 86, 88, 93, D4"},{"StopId":7277,"Code":"Q1 191","Name":"Nguyễn Thị Nghĩa","StopType":"Trụ dừng","Zone":"Quận 1","Ward":"Phường Phạm Ngũ Lão","AddressNo":"187","Street":"Phạm Ngũ Lão","SupportDisability":"Có","Status":"Đang khai thác","Lng":106.693699,"Lat":10.768788,"Search":"NTN 187 PNL","Routes":"03, 04, 102, 109, 13, 140, 156V, 18, 19, 20, 28, 34, 36, 39, 46, 52, 65, 69, 72, 72-2B, 93, D4, DL01, DL02"},{"StopId":7278,"Code":"Q1 192","Name":"Trường Emst Thalmann","StopType":"Nhà chờ","Zone":"Quận 1","Ward":"Phường Phạm Ngũ Lão","AddressNo":"Trường Emst Thalmann","Street":"Phạm Ngũ Lão","SupportDisability":"Có","Status":"Đang khai thác","Lng":106.695587,"Lat":10.769504,"Search":"TET TET PNL","Routes":"03, 04, 109, 13, 156V, 18, 19, 20, 28, 34, 36, 39, 52, 65, 69, 72-2B, 93, D4"},{"StopId":1944,"Code":"Q1 040","Name":"Khách sạn New world","StopType":"Trụ dừng","Zone":"Quận 1","Ward":"Phường Bến Thành","AddressNo":"40","Street":"Phạm Hồng Thái","SupportDisability":"","Status":"Đang khai thác","Lng":106.695824,"Lat":10.77129,"Search":"KsNw 40 PHT","Routes":"13, 152, 31, 38, 56, 65"},{"StopId":1297,"Code":"Q1 003","Name":"Trống Đồng","StopType":"Nhà chờ","Zone":"Quận 1","Ward":null,"AddressNo":"Đối diện số 89","Street":"Cách Mạng Tháng Tám","SupportDisability":"","Status":"Đang khai thác","Lng":106.690813,"Lat":10.773046,"Search":"TD Dds89 CMTT","Routes":"13, 28, 38, 65, 69"},{"StopId":3478,"Code":"Q3 006","Name":"Võ Văn Tần","StopType":"Trụ dừng","Zone":"Quận 3","Ward":"Phường 06","AddressNo":"40 - 42","Street":"Cách Mạng Tháng Tám","SupportDisability":"","Status":"Đang khai thác","Lng":106.688946,"Lat":10.774068,"Search":"VVT 40-42 CMTT","Routes":"13, 65, 69"},{"StopId":1296,"Code":"Q3 007","Name":"Bệnh viện Mắt - Bình Dân - Da Liễu","StopType":"Trụ dừng","Zone":"Quận 3","Ward":null,"AddressNo":"108","Street":"Cách Mạng Tháng Tám","SupportDisability":"","Status":"Đang khai thác","Lng":106.684467,"Lat":10.776461,"Search":"BvM-BD-DL 108 CMTT","Routes":"13, 65"},{"StopId":3477,"Code":"Q3 008","Name":"Công trường Dân Chủ","StopType":"Nhà chờ","Zone":"Quận 3","Ward":null,"AddressNo":"126","Street":"Cách Mạng Tháng Tám","SupportDisability":"","Status":"Đang khai thác","Lng":106.682455,"Lat":10.77753,"Search":"CtDC 126 CMTT","Routes":"13, 65"},{"StopId":1299,"Code":"Q3 009","Name":"Công trường Dân Chủ","StopType":"Trụ dừng","Zone":"Quận 3","Ward":"Phường 10","AddressNo":"132C - 132D","Street":"Cách Mạng Tháng Tám","SupportDisability":"","Status":"Đang khai thác","Lng":106.680481,"Lat":10.778516,"Search":"CtDC 132C-132D CMTT","Routes":"13, 30, 65"},{"StopId":1298,"Code":"Q3 010","Name":"Ngã Ba Chí Hòa","StopType":"Trụ dừng","Zone":"Quận 3","Ward":"Phường 10","AddressNo":"276 Bis","Street":"Cách Mạng Tháng Tám","SupportDisability":"","Status":"Đang khai thác","Lng":106.676345,"Lat":10.780703,"Search":"NBCH 276B CMTT","Routes":"13, 30, 65"},{"StopId":2711,"Code":"Q3 011","Name":"Chùa Bửu Đà","StopType":"Biển treo","Zone":"Quận 3","Ward":"Phường 10","AddressNo":"338 - 340","Street":"Cách Mạng Tháng Tám","SupportDisability":"","Status":"Đang khai thác","Lng":106.674741,"Lat":10.78163,"Search":"CBD 338-340 CMTT","Routes":"13, 30, 65"},{"StopId":2709,"Code":"Q3 012","Name":"Rạp hát Thanh Vân","StopType":"Trụ dừng","Zone":"Quận 3","Ward":"Phường 10","AddressNo":"366","Street":"Cách Mạng Tháng Tám","SupportDisability":"","Status":"Đang khai thác","Lng":106.670755,"Lat":10.783738,"Search":"RhTV 366 CMTT","Routes":"13, 30, 65"},{"StopId":2712,"Code":"Q3 013","Name":"Chợ Hòa Hưng","StopType":"Trụ dừng","Zone":"Quận 3","Ward":null,"AddressNo":"442","Street":"Cách Mạng Tháng Tám","SupportDisability":"","Status":"Đang khai thác","Lng":106.669945,"Lat":10.784146,"Search":"CHH 442 CMTT","Routes":"13, 30, 65"},{"StopId":1300,"Code":"Q3 014","Name":"Công viên Lê Thị Riêng","StopType":"Trụ dừng","Zone":"Quận 3","Ward":"Phường 11","AddressNo":"542","Street":"Cách Mạng Tháng Tám","SupportDisability":"","Status":"Đang khai thác","Lng":106.66693,"Lat":10.785814,"Search":"CvLTR 542 CMTT","Routes":"13, 30, 65"},{"StopId":906,"Code":"QTB 054","Name":"Bắc Hải","StopType":"Trụ dừng","Zone":"Quận Tân Bình","Ward":null,"AddressNo":"690","Street":"Cách Mạng Tháng Tám","SupportDisability":"","Status":"Đang khai thác","Lng":106.663727,"Lat":10.787486,"Search":"BH 690 CMTT","Routes":"103, 13, 30, 65"},{"StopId":907,"Code":"QTB 055","Name":"Ngã ba Bành Văn Trân","StopType":"Biển treo","Zone":"Quận Tân Bình","Ward":null,"AddressNo":"814","Street":"Cách Mạng Tháng Tám","SupportDisability":"","Status":"Đang khai thác","Lng":106.661453,"Lat":10.788692,"Search":"NbBVT 814 CMTT","Routes":"103, 13, 30, 65"},{"StopId":910,"Code":"QTB 056","Name":"Ông Tạ","StopType":"Biển treo","Zone":"Quận Tân Bình","Ward":null,"AddressNo":"962","Street":"Cách Mạng Tháng Tám","SupportDisability":"","Status":"Đang khai thác","Lng":106.659694,"Lat":10.78963,"Search":"OT 962 CMTT","Routes":"103, 13, 30, 65"},{"StopId":909,"Code":"QTB 057","Name":"Cư xá Tự Do","StopType":"Biển treo","Zone":"Quận Tân Bình","Ward":null,"AddressNo":"1130","Street":"Cách Mạng Tháng Tám","SupportDisability":"","Status":"Đang khai thác","Lng":106.656218,"Lat":10.791448,"Search":"CxTD 1130 CMTT","Routes":"103, 13, 30, 65"},{"StopId":908,"Code":"QTB 058","Name":"Bệnh viện Thống Nhất","StopType":"Nhà chờ","Zone":"Quận Tân Bình","Ward":null,"AddressNo":"1236 (544)","Street":"Cách Mạng Tháng Tám","SupportDisability":"","Status":"Đang khai thác","Lng":106.653991,"Lat":10.792649,"Search":"BvTN 1236( CMTT","Routes":"103, 13, 30, 65"},{"StopId":510,"Code":"QTB 034","Name":"Bệnh viện Quận Tân Bình","StopType":"Nhà chờ","Zone":"Quận Tân Bình","Ward":null,"AddressNo":"605","Street":"Hoàng Văn Thụ","SupportDisability":"","Status":"Đang khai thác","Lng":106.655198,"Lat":10.79472,"Search":"BvQTB 605 HVT","Routes":"08, 103, 13, 145, 148, 30, 50, 59, 63-1, 64, 65, 94"},{"StopId":604,"Code":"QTB 064","Name":"Hội Chợ Triển lãm Tân Bình","StopType":"Trụ dừng","Zone":"Quận Tân Bình","Ward":null,"AddressNo":"20 (B9)","Street":"Xuân Diệu","SupportDisability":"","Status":"Đang khai thác","Lng":106.655145,"Lat":10.796122,"Search":"HCTlTB 20( XD","Routes":"08, 103, 13, 145, 148, 30, 50, 59, 64, 94"},{"StopId":603,"Code":"QTB 065","Name":"Trường Phạm Ngũ Lão","StopType":"Trụ dừng","Zone":"Quận Tân Bình","Ward":null,"AddressNo":"149 (E62)","Street":"Xuân Hồng","SupportDisability":"","Status":"Đang khai thác","Lng":106.654066,"Lat":10.796032,"Search":"TPNL 149( XH","Routes":"08, 103, 13, 145, 148, 30, 50, 59, 64, 65, 94"},{"StopId":606,"Code":"QTB 066","Name":"Cây xăng Đôi","StopType":"Trụ dừng","Zone":"Quận Tân Bình","Ward":null,"AddressNo":"23","Street":"Xuân Hồng","SupportDisability":"","Status":"Đang khai thác","Lng":106.652184,"Lat":10.794256,"Search":"CxD 23 XH","Routes":"08, 103, 13, 145, 148, 30, 50, 59, 64, 65, 94"},{"StopId":1719,"Code":"QTB 067","Name":"Ngã tư Bảy Hiền","StopType":"Biển treo","Zone":"Quận Tân Bình","Ward":null,"AddressNo":"106","Street":"Trường Chinh","SupportDisability":"","Status":"Đang khai thác","Lng":106.651191,"Lat":10.794182,"Search":"NtBH 106 TC","Routes":"13, 30, 64, 65, 94"},{"StopId":1720,"Code":"QTB 068","Name":"Nhà Thở Đắc Lộ","StopType":"Trụ dừng","Zone":"Quận Tân Bình","Ward":null,"AddressNo":"150","Street":"Trường Chinh","SupportDisability":"","Status":"Đang khai thác","Lng":106.649576,"Lat":10.795068,"Search":"NTDL 150 TC","Routes":"13, 30, 64, 65, 94"},{"StopId":1301,"Code":"QTB 069","Name":"Ngã ba Hoàng Hoa Thám","StopType":"Nhà chờ","Zone":"Quận Tân Bình","Ward":null,"AddressNo":"162T","Street":"Trường Chinh","SupportDisability":"","Status":"Đang khai thác","Lng":106.647747,"Lat":10.796053,"Search":"NbHHT 162T TC","Routes":"13, 30, 64, 65, 94"},{"StopId":2713,"Code":"QTB 070","Name":"Ngã ba Bình Giã","StopType":"Trụ dừng","Zone":"Quận Tân Bình","Ward":null,"AddressNo":"298","Street":"Trường Chinh","SupportDisability":"","Status":"Đang khai thác","Lng":106.644453,"Lat":10.797792,"Search":"NbBG 298 TC","Routes":"13, 30, 65, 94"},{"StopId":2200,"Code":"QTB 071","Name":"Ngã ba Ấp Bắc","StopType":"Trụ dừng","Zone":"Quận Tân Bình","Ward":null,"AddressNo":"366A","Street":"Trường Chinh","SupportDisability":"","Status":"Đang khai thác","Lng":106.641036,"Lat":10.799642,"Search":"NbAB 366A TC","Routes":"13, 23, 65, 94"},{"StopId":2205,"Code":"QTB 072","Name":"Chợ Võ Thành Trang","StopType":"Nhà chờ","Zone":"Quận Tân Bình","Ward":null,"AddressNo":"510","Street":"Trường Chinh","SupportDisability":"","Status":"Đang khai thác","Lng":106.637823,"Lat":10.801365,"Search":"CVTT 510 TC","Routes":"13, 23, 65, 94"},{"StopId":1302,"Code":"QTB 073","Name":"Ngã tư Tân Kỳ Tân Quý","StopType":"Biển treo","Zone":"Quận Tân Bình","Ward":null,"AddressNo":"638","Street":"Trường Chinh","SupportDisability":"","Status":"Đang khai thác","Lng":106.635629,"Lat":10.804732,"Search":"NtTKTQ 638 TC","Routes":"13, 23, 27, 62, 65, 94"},{"StopId":2202,"Code":"QTB 074","Name":"Siêu thị Big C","StopType":"Nhà chờ","Zone":"Quận Tân Bình","Ward":null,"AddressNo":"680","Street":"Trường Chinh","SupportDisability":"","Status":"Đang khai thác","Lng":106.635184,"Lat":10.806202,"Search":"StBC 680 TC","Routes":"13, 23, 27, 62, 65, 94"},{"StopId":268,"Code":"QTB 075","Name":"Mũi tàu Cộng Hòa","StopType":"Trụ dừng","Zone":"Quận Tân Bình","Ward":null,"AddressNo":"19B1","Street":"Trường Chinh","SupportDisability":"","Status":"Đang khai thác","Lng":106.634638,"Lat":10.808314,"Search":"MtCH 19B1 TC","Routes":"04, 104, 13, 145, 16, 23, 27, 28, 62, 63-1, 65, 94"},{"StopId":267,"Code":"QTB 076","Name":"Ngã ba Chế Lan Viên","StopType":"Nhà chờ","Zone":"Quận Tân Bình","Ward":null,"AddressNo":"Đối diện đường Chế Lan Viên","Street":"Trường Chinh","SupportDisability":"","Status":"Đang khai thác","Lng":106.633349,"Lat":10.812204,"Search":"NbCLV DddCLV TC","Routes":"04, 104, 13, 145, 23, 27, 28, 62, 65, 94"},{"StopId":270,"Code":"QTB 078","Name":"UBND Phường 15","StopType":"Nhà chờ","Zone":"Quận Tân Bình","Ward":null,"AddressNo":"850","Street":"Trường Chinh","SupportDisability":"","Status":"Đang khai thác","Lng":106.631461,"Lat":10.818332,"Search":"UP15 850 TC","Routes":"04, 104, 13, 145, 23, 27, 62, 65, 94"},{"StopId":271,"Code":"QTB 079","Name":"Khu Công Nghiệp Tân Bình","StopType":"Nhà chờ","Zone":"Quận Tân Bình","Ward":null,"AddressNo":"932","Street":"Trường Chinh","SupportDisability":"","Status":"Đang khai thác","Lng":106.630254,"Lat":10.822452,"Search":"KCNTB 932 TC","Routes":"04, 104, 13, 145, 23, 27, 32, 41, 62, 65, 94"},{"StopId":272,"Code":"Q12 128","Name":"Cầu Tham Lương - Siêu thị Thiên Hòa","StopType":"Nhà chờ","Zone":"Quận 12","Ward":null,"AddressNo":"60A-B (1/17A)","Street":"Trường Chinh","SupportDisability":"","Status":"Đang khai thác","Lng":106.625828,"Lat":10.826957,"Search":"CTL-StTH 60A-B( TC","Routes":"04, 104, 13, 145, 23, 27, 41, 62, 65, 94"},{"StopId":273,"Code":"Q12 129","Name":"Chùa Vĩnh Phước","StopType":"Nhà chờ","Zone":"Quận 12","Ward":null,"AddressNo":"110 (189/4)","Street":"Trường Chinh","SupportDisability":"","Status":"Đang khai thác","Lng":106.624594,"Lat":10.828627,"Search":"CVP 110( TC","Routes":"04, 104, 13, 145, 27, 41, 65, 94"},{"StopId":275,"Code":"Q12 132","Name":"Chùa Lạc Quang","StopType":"Nhà chờ","Zone":"Quận 12","Ward":null,"AddressNo":"408","Street":"Trường Chinh","SupportDisability":"","Status":"Đang khai thác","Lng":106.620614,"Lat":10.834781,"Search":"CLQ 408 TC","Routes":"04, 104, 13, 145, 27, 41, 65, 94"},{"StopId":277,"Code":"Q12 131","Name":"Bitis","StopType":"Nhà chờ","Zone":"Quận 12","Ward":null,"AddressNo":"590 (640)","Street":"Trường Chinh","SupportDisability":"","Status":"Đang khai thác","Lng":106.618398,"Lat":10.838222,"Search":"B 590( TC","Routes":"04, 104, 13, 145, 27, 41, 65, 94"},{"StopId":1117,"Code":"Q12 124","Name":"Bến xe An Sương","StopType":"Trụ dừng","Zone":"Quận 12","Ward":null,"AddressNo":"8C","Street":"Quốc lộ 22","SupportDisability":"","Status":"Đang khai thác","Lng":106.6132,"Lat":10.846293,"Search":"BxAS 8C Ql22","Routes":"13, 62-5, 74, 85, 94"},{"StopId":1151,"Code":"Q12 125","Name":"Cây xăng Quân Đội","StopType":"Trụ dừng","Zone":"Quận 12","Ward":null,"AddressNo":"2","Street":"Quốc lộ 22","SupportDisability":"","Status":"Đang khai thác","Lng":106.611274,"Lat":10.84936,"Search":"CxQD 2 Ql22","Routes":"122, 13, 145, 62-5, 71, 74, 85, 94"},{"StopId":1152,"Code":"Q12 127","Name":"Trung tâm Văn hóa Quận 12","StopType":"Nhà chờ","Zone":"Quận 12","Ward":null,"AddressNo":"Trung tâm văn hóa Quận 12","Street":"Quốc lộ 22","SupportDisability":"","Status":"Đang khai thác","Lng":106.607863,"Lat":10.85466,"Search":"TtVhQ12 TtvhQ12 Ql22","Routes":"122, 13, 145, 62-5, 71, 74, 85, 94"},{"StopId":1154,"Code":"HHM 022","Name":"Liên đoàn lao động Hóc Môn","StopType":"Trụ dừng","Zone":"Huyện Hóc Môn","Ward":"Xã Trung Chánh","AddressNo":"69/1 (21/7)","Street":"Quốc lộ 22","SupportDisability":"","Status":"Đang khai thác","Lng":106.6062,"Lat":10.857115,"Search":"LdldHM 69/1( Ql22","Routes":"122, 13, 62-5, 71, 74, 85, 94"},{"StopId":1153,"Code":"HHM 023","Name":"Cây xăng Củ Cải","StopType":"Trụ dừng","Zone":"Huyện Hóc Môn","Ward":"Xã Trung Chánh","AddressNo":"33/4 (336)","Street":"Quốc lộ 22","SupportDisability":"","Status":"Đang khai thác","Lng":106.604306,"Lat":10.859823,"Search":"CxCC 33/4( Ql22","Routes":"122, 13, 62-5, 71, 74, 85, 94"},{"StopId":1156,"Code":"HHM 024","Name":"Ngã 3 Củ Cải","StopType":"Trụ dừng","Zone":"Huyện Hóc Môn","Ward":null,"AddressNo":"42/1 (62/1A)","Street":"Quốc lộ 22","SupportDisability":"","Status":"Đang khai thác","Lng":106.602697,"Lat":10.862014,"Search":"N3CC 42/1( Ql22","Routes":"122, 13, 62-5, 74, 85, 94"},{"StopId":7800,"Code":"HHM 245","Name":"Trường Đại học Ngoại ngữ - Tin học TP.HCM","StopType":"Trụ dừng","Zone":"Huyện Hóc Môn","Ward":"Xã Tân Xuân","AddressNo":"Trường Đại học Ngoại ngữ - Tin học TP.HCM","Street":"Quốc lộ 22","SupportDisability":"Có","Status":"Đang khai thác","Lng":106.600921,"Lat":10.864569,"Search":"TDhNn-ThT TDhNn-ThT Ql22","Routes":"122, 13, 62-5, 74, 85, 94"},{"StopId":1155,"Code":"HHM 025","Name":"Trường học Tân Xuân","StopType":"Trụ dừng","Zone":"Huyện Hóc Môn","Ward":null,"AddressNo":"8/6B","Street":"Quốc lộ 22","SupportDisability":"","Status":"Đang khai thác","Lng":106.599349,"Lat":10.866782,"Search":"ThTX 8/6B Ql22","Routes":"122, 13, 62-5, 74, 85, 94"},{"StopId":1158,"Code":"HHM 026","Name":"Ngã 3 Bùi Môn","StopType":"Ô sơn","Zone":"Huyện Hóc Môn","Ward":null,"AddressNo":"1/1","Street":"Quốc lộ 22","SupportDisability":"","Status":"Đang khai thác","Lng":106.597075,"Lat":10.870075,"Search":"N3BM 1/1 Ql22","Routes":"122, 13, 62-5, 74, 85, 94"},{"StopId":1160,"Code":"HHM 027","Name":"Ngã 3 Bùi Môn","StopType":"Trụ dừng","Zone":"Huyện Hóc Môn","Ward":null,"AddressNo":"đd công ty Tây Bắc Sài Gòn","Street":"Quốc lộ 22","SupportDisability":"","Status":"Đang khai thác","Lng":106.596147,"Lat":10.871397,"Search":"N3BM dctTBSG Ql22","Routes":"13, 74, 94"},{"StopId":4592,"Code":"HHM 0270","Name":"Sài Gòn Viễn Đông","StopType":"Trụ dừng","Zone":"Huyện Hóc Môn","Ward":"Xã Tân Xuân","AddressNo":"3/19","Street":"Quốc lộ 22","SupportDisability":"","Status":"Đang khai thác","Lng":106.593424,"Lat":10.875093,"Search":"SGVD 3/19 Ql22","Routes":"13, 74, 94"},{"StopId":1157,"Code":"HHM 028","Name":"Ngã tư Giếng Nước","StopType":"Trụ dừng","Zone":"Huyện Hóc Môn","Ward":"Xã Tân Xuân","AddressNo":"3/88C","Street":"Quốc lộ 22","SupportDisability":"","Status":"Đang khai thác","Lng":106.591748,"Lat":10.877482,"Search":"NtGN 3/88C Ql22","Routes":"13, 74, 94"},{"StopId":4751,"Code":"HHM 029","Name":"Cây Xăng Xuyên Á","StopType":"Trụ dừng","Zone":"Huyện Hóc Môn","Ward":"Thị trấn Hóc Môn","AddressNo":"2/20","Street":"Quốc lộ 22","SupportDisability":"","Status":"Đang khai thác","Lng":106.589179,"Lat":10.881109,"Search":"CXXA 2/20 Ql22","Routes":"13, 74, 94"},{"StopId":1303,"Code":"HHM 030","Name":"Ngã tư Hóc Môn","StopType":"Trụ dừng","Zone":"Huyện Hóc Môn","Ward":"Thị trấn Hóc Môn","AddressNo":"53/1 (số cũ 206)","Street":"Quốc lộ 22","SupportDisability":"","Status":"Đang khai thác","Lng":106.586732,"Lat":10.884615,"Search":"NtHM 53/1(c206) Ql22","Routes":"13, 24, 74, 94"},{"StopId":2270,"Code":"HHM 031","Name":"Dân Thắng","StopType":"Trụ dừng","Zone":"Huyện Hóc Môn","Ward":"Xã Tân Thới Nhì","AddressNo":"kế 8/5","Street":"Quốc lộ 22","SupportDisability":"","Status":"Đang khai thác","Lng":106.583878,"Lat":10.888708,"Search":"DT k8/5 Ql22","Routes":"13, 24, 74, 94"},{"StopId":4752,"Code":"HHM 032","Name":"Ngã ba Lam Sơn","StopType":"Nhà chờ","Zone":"Huyện Hóc Môn","Ward":"Xã Tân Thới Nhì","AddressNo":"kế 30F","Street":"Quốc lộ 22","SupportDisability":"","Status":"Đang khai thác","Lng":106.580742,"Lat":10.893147,"Search":"NbLS k30F Ql22","Routes":"13, 24, 74, 94"},{"StopId":3636,"Code":"HHM 033","Name":"Doanh trại Quân Đội","StopType":"Trụ dừng","Zone":"Huyện Hóc Môn","Ward":"Xã Tân Thới Nhì","AddressNo":"Doanh trai Quân đội","Street":"Quốc lộ 22","SupportDisability":"","Status":"Đang khai thác","Lng":106.579024,"Lat":10.895661,"Search":"DtQD DtQd Ql22","Routes":"13, 24, 74, 94"},{"StopId":1305,"Code":"HHM 034","Name":"Ngã 3 Hồng Châu","StopType":"Trụ dừng","Zone":"Huyện Hóc Môn","Ward":"Xã Tân Thới Nhì","AddressNo":"28/5 (số cũ 2/63)","Street":"Quốc lộ 22","SupportDisability":"","Status":"Đang khai thác","Lng":106.576191,"Lat":10.899733,"Search":"N3HC 28/5(c2/63) Ql22","Routes":"13, 24, 74, 94"},{"StopId":3634,"Code":"HHM 035","Name":"Công ty Sakos","StopType":"Nhà chờ","Zone":"Huyện Hóc Môn","Ward":"Xã Tân Hiệp","AddressNo":"186","Street":"Quốc lộ 22","SupportDisability":"Có","Status":"Đang khai thác","Lng":106.57337,"Lat":10.903752,"Search":"CtS 186 Ql22","Routes":"13, 24, 74, 94"},{"StopId":3637,"Code":"HHM 036","Name":"Cây xăng Hoàng Anh 2","StopType":"Trụ dừng","Zone":"Huyện Hóc Môn","Ward":"Xã Tân Hiệp","AddressNo":"428","Street":"Quốc lộ 22","SupportDisability":"","Status":"Đang khai thác","Lng":106.572071,"Lat":10.905691,"Search":"CxHA2 428 Ql22","Routes":"13, 24, 74, 94"},{"StopId":1304,"Code":"HHM 037","Name":"Công ty thoát nước đô thị","StopType":"Trụ dừng","Zone":"Huyện Hóc Môn","Ward":"Xã Tân Hiệp","AddressNo":"200 (Công ty thoát nước đô thị)","Street":"Quốc lộ 22","SupportDisability":"","Status":"Đang khai thác","Lng":106.567812,"Lat":10.911664,"Search":"Cttndt 200(ttndt Ql22","Routes":"13, 24, 74, 94"},{"StopId":4758,"Code":"HHM 038","Name":"Cầu An Hạ","StopType":"Trụ dừng","Zone":"Huyện Hóc Môn","Ward":"Xã Tân Hiệp","AddressNo":"Đối diện Giáo xứ Tân Thịnh","Street":"Quốc lộ 22","SupportDisability":"","Status":"Đang khai thác","Lng":106.564102,"Lat":10.916901,"Search":"CAH DdGxTT Ql22","Routes":"13, 24, 74, 94"},{"StopId":4702,"Code":"HCC 001","Name":"Công ty Fujifilm","StopType":"Trụ dừng","Zone":"Huyện Củ Chi","Ward":"Xã Tân Phú Trung","AddressNo":"Đối diện Công ty Fujifilm","Street":"Quốc lộ 22","SupportDisability":"","Status":"Đang khai thác","Lng":106.561267,"Lat":10.921261,"Search":"CtF DdCtF Ql22","Routes":"13, 24, 74, 94"},{"StopId":3639,"Code":"HCC 002","Name":"Bệnh viện Xuyên Á","StopType":"Nhà chờ","Zone":"Huyện Củ Chi","Ward":"Xã Tân Phú Trung","AddressNo":"Bệnh viện Xuyên Á","Street":"Quốc lộ 22","SupportDisability":"","Status":"Đang khai thác","Lng":106.55711,"Lat":10.926929,"Search":"BvXA BvXA Ql22","Routes":"13, 74, 94"},{"StopId":1307,"Code":"HCC 003","Name":"Chợ chiều Tân Phú Trung","StopType":"Trụ dừng","Zone":"Huyện Củ Chi","Ward":"Xã Tân Phú Trung","AddressNo":"102","Street":"Quốc lộ 22","SupportDisability":"","Status":"Đang khai thác","Lng":106.553714,"Lat":10.931343,"Search":"CcTPT 102 Ql22","Routes":"13, 74, 94"},{"StopId":3638,"Code":"HCC 004","Name":"Mũi tàu Tỉnh lộ 2","StopType":"Trụ dừng","Zone":"Huyện Củ Chi","Ward":"Xã Tân Phú Trung","AddressNo":"158","Street":"Quốc lộ 22","SupportDisability":"","Status":"Đang khai thác","Lng":106.549553,"Lat":10.934983,"Search":"MtTl2 158 Ql22","Routes":"13, 74, 94"},{"StopId":3640,"Code":"HCC 005","Name":"Nhà thờ Bắc Đoàn","StopType":"Trụ dừng","Zone":"Huyện Củ Chi","Ward":"Xã Tân Phú Trung","AddressNo":"Kế 254","Street":"Quốc lộ 22","SupportDisability":"","Status":"Đang khai thác","Lng":106.543425,"Lat":10.937979,"Search":"NtBD K254 Ql22","Routes":"13, 74, 94"},{"StopId":1306,"Code":"HCC 006","Name":"Trường Tân Phú Trung","StopType":"Nhà chờ","Zone":"Huyện Củ Chi","Ward":"Xã Tân Phú Trung","AddressNo":"Trường Tân Phú Trung","Street":"Quốc lộ 22","SupportDisability":"","Status":"Đang khai thác","Lng":106.540335,"Lat":10.939433,"Search":"TTPT TTPT Ql22","Routes":"13, 74, 94"},{"StopId":3642,"Code":"HCC 007","Name":"Nhà thờ Sơn Lộc","StopType":"Trụ dừng","Zone":"Huyện Củ Chi","Ward":"Xã Tân Phú Trung","AddressNo":"366","Street":"Quốc lộ 22","SupportDisability":"","Status":"Đang khai thác","Lng":106.535325,"Lat":10.94185,"Search":"NtSL 366 Ql22","Routes":"13, 74, 94"},{"StopId":3641,"Code":"HCC 008","Name":"Chùa Pháp Hạnh","StopType":"Trụ dừng","Zone":"Huyện Củ Chi","Ward":"Xã Tân Phú Trung","AddressNo":"444A","Street":"Quốc lộ 22","SupportDisability":"","Status":"Đang khai thác","Lng":106.529269,"Lat":10.944768,"Search":"CPH 444A Ql22","Routes":"13, 74, 94"},{"StopId":1309,"Code":"HCC 009","Name":"Ngã tư Quán đôi","StopType":"Trụ dừng","Zone":"Huyện Củ Chi","Ward":"Xã Tân Thông Hội","AddressNo":"38A-38B (40)","Street":"Quốc lộ 22","SupportDisability":"","Status":"Đang khai thác","Lng":106.524635,"Lat":10.947133,"Search":"NtQd 38A-38B( Ql22","Routes":"13, 74, 94"},{"StopId":3643,"Code":"HCC 010","Name":"Hồng Đào","StopType":"Trụ dừng","Zone":"Huyện Củ Chi","Ward":"Xã Tân Thông Hội","AddressNo":"140","Street":"Quốc lộ 22","SupportDisability":"","Status":"Đang khai thác","Lng":106.520369,"Lat":10.95003,"Search":"HD 140 Ql22","Routes":"13, 74, 94"},{"StopId":3644,"Code":"HCC 011","Name":"Trường Mầm non Tân Thông Hội 1","StopType":"Trụ dừng","Zone":"Huyện Củ Chi","Ward":"Xã Tân Thông Hội","AddressNo":"206","Street":"Quốc lộ 22","SupportDisability":"","Status":"Đang khai thác","Lng":106.516228,"Lat":10.952821,"Search":"TMnTTH1 206 Ql22","Routes":"13, 74, 94"},{"StopId":1308,"Code":"HCC 012","Name":"Công ty Sài Gòn Cáp","StopType":"Trụ dừng","Zone":"Huyện Củ Chi","Ward":"Xã Tân Thông Hội","AddressNo":"270","Street":"Quốc lộ 22","SupportDisability":"","Status":"Đang khai thác","Lng":106.509834,"Lat":10.95705,"Search":"CtSGC 270 Ql22","Routes":"13, 74, 94"},{"StopId":3645,"Code":"HCC 013","Name":"Nhà thờ Tân Thông","StopType":"Trụ dừng","Zone":"Huyện Củ Chi","Ward":"Xã Tân Thông Hội","AddressNo":"Nhà thờ Tân Thông","Street":"Quốc lộ 22","SupportDisability":"","Status":"Đang khai thác","Lng":106.504962,"Lat":10.959546,"Search":"NtTT NtTT Ql22","Routes":"13, 74, 94"},{"StopId":3648,"Code":"HCC 014","Name":"Điện lực Củ Chi - Ngã 3 Việt Kiều","StopType":"Nhà chờ","Zone":"Huyện Củ Chi","Ward":"Xã Tân Thông Hội","AddressNo":"400","Street":"Quốc lộ 22","SupportDisability":"Có","Status":"Đang khai thác","Lng":106.501617,"Lat":10.961317,"Search":"DlCC-N3VK 400 Ql22","Routes":"13, 74, 94"},{"StopId":3646,"Code":"HCC 015","Name":"xóm Huế","StopType":"Trụ dừng","Zone":"Huyện Củ Chi","Ward":"Xã Tân Thông Hội","AddressNo":"550","Street":"Quốc lộ 22","SupportDisability":"","Status":"Đang khai thác","Lng":106.497749,"Lat":10.96355,"Search":"xH 550 Ql22","Routes":"13, 74, 94"},{"StopId":3647,"Code":"HCC 016","Name":"Bò Tơ Xuân Đào","StopType":"Trụ dừng","Zone":"Huyện Củ Chi","Ward":null,"AddressNo":"632","Street":"Quốc lộ 22","SupportDisability":"","Status":"Đang khai thác","Lng":106.49308,"Lat":10.9658,"Search":"BTXD 632 Ql22","Routes":"13, 74, 94"},{"StopId":1311,"Code":"HCC 017","Name":"Cầu vượt Củ Chi","StopType":"Trụ dừng","Zone":"Huyện Củ Chi","Ward":"Thị trấn Củ Chi","AddressNo":"734","Street":"Quốc lộ 22","SupportDisability":"","Status":"Đang khai thác","Lng":106.488319,"Lat":10.96765,"Search":"CvCC 734 Ql22","Routes":"13, 74, 94"},{"StopId":732,"Code":"BX 63","Name":"Bến xe Củ Chi","StopType":"Bến xe","Zone":"Huyện Củ Chi","Ward":null,"AddressNo":"Bến xe Củ Chi","Street":"Quốc lộ 22","SupportDisability":"","Status":"Đang khai thác","Lng":106.482099,"Lat":10.971617,"Search":"BxCC BxCC Ql22","Routes":"100, 107, 126, 13, 62-3, 70-1, 70-2, 74, 79, 87, 94"}]