[{"StopId":7771,"Code":"TĐC_110","Name":"Bến Đò Ấp 3","StopType":"Bến xe","Zone":"Huyện Nhà Bè","Ward":"Thị trấn Nhà Bè","AddressNo":"Bến Đò Bảy Bé","Street":"Đào sư Tích","SupportDisability":"Có","Status":"Đang khai thác","Lng":106.680422,"Lat":10.683698,"Search":"BDA3 BDBB DsT","Routes":"110"},{"StopId":7765,"Code":"HNB 144-1","Name":"Đào sư Tích","StopType":"Nhà chờ","Zone":"Huyện Nhà Bè","Ward":"Thị trấn Nhà Bè","AddressNo":"Trường Tiểu học Bùi Thanh Khiết","Street":" Đào Sư Tích","SupportDisability":"Có","Status":"Đang khai thác","Lng":106.682712,"Lat":10.688144,"Search":"DsT TThBTK DST","Routes":"110"},{"StopId":7770,"Code":"HNB 142-1","Name":"Đào sư Tích","StopType":"Trụ dừng","Zone":"Huyện Nhà Bè","Ward":"Thị trấn Nhà Bè","AddressNo":"ĐD464","Street":"Đào sư Tích","SupportDisability":"Có","Status":"Đang khai thác","Lng":106.685057,"Lat":10.696749,"Search":"DsT D DsT","Routes":"110"},{"StopId":7763,"Code":"HNB 145-1","Name":"Đào sư Tích","StopType":"Trụ dừng","Zone":"Huyện Nhà Bè","Ward":"Thị trấn Nhà Bè","AddressNo":"Trước UBND Xã Phước Lộc","Street":"Đào sư Tích","SupportDisability":"Có","Status":"Đang khai thác","Lng":106.685963,"Lat":10.699477,"Search":"DsT TUXPL DsT","Routes":"110"},{"StopId":7762,"Code":"HNB 137-1","Name":"Đào sư Tích","StopType":"Trụ dừng","Zone":"Huyện Nhà Bè","Ward":"Thị trấn Nhà Bè","AddressNo":"327a","Street":"Đào sư Tích","SupportDisability":"Có","Status":"Đang khai thác","Lng":106.68643,"Lat":10.70025,"Search":"DsT 327a DsT","Routes":"110"},{"StopId":7760,"Code":"HNB 141-1","Name":" Đào Sư Tích","StopType":"Trụ dừng","Zone":"Huyện Nhà Bè","Ward":"Thị trấn Nhà Bè","AddressNo":"ĐD276","Street":" Đào Sư Tích","SupportDisability":"Có","Status":"Đang khai thác","Lng":106.687632,"Lat":10.703201,"Search":"DST D DST","Routes":"110"},{"StopId":7163,"Code":"HNB 134","Name":"Trường THCS Lê Thành Công","StopType":"Ô sơn","Zone":"Huyện Nhà Bè","Ward":"Xã Phước Kiển","AddressNo":"63","Street":"Đào Sư Tích","SupportDisability":"Có","Status":"Đang khai thác","Lng":106.697052,"Lat":10.712278,"Search":"TTLTC 63 DST","Routes":"110"},{"StopId":2799,"Code":"HNB 082","Name":"Đào Sư Tích","StopType":"Ô sơn","Zone":"Huyện Nhà Bè","Ward":null,"AddressNo":"304A","Street":"Lê Văn Lương","SupportDisability":"","Status":"Đang khai thác","Lng":106.701193,"Lat":10.712937,"Search":"DST 304A LVL","Routes":"110, 86"},{"StopId":2798,"Code":"HNB 081","Name":"Ngọc Lâm","StopType":"Ô sơn","Zone":"Huyện Nhà Bè","Ward":"Xã Phước Kiển","AddressNo":"426","Street":"Lê Văn Lương","SupportDisability":"","Status":"Đang khai thác","Lng":106.702652,"Lat":10.708304,"Search":"NL 426 LVL","Routes":"110, 86"},{"StopId":2801,"Code":"HNB 080","Name":"Bệnh viện huyện Nhà Bè","StopType":"Ô sơn","Zone":"Huyện Nhà Bè","Ward":null,"AddressNo":"506-508","Street":"Lê Văn Lương","SupportDisability":"","Status":"Đang khai thác","Lng":106.703484,"Lat":10.70505,"Search":"BvhNB 506-508 LVL","Routes":"110, 86"},{"StopId":2800,"Code":"HNB 079","Name":"Thu Liễu","StopType":"Ô sơn","Zone":"Huyện Nhà Bè","Ward":"Xã Phước Kiển","AddressNo":"162","Street":"Lê Văn Lương","SupportDisability":"","Status":"Đang khai thác","Lng":106.704202,"Lat":10.699886,"Search":"TL 162 LVL","Routes":"110, 86"},{"StopId":2803,"Code":"HNB 078","Name":"Phạm Hữu Lầu","StopType":"Ô sơn","Zone":"Huyện Nhà Bè","Ward":null,"AddressNo":"1358","Street":"Lê Văn Lương","SupportDisability":"","Status":"Đang khai thác","Lng":106.704834,"Lat":10.695667,"Search":"PHL 1358 LVL","Routes":"110, 86"},{"StopId":7165,"Code":"HNB 136","Name":"Phạm Hữu Lầu","StopType":"Ô sơn","Zone":"Huyện Nhà Bè","Ward":"Xã Phước Kiển","AddressNo":"Trụ điện 57T","Street":"Phạm Hữu Lầu","SupportDisability":"Có","Status":"Đang khai thác","Lng":106.707115,"Lat":10.694377,"Search":"PHL Td57T PHL","Routes":"110"},{"StopId":7167,"Code":"HNB 138","Name":"Nguyễn Hữu Thọ","StopType":"Ô sơn","Zone":"Huyện Nhà Bè","Ward":"Xã Phước Kiển","AddressNo":"14","Street":"Phạm Hữu Lầu","SupportDisability":"Có","Status":"Đang khai thác","Lng":106.718767,"Lat":10.697498,"Search":"NHT 14 PHL","Routes":"110"},{"StopId":7169,"Code":"HNB 140","Name":"Cầu Phước Long","StopType":"Ô sơn","Zone":"Huyện Nhà Bè","Ward":"Xã Phước Kiển","AddressNo":"334","Street":"Phạm Hữu Lầu","SupportDisability":"Có","Status":"Đang khai thác","Lng":106.721792,"Lat":10.702189,"Search":"CPL 334 PHL","Routes":"110"},{"StopId":7161,"Code":"Q7 191","Name":"Đường 15B","StopType":"Trụ dừng","Zone":"Quận 7","Ward":"Phường Phú Mỹ","AddressNo":"289","Street":"Phạm Hữu Lầu","SupportDisability":"Có","Status":"Đang khai thác","Lng":106.730644,"Lat":10.70425,"Search":"D15B 289 PHL","Routes":"110"},{"StopId":1057,"Code":"Q7 169","Name":"Khu dân cư Kỹ Nguyên","StopType":"Trụ dừng","Zone":"Quận 7","Ward":"Phường Phú Mỹ","AddressNo":"63-65","Street":"Phạm Hữu Lầu","SupportDisability":"","Status":"Đang khai thác","Lng":106.735198,"Lat":10.704788,"Search":"KdcKN 63-65 PHL","Routes":"110, 139"},{"StopId":1055,"Code":"HNB 001","Name":"Chợ Phú Xuân","StopType":"Trụ dừng","Zone":"Huyện Nhà Bè","Ward":"Thị trấn Nhà Bè","AddressNo":"1678-1680 (26/1-26/2)","Street":"Huỳnh Tấn Phát","SupportDisability":"","Status":"Đang khai thác","Lng":106.73817,"Lat":10.701088,"Search":"CPX 1678-1680( HTP","Routes":"110, 20, 75"},{"StopId":1147,"Code":"HNB 028","Name":"Nha khoa Khánh Minh","StopType":"Trụ dừng","Zone":"Huyện Nhà Bè","Ward":"Thị trấn Nhà Bè","AddressNo":"1901B","Street":"Huỳnh Tấn Phát","SupportDisability":"","Status":"Đang khai thác","Lng":106.738785,"Lat":10.6984,"Search":"NkKM 1901B HTP","Routes":"110, 20"},{"StopId":1058,"Code":"HNB 003","Name":"Công an Thị trấn Nhà Bè","StopType":"Trụ dừng","Zone":"Huyện Nhà Bè","Ward":"Thị trấn Nhà Bè","AddressNo":"242 (42/7)","Street":"Huỳnh Tấn Phát","SupportDisability":"","Status":"Đang khai thác","Lng":106.739666,"Lat":10.695869,"Search":"CaTtNB 242( HTP","Routes":"110, 20, 75"},{"StopId":1061,"Code":"HNB 004","Name":"Trường Lâm Văn Bền","StopType":"Trụ dừng","Zone":"Huyện Nhà Bè","Ward":"Thị trấn Nhà Bè","AddressNo":"57/4","Street":"Huỳnh Tấn Phát","SupportDisability":"","Status":"Đang khai thác","Lng":106.740546,"Lat":10.69345,"Search":"TLVB 57/4 HTP","Routes":"110, 20, 75"},{"StopId":1063,"Code":"HNB 005","Name":"Chùa Lá","StopType":"Trụ dừng","Zone":"Huyện Nhà Bè","Ward":"Thị trấn Nhà Bè","AddressNo":"Kế 4/11C","Street":"Huỳnh Tấn Phát","SupportDisability":"","Status":"Đang khai thác","Lng":106.741694,"Lat":10.690113,"Search":"CL K4/11C HTP","Routes":"110, 20, 75"},{"StopId":1060,"Code":"HNB 006","Name":"Ngân hàng Agribank","StopType":"Trụ dừng","Zone":"Huyện Nhà Bè","Ward":"Thị trấn Nhà Bè","AddressNo":"2132","Street":"Huỳnh Tấn Phát","SupportDisability":"","Status":"Đang khai thác","Lng":106.743314,"Lat":10.686992,"Search":"NhA 2132 HTP","Routes":"110, 20, 75"},{"StopId":1065,"Code":"HNB 007","Name":"Chùa Pháp Võ","StopType":"Trụ dừng","Zone":"Huyện Nhà Bè","Ward":"Xã Phú Xuân","AddressNo":"536","Street":"Huỳnh Tấn Phát","SupportDisability":"","Status":"Đang khai thác","Lng":106.74538,"Lat":10.683998,"Search":"CPV 536 HTP","Routes":"110, 20, 75"},{"StopId":1062,"Code":"HNB 008","Name":"Đào Tông Nguyên","StopType":"Nhà chờ","Zone":"Huyện Nhà Bè","Ward":"Xã Phú Xuân","AddressNo":"Đối diện 23/5","Street":"Huỳnh Tấn Phát","SupportDisability":"","Status":"Đang khai thác","Lng":106.746764,"Lat":10.682021,"Search":"DTN Dd23/5 HTP","Routes":"110, 20, 75"},{"StopId":1066,"Code":"HNB 009","Name":"Công Tiến Thọ","StopType":"Trụ dừng","Zone":"Huyện Nhà Bè","Ward":"Xã Phú Xuân","AddressNo":"2374 (15/6B)","Street":"Huỳnh Tấn Phát","SupportDisability":"","Status":"Đang khai thác","Lng":106.750803,"Lat":10.679275,"Search":"CTT 2374( HTP","Routes":"110, 20, 75"},{"StopId":1064,"Code":"HNB 010","Name":"Ngã Ba Bờ Đăng","StopType":"Trụ dừng","Zone":"Huyện Nhà Bè","Ward":"Xã Phú Xuân","AddressNo":"12/8H","Street":"Huỳnh Tấn Phát","SupportDisability":"","Status":"Đang khai thác","Lng":106.753196,"Lat":10.6784,"Search":"NBBD 12/8H HTP","Routes":"110, 20, 75"},{"StopId":1069,"Code":"HNB 029","Name":"Ngã Ba Bờ Đăng","StopType":"Trụ dừng","Zone":"Huyện Nhà Bè","Ward":null,"AddressNo":"32","Street":"Nguyễn Bình","SupportDisability":"","Status":"Đang khai thác","Lng":106.751747,"Lat":10.67775,"Search":"NBBD 32 NB","Routes":"110"},{"StopId":1067,"Code":"HNB 030","Name":"Đại lý bảo hiểm xe máy","StopType":"Trụ dừng","Zone":"Huyện Nhà Bè","Ward":null,"AddressNo":"98","Street":"Nguyễn Bình","SupportDisability":"","Status":"Đang khai thác","Lng":106.747803,"Lat":10.676867,"Search":"Dlbhxm 98 NB","Routes":"110"},{"StopId":1071,"Code":"HNB 031","Name":"Rạch Ngang","StopType":"Trụ dừng","Zone":"Huyện Nhà Bè","Ward":null,"AddressNo":"192 (13/1)","Street":"Nguyễn Bình","SupportDisability":"","Status":"Đang khai thác","Lng":106.744499,"Lat":10.676117,"Search":"RN 192( NB","Routes":"110"},{"StopId":1068,"Code":"HNB 032","Name":"Đình Đức Hưng Thạnh","StopType":"Trụ dừng","Zone":"Huyện Nhà Bè","Ward":null,"AddressNo":"243 ( Đình Đức Hưng Thạnh)","Street":"Nguyễn Bình","SupportDisability":"","Status":"Đang khai thác","Lng":106.741402,"Lat":10.67545,"Search":"DDHT 243(DDHT NB","Routes":"110"},{"StopId":1073,"Code":"HNB 033","Name":"Trường tiểu học Nguyễn Bình","StopType":"Trụ dừng","Zone":"Huyện Nhà Bè","Ward":null,"AddressNo":"Đối diện 269A (Đ/d 1/2C)","Street":"Nguyễn Bình","SupportDisability":"","Status":"Đang khai thác","Lng":106.738251,"Lat":10.67475,"Search":"TthNB Dd269A(1/2C) NB","Routes":"110"},{"StopId":1070,"Code":"HNB 034","Name":"Ủy ban huyện Nhà Bè","StopType":"Ô sơn","Zone":"Huyện Nhà Bè","Ward":null,"AddressNo":"UBND Huyện Nhà Bè","Street":"Nguyễn Bình","SupportDisability":"","Status":"Đang khai thác","Lng":106.734154,"Lat":10.67385,"Search":"?bhNB UHNB NB","Routes":"110"},{"StopId":1075,"Code":"HNB 035","Name":"Cầu Mương Chuối","StopType":"Trụ dừng","Zone":"Huyện Nhà Bè","Ward":null,"AddressNo":"486 (17/6)","Street":"Nguyễn Bình","SupportDisability":"","Status":"Đang khai thác","Lng":106.730316,"Lat":10.673017,"Search":"CMC 486( NB","Routes":"110"},{"StopId":1072,"Code":"HNB 036","Name":"Cầu Bà Chiêm","StopType":"Trụ dừng","Zone":"Huyện Nhà Bè","Ward":null,"AddressNo":"578 (5/12)","Street":"Nguyễn Bình","SupportDisability":"","Status":"Đang khai thác","Lng":106.724968,"Lat":10.671817,"Search":"CBC 578( NB","Routes":"110"},{"StopId":4161,"Code":"HNB 045","Name":"Nguyễn Văn Tạo","StopType":"Trụ dừng","Zone":"Huyện Nhà Bè","Ward":null,"AddressNo":"Bưu điện Long Thới","Street":"Nguyễn Văn Tạo","SupportDisability":"","Status":"Đang khai thác","Lng":106.72375,"Lat":10.670545,"Search":"NVT BdLT NVT","Routes":"110"},{"StopId":1078,"Code":"HNB 112","Name":"Vòng xoay Long Thới","StopType":"Trụ dừng","Zone":"Huyện Nhà Bè","Ward":null,"AddressNo":"74","Street":"Nguyễn Văn Tạo","SupportDisability":"","Status":"Đang khai thác","Lng":106.724791,"Lat":10.667366,"Search":"VxLT 74 NVT","Routes":"110, 72"},{"StopId":1074,"Code":"HNB 073","Name":"Hàng Tre","StopType":"Trụ dừng","Zone":"Huyện Nhà Bè","Ward":null,"AddressNo":"Đối diện 206","Street":"Nguyễn Văn Tạo","SupportDisability":"","Status":"Đang khai thác","Lng":106.725929,"Lat":10.663817,"Search":"HT Dd206 NVT","Routes":"110, 72"},{"StopId":7592,"Code":"HNB 156","Name":"Trạm radar thời tiết Nhà Bè","StopType":"Trụ dừng","Zone":"Huyện Nhà Bè","Ward":"Xã Long Thới","AddressNo":"192","Street":"Nguyễn Văn Tạo","SupportDisability":"Có","Status":"Đang khai thác","Lng":106.726835,"Lat":10.66065,"Search":"TrttNB 192 NVT","Routes":"110, 72"},{"StopId":1076,"Code":"HNB 072","Name":"Trường Long Thới","StopType":"Trụ dừng","Zone":"Huyện Nhà Bè","Ward":null,"AddressNo":"Công an huyện Nhà Bè","Street":"Nguyễn Văn Tạo","SupportDisability":"","Status":"Đang khai thác","Lng":106.728176,"Lat":10.656775,"Search":"TLT CahNB NVT","Routes":"110, 72"},{"StopId":1077,"Code":"HNB 071","Name":"Bệnh viện Nhân Tâm","StopType":"Trụ dừng","Zone":"Huyện Nhà Bè","Ward":null,"AddressNo":"288 (239)","Street":"Nguyễn Văn Tạo","SupportDisability":"","Status":"Đang khai thác","Lng":106.729431,"Lat":10.6529,"Search":"BvNT 288( NVT","Routes":"110, 72"},{"StopId":1080,"Code":"HNB 070","Name":"Chợ Bà Chồi","StopType":"Trụ dừng","Zone":"Huyện Nhà Bè","Ward":null,"AddressNo":"372 (Chợ Bà Chồi)","Street":"Nguyễn Văn Tạo","SupportDisability":"","Status":"Đang khai thác","Lng":106.730316,"Lat":10.650117,"Search":"CBC 372(BC NVT","Routes":"110, 72"},{"StopId":1079,"Code":"HNB 069","Name":"Công ty may Đại Sơn","StopType":"Trụ dừng","Zone":"Huyện Nhà Bè","Ward":null,"AddressNo":"482B","Street":"Nguyễn Văn Tạo","SupportDisability":"","Status":"Đang khai thác","Lng":106.731148,"Lat":10.647491,"Search":"CtmDS 482B NVT","Routes":"110, 72"},{"StopId":1081,"Code":"HNB 068","Name":"Trung tâm dạy nghề","StopType":"Trụ dừng","Zone":"Huyện Nhà Bè","Ward":null,"AddressNo":"568 (Đ/d Trung tâm dạy nghề Nhà Bè )","Street":"Nguyễn Văn Tạo","SupportDisability":"","Status":"Đang khai thác","Lng":106.732651,"Lat":10.642867,"Search":"Ttdn 568(TtdnNB) NVT","Routes":"110, 72"},{"StopId":7307,"Code":"HNB_097","Name":"Chợ tạm","StopType":"Trụ dừng","Zone":"Huyện Nhà Bè","Ward":"Thị trấn Nhà Bè","AddressNo":"129","Street":"Nguyễn Văn Tạo","SupportDisability":"Có","Status":"Đang khai thác","Lng":106.733857,"Lat":10.639414,"Search":"Ct 129 NVT","Routes":"110, 72"},{"StopId":1082,"Code":"HNB 066","Name":"Cầu Hiệp Phước","StopType":"Trụ dừng","Zone":"Huyện Nhà Bè","Ward":null,"AddressNo":"718","Street":"Nguyễn Văn Tạo","SupportDisability":"","Status":"Đang khai thác","Lng":106.735284,"Lat":10.634253,"Search":"CHP 718 NVT","Routes":"110, 72"},{"StopId":1085,"Code":"HNB 065","Name":"Ngã tư Long Hậu","StopType":"Trụ dừng","Zone":"Huyện Nhà Bè","Ward":null,"AddressNo":"Đối diện 929","Street":"Nguyễn Văn Tạo","SupportDisability":"","Status":"Đang khai thác","Lng":106.736143,"Lat":10.630685,"Search":"NtLH Dd929 NVT","Routes":"110, 72"},{"StopId":1084,"Code":"HNB 114","Name":"Thành Công","StopType":"Trụ dừng","Zone":"Huyện Nhà Bè","Ward":null,"AddressNo":"CHVLXD Thành Công","Street":"Nguyễn Văn Tạo","SupportDisability":"","Status":"Đang khai thác","Lng":106.737118,"Lat":10.626165,"Search":"TC CTC NVT","Routes":"110, 72"},{"StopId":1087,"Code":"HNB 056","Name":"Giáo xứ Tin Mừng","StopType":"Trụ dừng","Zone":"Huyện Nhà Bè","Ward":null,"AddressNo":"Kế 280 (Cửa sắt Hoàng Cẩn)","Street":"Nguyễn Văn Tạo","SupportDisability":"","Status":"Đang khai thác","Lng":106.737939,"Lat":10.622401,"Search":"GxTM K280(sHC NVT","Routes":"110, 72"},{"StopId":1086,"Code":"HNB 063","Name":"Công an xã Hiệp Phước","StopType":"Trụ dừng","Zone":"Huyện Nhà Bè","Ward":null,"AddressNo":"Đối diện cửa hàng Ba Thủy","Street":"Nguyễn Văn Tạo","SupportDisability":"","Status":"Đang khai thác","Lng":106.739017,"Lat":10.617386,"Search":"CaxHP DdchBT NVT","Routes":"110, 72"},{"StopId":1089,"Code":"HNB 062","Name":"Chùa Phước Linh","StopType":"Trụ dừng","Zone":"Huyện Nhà Bè","Ward":null,"AddressNo":"Cột điện 141P","Street":"Nguyễn Văn Tạo","SupportDisability":"","Status":"Đang khai thác","Lng":106.739983,"Lat":10.609535,"Search":"CPL Cd141P NVT","Routes":"110, 72"},{"StopId":1091,"Code":"HNB 061","Name":"Nhà Tưởng niệm Liệt sỹ Nhà Bè","StopType":"Ô sơn","Zone":"Huyện Nhà Bè","Ward":null,"AddressNo":"1/58A","Street":"Nguyễn Văn Tạo","SupportDisability":"","Status":"Đang khai thác","Lng":106.741072,"Lat":10.604421,"Search":"NTnLsNB 1/58A NVT","Routes":"110, 72"},{"StopId":1088,"Code":"BX 71","Name":"Cầu Kênh Lộ","StopType":"Bến xe","Zone":"Huyện Nhà Bè","Ward":"Xã Hiệp Phước","AddressNo":"Đầu bến kênh lộ","Street":"Nguyễn Văn Tạo","SupportDisability":"","Status":"Đang khai thác","Lng":106.742727,"Lat":10.598307,"Search":"CKL Dbkl NVT","Routes":"110, 72"}]