[{"StopId":2989,"Code":"BX 22","Name":"Bến Mễ Cốc (Rạch Cát)","StopType":"Bến xe","Zone":"Quận 8","Ward":null,"AddressNo":"ĐẦU BẾN BẾN MỄ CỐC","Street":"Lưu Hữu Phước","SupportDisability":"","Status":"Đang khai thác","Lng":106.626114,"Lat":10.712879,"Search":"BMC(C DBBMC LHP","Routes":"46"},{"StopId":2991,"Code":"Q8 141","Name":"Cầu Rạch Cát","StopType":"Trụ dừng","Zone":"Quận 8","Ward":null,"AddressNo":"Đối diện 320","Street":"Lưu Hữu Phước","SupportDisability":"","Status":"Đang khai thác","Lng":106.630341,"Lat":10.716231,"Search":"CRC Dd320 LHP","Routes":"46"},{"StopId":2992,"Code":"Q8 099","Name":"KTX trường Công nghệ thực phẩm","StopType":"Trụ dừng","Zone":"Quận 8","Ward":null,"AddressNo":"Đ/d Trường TH CNTP","Street":"Lưu Hữu Phước","SupportDisability":"","Status":"Đang khai thác","Lng":106.632019,"Lat":10.719056,"Search":"KtCntp DTTC LHP","Routes":"46"},{"StopId":2993,"Code":"Q8 097","Name":"Cầu Số 3","StopType":"Ô sơn","Zone":"Quận 8","Ward":null,"AddressNo":"Đối diện 19","Street":"Bình Đức","SupportDisability":"","Status":"Đang khai thác","Lng":106.63123,"Lat":10.724591,"Search":"CS3 Dd19 BD","Routes":"46"},{"StopId":2998,"Code":"Q8 105","Name":"cầu Kinh Ngang Số 2","StopType":"Trụ dừng","Zone":"Quận 8","Ward":null,"AddressNo":"Cạnh cây xanh 155","Street":"Bến Bình Đông","SupportDisability":"","Status":"Đang khai thác","Lng":106.64506,"Lat":10.739833,"Search":"cKNS2 Ccx155 BBD","Routes":"46"},{"StopId":2999,"Code":"Q8 106","Name":"Kho 289","StopType":"Trụ dừng","Zone":"Quận 8","Ward":null,"AddressNo":"289","Street":"Bến Bình Đông","SupportDisability":"","Status":"Đang khai thác","Lng":106.647415,"Lat":10.74129,"Search":"K289 289 BBD","Routes":"46"},{"StopId":3000,"Code":"Q8 107","Name":"Cầu số 1","StopType":"Trụ dừng","Zone":"Quận 8","Ward":null,"AddressNo":"Cạnh cây xanh 107","Street":"Bến Bình Đông","SupportDisability":"","Status":"Đang khai thác","Lng":106.650406,"Lat":10.743056,"Search":"Cs1 Ccx107 BBD","Routes":"46"},{"StopId":3002,"Code":"Q8 109","Name":"Coop Mart Tuy Lý Vương","StopType":"Ô sơn","Zone":"Quận 8","Ward":null,"AddressNo":"99-101","Street":"Tuy Lúy Vương","SupportDisability":"","Status":"Đang khai thác","Lng":106.655177,"Lat":10.743918,"Search":"CMTLV 99-101 TLV","Routes":"46"},{"StopId":542,"Code":"Q8 111","Name":"Tùng Thiện Vương","StopType":"Ô sơn","Zone":"Quận 8","Ward":null,"AddressNo":"487","Street":"Tùng Thiện Vương","SupportDisability":"","Status":"Đang khai thác","Lng":106.656802,"Lat":10.744513,"Search":"TTV 487 TTV","Routes":"08, 25, 45, 46, 47, 62"},{"StopId":501,"Code":"Q8 112","Name":"Chợ Xóm Củi","StopType":"Trụ dừng","Zone":"Quận 8","Ward":null,"AddressNo":"337","Street":"Tùng Thiện Vương","SupportDisability":"","Status":"Đang khai thác","Lng":106.659763,"Lat":10.746073,"Search":"CXC 337 TTV","Routes":"08, 25, 45, 46, 47, 62"},{"StopId":3008,"Code":"Q8 127","Name":"Lê Quang Kim","StopType":"Ô sơn","Zone":"Quận 8","Ward":null,"AddressNo":"365","Street":"Hưng Phú","SupportDisability":"","Status":"Đang khai thác","Lng":106.67531,"Lat":10.747907,"Search":"LQK 365 HP","Routes":"46"},{"StopId":3007,"Code":"Q8 128","Name":"Viện Y tế Cộng đồng","StopType":"Trụ dừng","Zone":"Quận 8","Ward":null,"AddressNo":"Đối diện 260","Street":"Hưng Phú","SupportDisability":"","Status":"Đang khai thác","Lng":106.678265,"Lat":10.749678,"Search":"VYtCd Dd260 HP","Routes":"46"},{"StopId":3010,"Code":"Q8 129","Name":"Công an Phường 8","StopType":"Trụ dừng","Zone":"Quận 8","Ward":null,"AddressNo":"105","Street":"Hưng Phú","SupportDisability":"","Status":"Đang khai thác","Lng":106.682439,"Lat":10.750711,"Search":"CaP8 105 HP","Routes":"46"},{"StopId":1438,"Code":"Q8 045","Name":"Công viên Phường 2","StopType":"Trụ dừng","Zone":"Quận 8","Ward":null,"AddressNo":"231-233","Street":"Phạm Thế Hiển","SupportDisability":"","Status":"Đang khai thác","Lng":106.683533,"Lat":10.749104,"Search":"CvP2 231-233 PTH","Routes":"140, 46, 68"},{"StopId":3009,"Code":"Q5 037","Name":"Chung cư 109 Nguyễn Biểu","StopType":"Trụ dừng","Zone":"Quận 5","Ward":null,"AddressNo":"64","Street":"Nguyễn Biểu","SupportDisability":"","Status":"Đang khai thác","Lng":106.683945,"Lat":10.755424,"Search":"Cc109NB 64 NB","Routes":"46, 68"},{"StopId":3012,"Code":"Q5 038","Name":"Trường THCS Ba Đình","StopType":"Trụ dừng","Zone":"Quận 5","Ward":null,"AddressNo":"230","Street":"Nguyễn Biểu","SupportDisability":"","Status":"Đang khai thác","Lng":106.682927,"Lat":10.75819,"Search":"TTBD 230 NB","Routes":"46, 68"},{"StopId":1052,"Code":"Q1 150","Name":"Báo An Ninh Thế Giới","StopType":"Trụ dừng","Zone":"Quận 1","Ward":null,"AddressNo":"371A","Street":"Nguyễn Trãi","SupportDisability":"","Status":"Đang khai thác","Lng":106.685104,"Lat":10.759869,"Search":"BANTG 371A NT","Routes":"45, 46, 56"},{"StopId":1053,"Code":"Q1 151","Name":"Nhà Khách Bộ Công An","StopType":"Trụ dừng","Zone":"Quận 1","Ward":null,"AddressNo":"333","Street":"Nguyễn Trãi","SupportDisability":"","Status":"Đang khai thác","Lng":106.686394,"Lat":10.762006,"Search":"NKBCA 333 NT","Routes":"45, 46, 56"},{"StopId":1056,"Code":"Q1 152","Name":"Chùa Lâm Tế","StopType":"Nhà chờ","Zone":"Quận 1","Ward":null,"AddressNo":"217","Street":"Nguyễn Trãi","SupportDisability":"","Status":"Đang khai thác","Lng":106.688004,"Lat":10.765754,"Search":"CLT 217 NT","Routes":"46"},{"StopId":7276,"Code":"Q1 190","Name":"Tôn Thất Tùng","StopType":"Trụ dừng","Zone":"Quận 1","Ward":"Phường Phạm Ngũ Lão","AddressNo":"277-279-275Y","Street":"Phạm Ngũ Lão","SupportDisability":"Có","Status":"Đang khai thác","Lng":106.690941,"Lat":10.76767,"Search":"TTT 277-279-275Y PNL","Routes":"03, 04, 102, 109, 13, 140, 156V, 18, 19, 20, 28, 34, 36, 39, 46, 52, 65, 69, 72, 72-2B, 75, 86, 88, 93, D4"},{"StopId":7277,"Code":"Q1 191","Name":"Nguyễn Thị Nghĩa","StopType":"Trụ dừng","Zone":"Quận 1","Ward":"Phường Phạm Ngũ Lão","AddressNo":"187","Street":"Phạm Ngũ Lão","SupportDisability":"Có","Status":"Đang khai thác","Lng":106.693699,"Lat":10.768788,"Search":"NTN 187 PNL","Routes":"03, 04, 102, 109, 13, 140, 156V, 18, 19, 20, 28, 34, 36, 39, 46, 52, 65, 69, 72, 72-2B, 93, D4, DL01, DL02"},{"StopId":1451,"Code":"Q1 118","Name":"Trần Hưng Đạo","StopType":"Trụ dừng","Zone":"Quận 1","Ward":null,"AddressNo":"197","Street":"Nguyễn Thái Học","SupportDisability":"","Status":"Đang khai thác","Lng":106.694984,"Lat":10.768461,"Search":"THD 197 NTH","Routes":"102, 140, 152, 31, 38, 46, 56, 72"},{"StopId":1344,"Code":"Q1 119","Name":"Cầu Ông Lãnh","StopType":"Nhà chờ","Zone":"Quận 1","Ward":"Phường Cầu Ông Lãnh","AddressNo":"65G (75)","Street":"Nguyễn Thái Học","SupportDisability":"Có","Status":"Đang khai thác","Lng":106.696011,"Lat":10.766785,"Search":"COL 65G( NTH","Routes":"139, 140, 31, 46, 72"},{"StopId":1196,"Code":"Q4 010","Name":"Hoàng Diệu","StopType":"Trụ dừng","Zone":"Quận 4","Ward":null,"AddressNo":"K48-K50","Street":"Hoàng Diệu","SupportDisability":"","Status":"Đang khai thác","Lng":106.699836,"Lat":10.760735,"Search":"HD K HD","Routes":"139, 140, 38, 46, 72, 86"},{"StopId":3011,"Code":"Q4 017","Name":"Chùa Long Bửu","StopType":"Trụ dừng","Zone":"Quận 4","Ward":null,"AddressNo":"Hông Chùa Long Bửu","Street":"Khánh Hội","SupportDisability":"","Status":"Đang khai thác","Lng":106.697942,"Lat":10.760487,"Search":"CLB HCLB KH","Routes":"46"},{"StopId":3014,"Code":"Q4 003","Name":"Trung tâm văn hóa Quận 4","StopType":"Nhà chờ","Zone":"Quận 4","Ward":null,"AddressNo":"Đối diện 226","Street":"Bến Vân Đồn","SupportDisability":"","Status":"Đang khai thác","Lng":106.69606,"Lat":10.760109,"Search":"TtvhQ4 Dd226 BVD","Routes":"46"},{"StopId":3013,"Code":"Q4 004","Name":"Nguyễn Khoái","StopType":"Nhà chờ","Zone":"Quận 4","Ward":null,"AddressNo":"Đối diện 310","Street":"Bến Vân Đồn","SupportDisability":"","Status":"Đang khai thác","Lng":106.693554,"Lat":10.758469,"Search":"NK Dd310 BVD","Routes":"46"},{"StopId":3016,"Code":"Q4 023","Name":"Trạm xăng Nguyễn Khoái","StopType":"Trụ dừng","Zone":"Quận 4","Ward":null,"AddressNo":"123","Street":"Nguyễn Khoái","SupportDisability":"","Status":"Đang khai thác","Lng":106.693169,"Lat":10.757124,"Search":"TxNK 123 NK","Routes":"46"},{"StopId":3015,"Code":"Q4 024","Name":"Trung tâm Giáo dục thường xuyên Quận 4","StopType":"Nhà chờ","Zone":"Quận 4","Ward":null,"AddressNo":"9","Street":"Nguyễn Khoái","SupportDisability":"","Status":"Đang khai thác","Lng":106.694235,"Lat":10.75517,"Search":"TtGdtxQ4 9 NK","Routes":"46"},{"StopId":3017,"Code":"Q4 025","Name":"Chợ Tôn Thất Thuyết","StopType":"Trụ dừng","Zone":"Quận 4","Ward":null,"AddressNo":"13","Street":"Nguyễn Khoái","SupportDisability":"","Status":"Đang khai thác","Lng":106.69511,"Lat":10.753584,"Search":"CTTT 13 NK","Routes":"46"},{"StopId":3018,"Code":"Q4 047","Name":"Bệnh viện Phước an","StopType":"Trụ dừng","Zone":"Quận 4","Ward":null,"AddressNo":"Đối diện 197","Street":"Tôn Thất Thuyết","SupportDisability":"","Status":"Đang khai thác","Lng":106.700678,"Lat":10.752988,"Search":"BvPa Dd197 TTT","Routes":"46"},{"StopId":2782,"Code":"Q4 048","Name":"UBND Phường 4","StopType":"Trụ dừng","Zone":"Quận 4","Ward":null,"AddressNo":"Đối diện 183N","Street":"Tôn Thất Thuyết","SupportDisability":"","Status":"Đang khai thác","Lng":106.703483,"Lat":10.753109,"Search":"UP4 Dd183N TTT","Routes":"44, 46"},{"StopId":2784,"Code":"Q4 049","Name":"Tôn Đản","StopType":"Trụ dừng","Zone":"Quận 4","Ward":null,"AddressNo":"Đối diện 168","Street":"Tôn Thất Thuyết","SupportDisability":"","Status":"Đang khai thác","Lng":106.706074,"Lat":10.75322,"Search":"TD Dd168 TTT","Routes":"46"},{"StopId":2785,"Code":"Q4 050","Name":"Trường Đại học Nguyễn Tất Thành","StopType":"Trụ dừng","Zone":"Quận 4","Ward":null,"AddressNo":"Đối diện 125A","Street":"Tôn Thất Thuyết","SupportDisability":"","Status":"Đang khai thác","Lng":106.709009,"Lat":10.753236,"Search":"TDhNTT Dd125A TTT","Routes":"46"},{"StopId":2786,"Code":"Q4 051","Name":"Khu vui chơi thiếu nhi","StopType":"Trụ dừng","Zone":"Quận 4","Ward":null,"AddressNo":"Đối diện 78","Street":"Tôn Thất Thuyết","SupportDisability":"","Status":"Đang khai thác","Lng":106.713488,"Lat":10.753251,"Search":"Kvctn Dd78 TTT","Routes":"46"},{"StopId":2787,"Code":"Q4 052","Name":"Nguyễn Thần Hiến","StopType":"Trụ dừng","Zone":"Quận 4","Ward":null,"AddressNo":"25Bis","Street":"Tôn Thất Thuyết","SupportDisability":"","Status":"Đang khai thác","Lng":106.715258,"Lat":10.75332,"Search":"NTH 25Bis TTT","Routes":"46"},{"StopId":2828,"Code":"Q4 041","Name":"Nguyễn Thần Hiến","StopType":"Trụ dừng","Zone":"Quận 4","Ward":null,"AddressNo":"23","Street":"Tôn Thất Thuyết","SupportDisability":"","Status":"Đang khai thác","Lng":106.716616,"Lat":10.753568,"Search":"NTH 23 TTT","Routes":"46"},{"StopId":2829,"Code":"Q4 042","Name":"Khu vui chơi thiếu nhi","StopType":"Trụ dừng","Zone":"Quận 4","Ward":null,"AddressNo":"78","Street":"Tôn Thất Thuyết","SupportDisability":"","Status":"Đang khai thác","Lng":106.713644,"Lat":10.753399,"Search":"Kvctn 78 TTT","Routes":"46"},{"StopId":2832,"Code":"Q4 043","Name":"Nhà Thờ Xóm Chiếu","StopType":"Trụ dừng","Zone":"Quận 4","Ward":null,"AddressNo":"101-102","Street":"Tôn Thất Thuyết","SupportDisability":"","Status":"Đang khai thác","Lng":106.709341,"Lat":10.753346,"Search":"NTXC 101-102 TTT","Routes":"46"},{"StopId":2831,"Code":"Q4 044","Name":"Tôn Đản","StopType":"Trụ dừng","Zone":"Quận 4","Ward":null,"AddressNo":"163-165","Street":"Tôn Thất Thuyết","SupportDisability":"","Status":"Đang khai thác","Lng":106.706294,"Lat":10.753336,"Search":"TD 163-165 TTT","Routes":"46"},{"StopId":2834,"Code":"Q4 045","Name":"Công An Phường 4","StopType":"Trụ dừng","Zone":"Quận 4","Ward":null,"AddressNo":"183B16","Street":"Tôn Thất Thuyết","SupportDisability":"","Status":"Đang khai thác","Lng":106.703601,"Lat":10.75323,"Search":"CAP4 183B16 TTT","Routes":"44, 46"},{"StopId":2783,"Code":"BX 12","Name":"Bến xe buýt Kho Muối","StopType":"Bến xe","Zone":"Quận 4","Ward":null,"AddressNo":"BẾN XE BUÝT KHO MUỐI","Street":"Tôn Thất Thuyết","SupportDisability":"","Status":"Đang khai thác","Lng":106.70174,"Lat":10.752714,"Search":"BxbKM BXBKM TTT","Routes":"44, 46"}]