[{"StopId":496,"Code":"BX 20","Name":"Bến xe buýt Quận 8","StopType":"Bến xe","Zone":"Quận 8","Ward":null,"AddressNo":"BẾN XE BUÝT QUẬN 8","Street":"Quốc lộ 50","SupportDisability":"","Status":"Đang khai thác","Lng":106.656357,"Lat":10.733545,"Search":"BxbQ8 BXBQ8 Ql50","Routes":"08, 22, 25, 34, 59, 62, 62-11, 62-9"},{"StopId":2148,"Code":"Q8 071","Name":"Bến xe Quận 8","StopType":"Trụ dừng","Zone":"Quận 8","Ward":null,"AddressNo":"328-330","Street":"Quốc lộ 50","SupportDisability":"","Status":"Đang khai thác","Lng":106.656051,"Lat":10.732776,"Search":"BxQ8 328-330 Ql50","Routes":"22, 45, 47, 62-11, 62-9"},{"StopId":2149,"Code":"HBC 168","Name":"Công an Bình Hưng","StopType":"Trụ dừng","Zone":"Huyện Bình Chánh","Ward":null,"AddressNo":"A6/17","Street":"Quốc lộ 50","SupportDisability":"","Status":"Đang khai thác","Lng":106.655971,"Lat":10.7308,"Search":"CaBH A Ql50","Routes":"22, 45, 47, 62-11, 62-9"},{"StopId":2151,"Code":"HBC 169","Name":"Mầm non Ánh Dương","StopType":"Trụ dừng","Zone":"Huyện Bình Chánh","Ward":null,"AddressNo":"A11/9 (A11/07)","Street":"Quốc lộ 50","SupportDisability":"","Status":"Đang khai thác","Lng":106.65589,"Lat":10.72789,"Search":"MnAD A( Ql50","Routes":"22, 45, 47, 62-11, 62-9"},{"StopId":2150,"Code":"HBC 170","Name":"Giáo xứ Bình Hưng","StopType":"Trụ dừng","Zone":"Huyện Bình Chánh","Ward":null,"AddressNo":"A13/1","Street":"Quốc lộ 50","SupportDisability":"","Status":"Đang khai thác","Lng":106.655831,"Lat":10.725292,"Search":"GxBH A Ql50","Routes":"22, 45, 47, 62-11, 62-9"},{"StopId":2153,"Code":"HBC 171","Name":"Bình Hưng","StopType":"Ô sơn","Zone":"Huyện Bình Chánh","Ward":null,"AddressNo":"B2/21A","Street":"Quốc lộ 50","SupportDisability":"","Status":"Đang khai thác","Lng":106.655686,"Lat":10.72058,"Search":"BH B Ql50","Routes":"22, 45, 47, 62-11, 62-9"},{"StopId":3019,"Code":"HBC 172","Name":"Nguyễn Văn Linh","StopType":"Ô sơn","Zone":"Huyện Bình Chánh","Ward":"Xã Bình Hưng","AddressNo":"B4/13","Street":"Quốc lộ 50","SupportDisability":"","Status":"Đang khai thác","Lng":106.655617,"Lat":10.718477,"Search":"NVL B Ql50","Routes":"47, 62-11, 62-9"},{"StopId":3020,"Code":"HBC 173","Name":"Trường tiều học Bình Hưng","StopType":"Trụ dừng","Zone":"Huyện Bình Chánh","Ward":"Xã Bình Hưng","AddressNo":"Cột điện T66P (B6/19)","Street":"Quốc lộ 50","SupportDisability":"","Status":"Đang khai thác","Lng":106.655531,"Lat":10.715762,"Search":"TthBH CdT( Ql50","Routes":"47, 62-11, 62-9"},{"StopId":3021,"Code":"HBC 174","Name":"Chùa An Hòa","StopType":"Ô sơn","Zone":"Huyện Bình Chánh","Ward":null,"AddressNo":"B8/31","Street":"Quốc lộ 50","SupportDisability":"","Status":"Đang khai thác","Lng":106.655627,"Lat":10.71193,"Search":"CAH B Ql50","Routes":"47, 62-11, 62-9"},{"StopId":3023,"Code":"HBC 176","Name":"Mầm non Anh Việt","StopType":"Trụ dừng","Zone":"Huyện Bình Chánh","Ward":null,"AddressNo":"E11/307","Street":"Quốc lộ 50","SupportDisability":"","Status":"Không có","Lng":106.655359,"Lat":10.708388,"Search":"MnAV E Ql50","Routes":"47, 62-11, 62-9"},{"StopId":3025,"Code":"HBC 177","Name":"Xăng dầu Phong Phú","StopType":"Ô sơn","Zone":"Huyện Bình Chánh","Ward":null,"AddressNo":"E4/106","Street":"Quốc lộ 50","SupportDisability":"","Status":"Đang khai thác","Lng":106.654801,"Lat":10.704672,"Search":"XdPP E Ql50","Routes":"47, 62-11, 62-9"},{"StopId":3024,"Code":"HBC 178","Name":"Chùa Thiện Phước","StopType":"Trụ dừng","Zone":"Huyện Bình Chánh","Ward":null,"AddressNo":"E5/142","Street":"Quốc lộ 50","SupportDisability":"","Status":"Đang khai thác","Lng":106.654308,"Lat":10.701515,"Search":"CTP E Ql50","Routes":"47, 62-11, 62-9"},{"StopId":3026,"Code":"HBC 179","Name":"Trung tâm tư vấn đào tạo Úc Mỹ","StopType":"Trụ dừng","Zone":"Huyện Bình Chánh","Ward":null,"AddressNo":"E7/1914 (Đối diện E8/215)","Street":"Quốc lộ 50","SupportDisability":"","Status":"Đang khai thác","Lng":106.654356,"Lat":10.698194,"Search":"TttvdtÚM E(dE Ql50","Routes":"47, 62-11, 62-9"},{"StopId":3027,"Code":"HBC 180","Name":"Trạm xăng Kim Quang","StopType":"Ô sơn","Zone":"Huyện Bình Chánh","Ward":null,"AddressNo":"D7/203","Street":"Quốc lộ 50","SupportDisability":"","Status":"Đang khai thác","Lng":106.654876,"Lat":10.695416,"Search":"TxKQ D Ql50","Routes":"47, 62-11, 62-9"},{"StopId":3028,"Code":"HBC 181","Name":"Trịnh Quang Nghị","StopType":"Trụ dừng","Zone":"Huyện Bình Chánh","Ward":null,"AddressNo":"D10/281","Street":"Quốc lộ 50","SupportDisability":"","Status":"Đang khai thác","Lng":106.654946,"Lat":10.692511,"Search":"TQN D Ql50","Routes":"47, 62-11, 62-9"},{"StopId":3029,"Code":"HBC 182","Name":"Trường Tiểu học Phong Phú","StopType":"Ô sơn","Zone":"Huyện Bình Chánh","Ward":null,"AddressNo":"B5/126","Street":"Quốc lộ 50","SupportDisability":"","Status":"Đang khai thác","Lng":106.653471,"Lat":10.688431,"Search":"TThPP B Ql50","Routes":"47, 62-11, 62-9"},{"StopId":3030,"Code":"HBC 183","Name":"Sân banh ngã 3","StopType":"Ô sơn","Zone":"Huyện Bình Chánh","Ward":null,"AddressNo":"A2/33","Street":"Quốc lộ 50","SupportDisability":"","Status":"Đang khai thác","Lng":106.651068,"Lat":10.683086,"Search":"Sbn3 A Ql50","Routes":"47, 62-11, 62-9"},{"StopId":3031,"Code":"HBC 184","Name":"Hội quán Thanh niên","StopType":"Ô sơn","Zone":"Huyện Bình Chánh","Ward":null,"AddressNo":"A4/95 (A4/94)","Street":"Quốc lộ 50","SupportDisability":"","Status":"Đang khai thác","Lng":106.650488,"Lat":10.677989,"Search":"HqTn A( Ql50","Routes":"47, 62-11, 62-9"},{"StopId":3032,"Code":"HBC 185","Name":"Ngã 3 đường 3S","StopType":"Trụ dừng","Zone":"Huyện Bình Chánh","Ward":null,"AddressNo":"E7/194","Street":"Quốc lộ 50","SupportDisability":"","Status":"Đang khai thác","Lng":106.650853,"Lat":10.673592,"Search":"N3d3S E Ql50","Routes":"47, 62-11, 62-9"},{"StopId":3033,"Code":"HBC 186","Name":"Trường THCS Đa Phước","StopType":"Ô sơn","Zone":"Huyện Bình Chánh","Ward":null,"AddressNo":"F11/322 (E11/323)","Street":"Quốc lộ 50","SupportDisability":"","Status":"Đang khai thác","Lng":106.651052,"Lat":10.669765,"Search":"TTDP F( Ql50","Routes":"47, 62-11, 62-9"},{"StopId":3034,"Code":"HBC 187","Name":"Nghĩa trang Đa Phước","StopType":"Trụ dừng","Zone":"Huyện Bình Chánh","Ward":null,"AddressNo":"D16/460A2","Street":"Quốc lộ 50","SupportDisability":"","Status":"Đang khai thác","Lng":106.651229,"Lat":10.66667,"Search":"NtDP D Ql50","Routes":"47, 62-11, 62-9"},{"StopId":3035,"Code":"HBC 188","Name":"Đường liên Ấp 1-2","StopType":"Trụ dừng","Zone":"Huyện Bình Chánh","Ward":null,"AddressNo":"Cột điện H148P (A14/396)","Street":"Quốc lộ 50","SupportDisability":"","Status":"Đang khai thác","Lng":106.65154,"Lat":10.662801,"Search":"DlA1-2 CdH( Ql50","Routes":"47, 62-11, 62-9"},{"StopId":3036,"Code":"HBC 189","Name":"Chùa Linh Hòa","StopType":"Trụ dừng","Zone":"Huyện Bình Chánh","Ward":null,"AddressNo":"Cột điện H154P (D9/261/1A)","Street":"Quốc lộ 50","SupportDisability":"","Status":"Đang khai thác","Lng":106.651776,"Lat":10.659954,"Search":"CLH CdH( Ql50","Routes":"47, 62-11, 62-9"},{"StopId":3038,"Code":"HBC 191","Name":"Chùa Tam Bửu","StopType":"Ô sơn","Zone":"Huyện Bình Chánh","Ward":null,"AddressNo":"D8/34C (D8/238/8)","Street":"Quốc lộ 50","SupportDisability":"","Status":"Đang khai thác","Lng":106.653138,"Lat":10.656164,"Search":"CTB D( Ql50","Routes":"47, 62-11, 62-9"},{"StopId":3039,"Code":"HBC 192","Name":"Chùa Phước Hội","StopType":"Ô sơn","Zone":"Huyện Bình Chánh","Ward":null,"AddressNo":"D7/221A","Street":"Quốc lộ 50","SupportDisability":"","Status":"Đang khai thác","Lng":106.654608,"Lat":10.652463,"Search":"CPH D Ql50","Routes":"47, 62-11, 62-9"},{"StopId":3040,"Code":"HBC 193","Name":"Cầu Ông Thìn","StopType":"Ô sơn","Zone":"Huyện Bình Chánh","Ward":"Xã Quy Đức","AddressNo":"A8/22A","Street":"Quốc lộ 50","SupportDisability":"","Status":"Đang khai thác","Lng":106.655982,"Lat":10.648087,"Search":"COT A Ql50","Routes":"47, 62-11, 62-9"},{"StopId":3041,"Code":"HBC 194","Name":"Trạm xăng Hoàng Thái","StopType":"Trụ dừng","Zone":"Huyện Bình Chánh","Ward":"Xã Quy Đức","AddressNo":"D7/23A","Street":"Quốc lộ 50","SupportDisability":"","Status":"Đang khai thác","Lng":106.656776,"Lat":10.644338,"Search":"TxHT D Ql50","Routes":"47, 62-11, 62-9"},{"StopId":3042,"Code":"LA_2","Name":"Hoàng Thái Mart","StopType":"Ô sơn","Zone":"Huyện Bình Chánh","Ward":null,"AddressNo":"Đối diện 4102 (Đối diện B8/33B6)","Street":"Quốc lộ 50","SupportDisability":"","Status":"Đang khai thác","Lng":106.658036,"Lat":10.637843,"Search":"HTM Dd4102(dB Ql50","Routes":"47, 62-11, 62-9"},{"StopId":4421,"Code":"LA_3","Name":"Nhà máy Kizunai","StopType":"Ô sơn","Zone":"Huyện Bình Chánh","Ward":null,"AddressNo":"Đối diện A13/2 (Quốc lộ 1A)","Street":"Quốc lộ 50 (Quốc lộ 1A)","SupportDisability":"","Status":"Đang khai thác","Lng":106.66023,"Lat":10.633299,"Search":"NmK DdA(l1A) Ql50(l1A)","Routes":"47, 62-11, 62-9"},{"StopId":7212,"Code":"BXLT Go Cong","Name":"Bến xe Gò Công","StopType":"Bến xe","Zone":"Ngoại thành","Ward":null,"AddressNo":"Bến xe Gò Công","Street":"Trần Công Tưởng","SupportDisability":"Có","Status":"Đang khai thác","Lng":106.661925,"Lat":10.359629,"Search":"BxGC BxGC TCT","Routes":"62-9"}]