[{"StopId":1054,"Code":"BX 18","Name":"Phú Xuân","StopType":"Bến xe","Zone":"Quận 7","Ward":null,"AddressNo":"Bến Phú Xuân","Street":"Đường số 15B","SupportDisability":"","Status":"Đang khai thác","Lng":106.73373,"Lat":10.70071,"Search":"PX BPX Ds15B","Routes":"139"},{"StopId":1057,"Code":"Q7 169","Name":"Khu dân cư Kỹ Nguyên","StopType":"Trụ dừng","Zone":"Quận 7","Ward":"Phường Phú Mỹ","AddressNo":"63-65","Street":"Phạm Hữu Lầu","SupportDisability":"","Status":"Đang khai thác","Lng":106.735198,"Lat":10.704788,"Search":"KdcKN 63-65 PHL","Routes":"110, 139"},{"StopId":1364,"Code":"Q7 023","Name":"Phạm Hữu Lầu","StopType":"Trụ dừng","Zone":"Quận 7","Ward":"Phường Phú Mỹ","AddressNo":"1697-1699","Street":"Huỳnh Tấn Phát","SupportDisability":"","Status":"Đang khai thác","Lng":106.737649,"Lat":10.705547,"Search":"PHL 1697-1699 HTP","Routes":"139, 20, 75"},{"StopId":1363,"Code":"Q7 024","Name":"Chùa Pháp Hoa","StopType":"Trụ dừng","Zone":"Quận 7","Ward":"Phường Phú Mỹ","AddressNo":"Đối diện 1442 (1611)","Street":"Huỳnh Tấn Phát","SupportDisability":"","Status":"Đang khai thác","Lng":106.737381,"Lat":10.708926,"Search":"CPH Dd1442( HTP","Routes":"139, 20, 75"},{"StopId":1367,"Code":"Q7 025","Name":"An Chánh Dương","StopType":"Trụ dừng","Zone":"Quận 7","Ward":"Phường Phú Mỹ","AddressNo":"1543","Street":"Huỳnh Tấn Phát","SupportDisability":"","Status":"Đang khai thác","Lng":106.737242,"Lat":10.711134,"Search":"ACD 1543 HTP","Routes":"139, 20, 75"},{"StopId":1365,"Code":"Q7 026","Name":"Trường Ngô Quyền","StopType":"Trụ dừng","Zone":"Quận 7","Ward":"Phường Phú Mỹ","AddressNo":"1424 (1503/7)","Street":"Huỳnh Tấn Phát","SupportDisability":"","Status":"Đang khai thác","Lng":106.737177,"Lat":10.712795,"Search":"TNQ 1424( HTP","Routes":"139, 20, 75"},{"StopId":1370,"Code":"Q7 160","Name":"Ủy ban phường Phú Mỹ","StopType":"Nhà chờ","Zone":"Quận 7","Ward":"Phường Phú Mỹ","AddressNo":"Ủy ban phường Phú Mỹ","Street":"Hoàng Quốc Việt","SupportDisability":"","Status":"Đang khai thác","Lng":106.734817,"Lat":10.713991,"Search":"?bpPM ?bpPM HQV","Routes":"139"},{"StopId":1368,"Code":"Q7 161","Name":"Mầm non Cánh Thiên Thần","StopType":"Trụ dừng","Zone":"Quận 7","Ward":"Phường Phú Mỹ","AddressNo":"120M (Ngân hàng Agribank)","Street":"Hoàng Quốc Việt","SupportDisability":"","Status":"Đang khai thác","Lng":106.732655,"Lat":10.713469,"Search":"MnCTT 120M(hA HQV","Routes":"139"},{"StopId":1372,"Code":"Q7 163","Name":"Mỹ Khang","StopType":"Trụ dừng","Zone":"Quận 7","Ward":"Phường Tân Phú","AddressNo":"SD4-1, Lô S19-2","Street":"Nguyễn Lương Bằng","SupportDisability":"","Status":"Đang khai thác","Lng":106.730096,"Lat":10.715599,"Search":"MK SLS NLB","Routes":"139"},{"StopId":1369,"Code":"Q7 164","Name":"Nam Viên","StopType":"Trụ dừng","Zone":"Quận 7","Ward":"Phường Tân Phú","AddressNo":"Trường tiểu học Việt Pháp","Street":"Nguyễn Lương Bằng","SupportDisability":"","Status":"Đang khai thác","Lng":106.728476,"Lat":10.71825,"Search":"NV TthVP NLB","Routes":"139"},{"StopId":1240,"Code":"Q7 165","Name":"Mỹ Thái 2","StopType":"Trụ dừng","Zone":"Quận 7","Ward":"Phường Tân Phú","AddressNo":"Đ/d Chung cư Riverside","Street":"Nguyễn Lương Bằng","SupportDisability":"","Status":"Đang khai thác","Lng":106.726738,"Lat":10.721022,"Search":"MT2 DCcR NLB","Routes":"139"},{"StopId":1241,"Code":"Q7 166","Name":"Trường Nam Sài Gòn","StopType":"Trụ dừng","Zone":"Quận 7","Ward":"Phường Tân Phú","AddressNo":"Đối diện trường Nam Sài Gòn","Street":"Nguyễn Lương Bằng","SupportDisability":"","Status":"Đang khai thác","Lng":106.724174,"Lat":10.725255,"Search":"TNSG DdtNSG NLB","Routes":"139"},{"StopId":1371,"Code":"Q7 167","Name":"Tân Trào","StopType":"Trụ dừng","Zone":"Quận 7","Ward":"Phường Tân Phú","AddressNo":"Đối diện VP Đội Bảo vệ","Street":"Nguyễn Lương Bằng","SupportDisability":"","Status":"Đang khai thác","Lng":106.722114,"Lat":10.728538,"Search":"TT DdVDBv NLB","Routes":"139, 68"},{"StopId":1375,"Code":"Q7 152","Name":"Bệnh viện Tim Tâm Đức","StopType":"Nhà chờ","Zone":"Quận 7","Ward":null,"AddressNo":"Đối diện bệnh viện tim Tâm Đức","Street":"Nguyễn Lương Bằng","SupportDisability":"","Status":"Đang khai thác","Lng":106.71904,"Lat":10.733488,"Search":"BvTTD DdbvtTD NLB","Routes":"139, 34"},{"StopId":1377,"Code":"Q7 153","Name":"Chợ Tân Mỹ","StopType":"Nhà chờ","Zone":"Quận 7","Ward":"Phường Tân Phú","AddressNo":"Chung cư Tân Mỹ","Street":"Tân Mỹ","SupportDisability":"","Status":"Đang khai thác","Lng":106.718252,"Lat":10.735532,"Search":"CTM CcTM TM","Routes":"139, 34"},{"StopId":1373,"Code":"Q7 106","Name":"Lâm Văn Bền","StopType":"Trụ dừng","Zone":"Quận 7","Ward":null,"AddressNo":"222","Street":"Nguyễn Thị Thập","SupportDisability":"","Status":"Đang khai thác","Lng":106.717485,"Lat":10.738384,"Search":"LVB 222 NTT","Routes":"139, 31, 34"},{"StopId":1374,"Code":"Q7 107","Name":"Mai Văn Vĩnh","StopType":"Trụ dừng","Zone":"Quận 7","Ward":null,"AddressNo":"326","Street":"Nguyễn Thị Thập","SupportDisability":"","Status":"Đang khai thác","Lng":106.713333,"Lat":10.738621,"Search":"MVV 326 NTT","Routes":"139, 31"},{"StopId":1378,"Code":"Q7 108","Name":"Đường số 38","StopType":"Trụ dừng","Zone":"Quận 7","Ward":null,"AddressNo":"392","Street":"Nguyễn Thị Thập","SupportDisability":"","Status":"Đang khai thác","Lng":106.710484,"Lat":10.738964,"Search":"Ds38 392 NTT","Routes":"139, 31"},{"StopId":1376,"Code":"Q7 109","Name":"Khu dân cư Tân Quy Đông","StopType":"Trụ dừng","Zone":"Quận 7","Ward":null,"AddressNo":"450","Street":"Nguyễn Thị Thập","SupportDisability":"","Status":"Đang khai thác","Lng":106.707614,"Lat":10.739401,"Search":"KdcTQD 450 NTT","Routes":"139, 31"},{"StopId":1380,"Code":"Q7 130","Name":"Lotte Mark","StopType":"Trụ dừng","Zone":"Quận 7","Ward":null,"AddressNo":"359","Street":"Lê Văn Lương","SupportDisability":"","Status":"Đang khai thác","Lng":106.70369,"Lat":10.740208,"Search":"LM 359 LVL","Routes":"139, 140, 38"},{"StopId":1382,"Code":"Q7 131","Name":"Đường số 15","StopType":"Trụ dừng","Zone":"Quận 7","Ward":null,"AddressNo":"265","Street":"Lê Văn Lương","SupportDisability":"","Status":"Đang khai thác","Lng":106.70432,"Lat":10.744471,"Search":"Ds15 265 LVL","Routes":"139, 140, 38"},{"StopId":1251,"Code":"Q7 079","Name":"Cầu Kinh Tẻ","StopType":"Nhà chờ","Zone":"Quận 7","Ward":"Phường Tân Hưng","AddressNo":"Đối diện 44/9","Street":"Nguyễn Hữu Thọ","SupportDisability":"","Status":"Đang khai thác","Lng":106.702266,"Lat":10.746832,"Search":"CKT Dd44/9 NHT","Routes":"139, 140, 38, 72, 86"},{"StopId":4424,"Code":"Q4 015","Name":"Hồ Bơi Quận 4","StopType":"Nhà chờ","Zone":"Quận 4","Ward":null,"AddressNo":"120-122","Street":"Khánh Hội","SupportDisability":"Có","Status":"Đang khai thác","Lng":106.700705,"Lat":10.756867,"Search":"HBQ4 120-122 KH","Routes":"139, 140, 38, 72, 86"},{"StopId":1250,"Code":"Q4 016","Name":"Chung cư Tân Vĩnh","StopType":"Trụ dừng","Zone":"Quận 4","Ward":null,"AddressNo":"202-204","Street":"Khánh Hội","SupportDisability":"","Status":"Đang khai thác","Lng":106.699315,"Lat":10.758727,"Search":"CcTV 202-204 KH","Routes":"139, 140, 38, 72, 86"},{"StopId":1253,"Code":"Q4 011","Name":"Hoàng Diệu","StopType":"Trụ dừng","Zone":"Quận 4","Ward":null,"AddressNo":"303-305","Street":"Hoàng Diệu","SupportDisability":"","Status":"Đang khai thác","Lng":106.699321,"Lat":10.760082,"Search":"HD 303-305 HD","Routes":"139, 140, 38, 46, 72, 86"},{"StopId":1379,"Code":"Q1 120","Name":"Cầu Ông Lãnh","StopType":"Nhà chờ","Zone":"Quận 1","Ward":"Phường Cầu Ông Lãnh","AddressNo":"82 - 84 (82A)","Street":"Nguyễn Thái Học","SupportDisability":"","Status":"Đang khai thác","Lng":106.696612,"Lat":10.766253,"Search":"COL 82-84( NTH","Routes":"139, 140, 31, 46, 72, 86"},{"StopId":1385,"Code":"Q1 171","Name":"Trường Nguyễn Thái Học","StopType":"Ô sơn","Zone":"Quận 1","Ward":null,"AddressNo":"141-149","Street":"Lê Thị Hồng Gấm","SupportDisability":"","Status":"Đang khai thác","Lng":106.696236,"Lat":10.767602,"Search":"TNTH 141-149 LTHG","Routes":"139"},{"StopId":120,"Code":"Q1 124","Name":"Trường Ernst Thalmann","StopType":"Nhà chờ","Zone":"Quận 1","Ward":null,"AddressNo":"8","Street":"Trần Hưng Đạo","SupportDisability":"","Status":"Đang khai thác","Lng":106.695923,"Lat":10.768772,"Search":"TET 8 THD","Routes":"01, 139, 28, 45, 69, 75"},{"StopId":121,"Code":"Q1 125","Name":"KTX Trần Hưng Đạo","StopType":"Nhà chờ","Zone":"Quận 1","Ward":null,"AddressNo":"10","Street":"Trần Hưng Đạo","SupportDisability":"","Status":"Đang khai thác","Lng":106.694695,"Lat":10.767363,"Search":"KTHD 10 THD","Routes":"01, 139, 152, 45, 56"},{"StopId":122,"Code":"Q1 126","Name":"Rạp Hưng Đạo","StopType":"Nhà chờ","Zone":"Quận 1","Ward":null,"AddressNo":"112","Street":"Trần Hưng Đạo","SupportDisability":"","Status":"Đang khai thác","Lng":106.693375,"Lat":10.765832,"Search":"RHD 112 THD","Routes":"01, 139, 152, 45, 56"},{"StopId":123,"Code":"Q1 127","Name":"Bệnh viện Răng Hàm Mặt","StopType":"Nhà chờ","Zone":"Quận 1","Ward":null,"AddressNo":"150","Street":"Trần Hưng Đạo","SupportDisability":"","Status":"Đang khai thác","Lng":106.691696,"Lat":10.763918,"Search":"BvRHM 150 THD","Routes":"01, 139, 152"},{"StopId":124,"Code":"Q1 128","Name":"Trần Đình Xu","StopType":"Trụ dừng","Zone":"Quận 1","Ward":null,"AddressNo":"210 - 212","Street":"Trần Hưng Đạo","SupportDisability":"","Status":"Đang khai thác","Lng":106.690247,"Lat":10.762262,"Search":"TDX 210-212 THD","Routes":"01, 139, 152"},{"StopId":125,"Code":"Q1 129","Name":"Tổng Cty Samco","StopType":"Nhà chờ","Zone":"Quận 1","Ward":null,"AddressNo":"262","Street":"Trần Hưng Đạo","SupportDisability":"","Status":"Đang khai thác","Lng":106.687798,"Lat":10.759409,"Search":"TCS 262 THD","Routes":"01, 139, 152"},{"StopId":126,"Code":"Q1 130","Name":"Chợ Nanci","StopType":"Trụ dừng","Zone":"Quận 1","Ward":null,"AddressNo":"290-292-292A","Street":"Trần Hưng Đạo","SupportDisability":"","Status":"Đang khai thác","Lng":106.686035,"Lat":10.757467,"Search":"CN 290-292-292A THD","Routes":"01, 139, 152"},{"StopId":1381,"Code":"Q1 139","Name":"Nhà Sách Nguyễn Văn Cừ","StopType":"Trụ dừng","Zone":"Quận 1","Ward":null,"AddressNo":"102 (110-112)","Street":"Nguyễn Văn Cừ","SupportDisability":"","Status":"Đang khai thác","Lng":106.684937,"Lat":10.757567,"Search":"NSNVC 102( NVC","Routes":"139"},{"StopId":1021,"Code":"Q1 140","Name":"Nguyễn Trãi","StopType":"Nhà chờ","Zone":"Quận 1","Ward":"Phường Nguyễn Cư Trinh","AddressNo":"Đối diện số 205 - 207","Street":"Nguyễn Văn Cừ","SupportDisability":"","Status":"Đang khai thác","Lng":106.683769,"Lat":10.760314,"Search":"NT Dds205-207 NVC","Routes":"139, 45, 56"},{"StopId":426,"Code":"Q5 001","Name":"Đại học Sư Phạm","StopType":"Nhà chờ","Zone":"Quận 5","Ward":null,"AddressNo":"280","Street":"An Dương Vương","SupportDisability":"","Status":"Đang khai thác","Lng":106.68267,"Lat":10.76103,"Search":"DhSP 280 ADV","Routes":"06, 139, 38, 45, 56"},{"StopId":429,"Code":"Q5 002","Name":"Chợ Bầu Sen","StopType":"Trụ dừng","Zone":"Quận 5","Ward":null,"AddressNo":"370","Street":"An Dương Vương","SupportDisability":"","Status":"Đang khai thác","Lng":106.678764,"Lat":10.759407,"Search":"CBS 370 ADV","Routes":"06, 139, 38, 45, 56"},{"StopId":427,"Code":"Q5 003","Name":"Huỳnh Mẫn Đạt","StopType":"Trụ dừng","Zone":"Quận 5","Ward":null,"AddressNo":"526","Street":"An Dương Vương","SupportDisability":"","Status":"Đang khai thác","Lng":106.675272,"Lat":10.757984,"Search":"HMD 526 ADV","Routes":"06, 139, 38, 45, 56"},{"StopId":430,"Code":"Q5 004","Name":"Chợ An Đông","StopType":"Nhà chờ","Zone":"Quận 5","Ward":null,"AddressNo":"Đối diện số 3","Street":"An Dương Vương","SupportDisability":"","Status":"Đang khai thác","Lng":106.673534,"Lat":10.757536,"Search":"CAD Dds3 ADV","Routes":"06, 139, 56"},{"StopId":428,"Code":"Q5 005","Name":"Bệnh viện Nguyễn Tri Phương","StopType":"Trụ dừng","Zone":"Quận 5","Ward":null,"AddressNo":"102C-D","Street":"An Dương Vương","SupportDisability":"","Status":"Đang khai thác","Lng":106.670653,"Lat":10.756967,"Search":"BvNTP 102C-D ADV","Routes":"06, 139, 56"},{"StopId":432,"Code":"Q5 068","Name":"Công viên Văn Lang","StopType":"Trụ dừng","Zone":"Quận 5","Ward":null,"AddressNo":"132A","Street":"Nguyễn Tri Phương","SupportDisability":"","Status":"Đang khai thác","Lng":106.669613,"Lat":10.757151,"Search":"CvVL 132A NTP","Routes":"06, 07, 10, 139, 150, 56, 59, 68"},{"StopId":431,"Code":"Q5 031","Name":"Công viên Văn Lang","StopType":"Nhà chờ","Zone":"Quận 5","Ward":null,"AddressNo":"116A","Street":"Hùng Vương","SupportDisability":"","Status":"Đang khai thác","Lng":106.668566,"Lat":10.757257,"Search":"CvVL 116A HV","Routes":"06, 139, 56, 68, 91"},{"StopId":433,"Code":"Q5 017","Name":"Bệnh viện Phạm Ngọc Thạch","StopType":"Nhà chờ","Zone":"Quận 5","Ward":null,"AddressNo":"120","Street":"Hồng Bàng","SupportDisability":"","Status":"Đang khai thác","Lng":106.664511,"Lat":10.755897,"Search":"BvPNT 120 HB","Routes":"06, 07, 10, 139, 150, 56, 68, 91"},{"StopId":434,"Code":"Q5 018","Name":"Hùng Vương Plaza","StopType":"Nhà chờ","Zone":"Quận 5","Ward":null,"AddressNo":"132","Street":"Hồng Bàng","SupportDisability":"","Status":"Đang khai thác","Lng":106.661072,"Lat":10.755196,"Search":"HVP 132 HB","Routes":"06, 07, 08, 10, 139, 150, 56, 62, 63-1, 68, 91"},{"StopId":436,"Code":"Q5 019","Name":"Bệnh viện Chợ Rẫy","StopType":"Trụ dừng","Zone":"Quận 5","Ward":null,"AddressNo":"172","Street":"Hồng Bàng","SupportDisability":"","Status":"Đang khai thác","Lng":106.659501,"Lat":10.754875,"Search":"BvCR 172 HB","Routes":"06, 07, 08, 10, 139, 150, 56, 62, 63-1, 68, 91"},{"StopId":435,"Code":"Q5 020","Name":"Thuận Kiều Plaza","StopType":"Nhà chờ","Zone":"Quận 5","Ward":null,"AddressNo":"Đối diện 385","Street":"Hồng Bàng","SupportDisability":"","Status":"Đang khai thác","Lng":106.657934,"Lat":10.75458,"Search":"TKP Dd385 HB","Routes":"06, 139, 150, 63-1, 68, 91"},{"StopId":438,"Code":"Q5 021","Name":"Dương Tử Giang","StopType":"Nhà chờ","Zone":"Quận 5","Ward":null,"AddressNo":"Đối diện 455-457","Street":"Hồng Bàng","SupportDisability":"","Status":"Đang khai thác","Lng":106.65552,"Lat":10.754158,"Search":"DTG Dd455-457 HB","Routes":"06, 139, 150, 63-1, 68, 91"},{"StopId":1010,"Code":"Q5 022","Name":"Bến xe Chợ Lớn","StopType":"Trụ dừng","Zone":"Quận 5","Ward":null,"AddressNo":"266","Street":"Hồng Bàng","SupportDisability":"","Status":"Đang khai thác","Lng":106.652559,"Lat":10.753657,"Search":"BxCL 266 HB","Routes":"139, 23, 63-1"},{"StopId":620,"Code":"Q11 094","Name":"Cây Mai","StopType":"Biển treo","Zone":"Quận 11","Ward":null,"AddressNo":"384","Street":"Hồng Bàng","SupportDisability":"","Status":"Đang khai thác","Lng":106.64926,"Lat":10.753689,"Search":"CM 384 HB","Routes":"09, 139, 145, 16, 62-1, 62-10, 62-2, 62-6, 62-7, 62-8, 63-1, 81"},{"StopId":622,"Code":"Q11 095","Name":"Lò Siêu","StopType":"Trụ dừng","Zone":"Quận 11","Ward":null,"AddressNo":"508","Street":"Hồng Bàng","SupportDisability":"","Status":"Đang khai thác","Lng":106.646787,"Lat":10.753952,"Search":"LS 508 HB","Routes":"09, 139, 145, 16, 62-1, 62-10, 62-2, 62-6, 62-7, 62-8, 63-1, 81, 84"},{"StopId":624,"Code":"Q11 096","Name":"Cây Gõ","StopType":"Biển treo","Zone":"Quận 11","Ward":null,"AddressNo":"638-640","Street":"Hồng Bàng","SupportDisability":"","Status":"Đang khai thác","Lng":106.64403,"Lat":10.754269,"Search":"CG 638-640 HB","Routes":"09, 139, 145, 16, 62-1, 62-10, 62-2, 62-6, 62-7, 62-8, 63-1, 81, 84"},{"StopId":623,"Code":"Q11 098","Name":"Tân Hóa","StopType":"Trụ dừng","Zone":"Quận 11","Ward":null,"AddressNo":"732","Street":"Hồng Bàng","SupportDisability":"","Status":"Đang khai thác","Lng":106.639572,"Lat":10.754717,"Search":"TH 732 HB","Routes":"09, 139, 14, 16, 62-1, 62-10, 62-2, 62-6, 62-7, 62-8, 63-1, 81, 84"},{"StopId":626,"Code":"Q6 038","Name":"Cầu Ông Buông","StopType":"Biển treo","Zone":"Quận 6","Ward":null,"AddressNo":"832-834","Street":"Hồng Bàng","SupportDisability":"","Status":"Đang khai thác","Lng":106.635574,"Lat":10.754732,"Search":"COB 832-834 HB","Routes":"09, 139, 14, 16, 32, 62-1, 62-10, 62-2, 62-7, 62-8, 63-1, 84"},{"StopId":627,"Code":"Q6 044","Name":"Vòng xoay Phú Lâm","StopType":"Trụ dừng","Zone":"Quận 6","Ward":null,"AddressNo":"528","Street":"Kinh Dương Vương","SupportDisability":"","Status":"Đang khai thác","Lng":106.633365,"Lat":10.753346,"Search":"VxPL 528 KDV","Routes":"09, 139, 14, 32, 62-1, 62-10, 62-2, 62-8, 63-1, 84"},{"StopId":628,"Code":"Q6 045","Name":"Cư Xá Phú Lâm","StopType":"Nhà chờ","Zone":"Quận 6","Ward":null,"AddressNo":"40-42(580)","Street":"Kinh Dương Vương","SupportDisability":"","Status":"Đang khai thác","Lng":106.63089,"Lat":10.751475,"Search":"CXPL 40-42(580) KDV","Routes":"09, 139, 14, 32, 62-1, 62-10, 62-2, 62-8, 63-1, 84"},{"StopId":629,"Code":"Q6 046","Name":"Hồ Bơi Phú Lâm","StopType":"Trụ dừng","Zone":"Quận 6","Ward":null,"AddressNo":"94-96","Street":"Kinh Dương Vương","SupportDisability":"","Status":"Đang khai thác","Lng":106.628435,"Lat":10.749589,"Search":"HBPL 94-96 KDV","Routes":"09, 139, 14, 32, 62-1, 62-10, 62-2, 62-8, 63-1, 84"},{"StopId":1386,"Code":"Q6 047","Name":"Công Viên Phú Lâm","StopType":"Nhà chờ","Zone":"Quận 6","Ward":null,"AddressNo":"Đối diện 907","Street":"Kinh Dương Vương","SupportDisability":"","Status":"Đang khai thác","Lng":106.624525,"Lat":10.746384,"Search":"CVPL Dd907 KDV","Routes":"09, 139, 14, 32, 62-1, 62-10, 62-2, 62-8, 63-1, 84"},{"StopId":117,"Code":"QBT 011","Name":"Vòng xoay Kinh Dương Vương","StopType":"Trụ dừng","Zone":"Quận Bình Tân","Ward":"Phường An Lạc","AddressNo":"212-214","Street":"Kinh Dương Vương","SupportDisability":"","Status":"Đang khai thác","Lng":106.622475,"Lat":10.744746,"Search":"VxKDV 212-214 KDV","Routes":"09, 10, 139, 14, 148, 25, 32, 61, 62-1, 62-10, 62-2, 62-8, 63-1, 84, 91"},{"StopId":116,"Code":"QBT 012","Name":"Bến xe Miền Tây","StopType":"Trụ dừng","Zone":"Quận Bình Tân","Ward":"Phường An Lạc","AddressNo":"358-360","Street":"Kinh Dương Vương","SupportDisability":"","Status":"Đang khai thác","Lng":106.619096,"Lat":10.741973,"Search":"BxMT 358-360 KDV","Routes":"09, 10, 139, 14, 148, 25, 32, 61, 62-10, 62-2, 62-8, 63-1, 84, 91"},{"StopId":725,"Code":"BX 46","Name":"Bến xe Miền Tây","StopType":"Bến xe","Zone":"Quận Bình Tân","Ward":null,"AddressNo":"Bến xe Miền Tây","Street":"Kinh Dương Vương","SupportDisability":"","Status":"Đang khai thác","Lng":106.619438,"Lat":10.739486,"Search":"BxMT BxMT KDV","Routes":"10, 102, 139, 14, 148, 151, 32, 39, 41, 60-1, 91"}]