[{"StopId":1403,"Code":"BX44","Name":"Bến xe Miền Đông","StopType":"Bến xe","Zone":"Quận Bình Thạnh","Ward":null,"AddressNo":"Bến xe Miền Đông","Street":"Đinh Bộ Lĩnh","SupportDisability":"","Status":"Đang khai thác","Lng":106.711294,"Lat":10.814733,"Search":"BxMD BxMD DBL","Routes":"14, 146, 24, 43, 45, 60-3, 61-8, 64, 67"},{"StopId":2890,"Code":"QBTH 072","Name":"Ngã Tư Đinh Bộ Lĩnh","StopType":"Trụ dừng","Zone":"Quận Bình Thạnh","Ward":null,"AddressNo":"134","Street":"Nguyễn Xí","SupportDisability":"","Status":"Đang khai thác","Lng":106.709282,"Lat":10.813647,"Search":"NTDBL 134 NX","Routes":"64"},{"StopId":2893,"Code":"QBTH 073","Name":"Nhà Sách Miền Đông","StopType":"Nhà chờ","Zone":"Quận Bình Thạnh","Ward":null,"AddressNo":"186 (Đối diện 79/5B)","Street":"Nguyễn Xí","SupportDisability":"","Status":"Đang khai thác","Lng":106.707346,"Lat":10.815824,"Search":"NSMD 186(d79/5B) NX","Routes":"64"},{"StopId":2895,"Code":"QBTH 074","Name":"Ngã Tư Nơ Trang Long","StopType":"Trụ dừng","Zone":"Quận Bình Thạnh","Ward":null,"AddressNo":"292","Street":"Nguyễn Xí","SupportDisability":"","Status":"Đang khai thác","Lng":106.704739,"Lat":10.818669,"Search":"NTNTL 292 NX","Routes":"64"},{"StopId":2550,"Code":"QBTH 105","Name":"UBND Phường 13","StopType":"Trụ dừng","Zone":"Quận Bình Thạnh","Ward":"Phường 13","AddressNo":"363-365","Street":"Nơ Trang Long","SupportDisability":"","Status":"Đang khai thác","Lng":106.702974,"Lat":10.819696,"Search":"UP13 363-365 NTL","Routes":"31, 64"},{"StopId":2541,"Code":"QBTH 106","Name":"Trường Trung cấp xây dựng Tp. HCM","StopType":"Trụ dừng","Zone":"Quận Bình Thạnh","Ward":null,"AddressNo":"327","Street":"Nơ Trang Long","SupportDisability":"","Status":"Đang khai thác","Lng":106.700833,"Lat":10.819027,"Search":"TTcxdTH 327 NTL","Routes":"31, 64"},{"StopId":7600,"Code":"QBTH 160","Name":"Cầu Rạch Lăng","StopType":"Trụ dừng","Zone":"Quận Bình Thạnh","Ward":"Phường 12","AddressNo":"04","Street":"Phan Chu Trinh","SupportDisability":"","Status":"Đang khai thác","Lng":106.700592,"Lat":10.816319,"Search":"CRL 04 PCT","Routes":"161, 64"},{"StopId":7599,"Code":"QBTH 159","Name":"Học Viện Cán Bộ Thành Phố","StopType":"Trụ dừng","Zone":"Quận Bình Thạnh","Ward":"Phường 12","AddressNo":"324","Street":"Chu Văn An","SupportDisability":"","Status":"Đang khai thác","Lng":106.701086,"Lat":10.812536,"Search":"HVCBTP 324 CVA","Routes":"161, 64"},{"StopId":2543,"Code":"QBTH 107","Name":"Nhà văn hóa Lao Động","StopType":"Trụ dừng","Zone":"Quận Bình Thạnh","Ward":null,"AddressNo":"217","Street":"Nơ Trang Long","SupportDisability":"","Status":"Đang khai thác","Lng":106.697856,"Lat":10.815528,"Search":"NvhLD 217 NTL","Routes":"161, 31, 64"},{"StopId":2545,"Code":"QBTH 108","Name":"Siêu thị Satra Food","StopType":"Trụ dừng","Zone":"Quận Bình Thạnh","Ward":null,"AddressNo":"167","Street":"Nơ Trang Long","SupportDisability":"","Status":"Đang khai thác","Lng":106.697035,"Lat":10.813352,"Search":"StSF 167 NTL","Routes":"161, 31, 64"},{"StopId":2552,"Code":"QBTH 109","Name":"Ngã Năm Bình Hòa","StopType":"Trụ dừng","Zone":"Quận Bình Thạnh","Ward":null,"AddressNo":"131","Street":"Nơ Trang Long","SupportDisability":"","Status":"Đang khai thác","Lng":106.695887,"Lat":10.811903,"Search":"NNBH 131 NTL","Routes":"161, 31, 64"},{"StopId":1768,"Code":"QBTH 110","Name":"Nhà thờ Bình Hòa","StopType":"Trụ dừng","Zone":"Quận Bình Thạnh","Ward":null,"AddressNo":"89","Street":"Nơ Trang Long","SupportDisability":"","Status":"Đang khai thác","Lng":106.695035,"Lat":10.809906,"Search":"NtBH 89 NTL","Routes":"31, 36, 64"},{"StopId":2107,"Code":"QBTH 111","Name":"Hồ bơi Đại Đồng","StopType":"Trụ dừng","Zone":"Quận Bình Thạnh","Ward":null,"AddressNo":"27","Street":"Nơ Trang Long","SupportDisability":"","Status":"Đang khai thác","Lng":106.694954,"Lat":10.806992,"Search":"HbDD 27 NTL","Routes":"18, 31, 36, 64"},{"StopId":2110,"Code":"QBTH 112","Name":"Bệnh Viện Gia Định","StopType":"Nhà chờ","Zone":"Quận Bình Thạnh","Ward":"Phường 12","AddressNo":"1","Street":"Nơ Trang Long","SupportDisability":"","Status":"Đang khai thác","Lng":106.694884,"Lat":10.803984,"Search":"BVGD 1 NTL","Routes":"146, 18, 31, 36, 64, 91"},{"StopId":594,"Code":"QBTH 116","Name":"Bệnh Viện Gia Định","StopType":"Nhà chờ","Zone":"Quận Bình Thạnh","Ward":"Phường 12","AddressNo":"10","Street":"Phan Đăng Lưu","SupportDisability":"","Status":"Đang khai thác","Lng":106.693543,"Lat":10.803119,"Search":"BVGD 10 PDL","Routes":"08, 104, 146, 55, 64"},{"StopId":593,"Code":"QBTH 117","Name":"PCCC quận Bình Thạnh","StopType":"Nhà chờ","Zone":"Quận Bình Thạnh","Ward":null,"AddressNo":"14-16","Street":"Phan Đăng Lưu","SupportDisability":"","Status":"Đang khai thác","Lng":106.691741,"Lat":10.803362,"Search":"PqBT 14-16 PDL","Routes":"08, 104, 55, 64"},{"StopId":595,"Code":"QPN 019","Name":"Bệnh viện Phước An","StopType":"Trụ dừng","Zone":"Quận Phú Nhuận","Ward":null,"AddressNo":"36A","Street":"Phan Đăng Lưu","SupportDisability":"","Status":"Đang khai thác","Lng":106.687637,"Lat":10.803878,"Search":"BvPA 36A PDL","Routes":"08, 104, 55, 64"},{"StopId":596,"Code":"QPN 020","Name":"Đại học Văn Hiến","StopType":"Trụ dừng","Zone":"Quận Phú Nhuận","Ward":null,"AddressNo":"94","Street":"Phan Đăng Lưu","SupportDisability":"","Status":"Đang khai thác","Lng":106.686119,"Lat":10.804078,"Search":"DhVH 94 PDL","Routes":"08, 104, 55, 64"},{"StopId":597,"Code":"QPN 021","Name":"Ngã Tư Thích Quảng Đức","StopType":"Trụ dừng","Zone":"Quận Phú Nhuận","Ward":null,"AddressNo":"124","Street":"Phan Đăng Lưu","SupportDisability":"","Status":"Đang khai thác","Lng":106.683608,"Lat":10.802529,"Search":"NTTQD 124 PDL","Routes":"08, 104, 55, 64"},{"StopId":598,"Code":"QPN 022","Name":"Ngã tư Phan Xích Long","StopType":"Trụ dừng","Zone":"Quận Phú Nhuận","Ward":null,"AddressNo":"172","Street":"Phan Đăng Lưu","SupportDisability":"","Status":"Đang khai thác","Lng":106.681892,"Lat":10.80088,"Search":"NtPXL 172 PDL","Routes":"08, 104, 55, 64"},{"StopId":599,"Code":"QPN 010","Name":"Ngã tư Phú Nhuận","StopType":"Trụ dừng","Zone":"Quận Phú Nhuận","Ward":null,"AddressNo":"24","Street":"Hoàng Văn Thụ","SupportDisability":"","Status":"Đang khai thác","Lng":106.679236,"Lat":10.799325,"Search":"NtPN 24 HVT","Routes":"08, 104, 64"},{"StopId":7577,"Code":"QPN 061","Name":"Công An Phú Nhuận","StopType":"Trụ dừng","Zone":"Quận Phú Nhuận","Ward":null,"AddressNo":"Đối diện 189","Street":"Hoàng Văn Thụ","SupportDisability":"Có","Status":"Đang khai thác","Lng":106.67436,"Lat":10.799721,"Search":"CAPN Dd189 HVT","Routes":"08, 104, 64"},{"StopId":601,"Code":"QPN 011","Name":"Siêu thị Big C","StopType":"Nhà chờ","Zone":"Quận Phú Nhuận","Ward":null,"AddressNo":"202","Street":"Hoàng Văn Thụ","SupportDisability":"","Status":"Đang khai thác","Lng":106.669559,"Lat":10.800153,"Search":"StBC 202 HVT","Routes":"08, 104, 64"},{"StopId":256,"Code":"QTB 099","Name":"Cổng trước SVĐ Quân Khu 7","StopType":"Nhà chờ","Zone":"Quận Tân Bình","Ward":null,"AddressNo":"A2 (Sân vận động Quân khu 7)","Street":"Phan Đình Giót","SupportDisability":"","Status":"Đang khai thác","Lng":106.66678,"Lat":10.800848,"Search":"CtSQK7 A(vdQk7) PDG","Routes":"04, 07, 08, 104, 109, 152, 63-1, 64, 72-2B"},{"StopId":258,"Code":"QTB 107","Name":"Vòng xoay Lăng Cha Cả","StopType":"Nhà chờ","Zone":"Quận Tân Bình","Ward":null,"AddressNo":"20","Street":"Trần Quốc Hoàn","SupportDisability":"","Status":"Đang khai thác","Lng":106.662312,"Lat":10.801365,"Search":"VxLCC 20 TQH","Routes":"04, 08, 103, 104, 148, 152, 50, 59, 63-1, 64, 72-2B"},{"StopId":600,"Code":"QTB 038","Name":"Vòng xoay Lăng Cha Cả","StopType":"Trụ dừng","Zone":"Quận Tân Bình","Ward":null,"AddressNo":"288-290","Street":"Hoàng Văn Thụ","SupportDisability":"","Status":"Đang khai thác","Lng":106.659071,"Lat":10.798725,"Search":"VxLCC 288-290 HVT","Routes":"08, 103, 145, 148, 50, 59, 63-1, 64"},{"StopId":602,"Code":"QTB 039","Name":"Công an Quận Tân Bình","StopType":"Trụ dừng","Zone":"Quận Tân Bình","Ward":null,"AddressNo":"340H","Street":"Hoàng Văn Thụ","SupportDisability":"","Status":"Đang khai thác","Lng":106.657425,"Lat":10.79717,"Search":"CaQTB 340H HVT","Routes":"08, 103, 145, 148, 50, 59, 63-1, 64"},{"StopId":604,"Code":"QTB 064","Name":"Hội Chợ Triển lãm Tân Bình","StopType":"Trụ dừng","Zone":"Quận Tân Bình","Ward":null,"AddressNo":"20 (B9)","Street":"Xuân Diệu","SupportDisability":"","Status":"Đang khai thác","Lng":106.655145,"Lat":10.796122,"Search":"HCTlTB 20( XD","Routes":"08, 103, 13, 145, 148, 30, 50, 59, 64, 94"},{"StopId":603,"Code":"QTB 065","Name":"Trường Phạm Ngũ Lão","StopType":"Trụ dừng","Zone":"Quận Tân Bình","Ward":null,"AddressNo":"149 (E62)","Street":"Xuân Hồng","SupportDisability":"","Status":"Đang khai thác","Lng":106.654066,"Lat":10.796032,"Search":"TPNL 149( XH","Routes":"08, 103, 13, 145, 148, 30, 50, 59, 64, 65, 94"},{"StopId":606,"Code":"QTB 066","Name":"Cây xăng Đôi","StopType":"Trụ dừng","Zone":"Quận Tân Bình","Ward":null,"AddressNo":"23","Street":"Xuân Hồng","SupportDisability":"","Status":"Đang khai thác","Lng":106.652184,"Lat":10.794256,"Search":"CxD 23 XH","Routes":"08, 103, 13, 145, 148, 30, 50, 59, 64, 65, 94"},{"StopId":1719,"Code":"QTB 067","Name":"Ngã tư Bảy Hiền","StopType":"Biển treo","Zone":"Quận Tân Bình","Ward":null,"AddressNo":"106","Street":"Trường Chinh","SupportDisability":"","Status":"Đang khai thác","Lng":106.651191,"Lat":10.794182,"Search":"NtBH 106 TC","Routes":"13, 30, 64, 65, 94"},{"StopId":1720,"Code":"QTB 068","Name":"Nhà Thở Đắc Lộ","StopType":"Trụ dừng","Zone":"Quận Tân Bình","Ward":null,"AddressNo":"150","Street":"Trường Chinh","SupportDisability":"","Status":"Đang khai thác","Lng":106.649576,"Lat":10.795068,"Search":"NTDL 150 TC","Routes":"13, 30, 64, 65, 94"},{"StopId":1301,"Code":"QTB 069","Name":"Ngã ba Hoàng Hoa Thám","StopType":"Nhà chờ","Zone":"Quận Tân Bình","Ward":null,"AddressNo":"162T","Street":"Trường Chinh","SupportDisability":"","Status":"Đang khai thác","Lng":106.647747,"Lat":10.796053,"Search":"NbHHT 162T TC","Routes":"13, 30, 64, 65, 94"},{"StopId":1723,"Code":"QTB 086","Name":"Hội Chữ thập đỏ Tân Bình","StopType":"Ô sơn","Zone":"Quận Tân Bình","Ward":null,"AddressNo":"32","Street":"Đồng Đen","SupportDisability":"","Status":"Đang khai thác","Lng":106.645591,"Lat":10.796322,"Search":"HCtdTB 32 DD","Routes":"64"},{"StopId":1724,"Code":"QTB 087","Name":"Trường Trần Quốc Toản","StopType":"Trụ dừng","Zone":"Quận Tân Bình","Ward":null,"AddressNo":"96 (L8-L10)","Street":"Đồng Đen","SupportDisability":"","Status":"Đang khai thác","Lng":106.644241,"Lat":10.792597,"Search":"TTQT 96( DD","Routes":"64"},{"StopId":3159,"Code":"QTB 144","Name":"Phương Nam","StopType":"Ô sơn","Zone":"Quận Tân Bình","Ward":null,"AddressNo":"185","Street":"Bàu Cát","SupportDisability":"","Status":"Đang khai thác","Lng":106.643333,"Lat":10.792167,"Search":"PN 185 BC","Routes":"64"},{"StopId":4337,"Code":"QTB 145","Name":"Ngã tư Nguyễn Hồng Đào","StopType":"Trụ dừng","Zone":"Quận Tân Bình","Ward":null,"AddressNo":"37","Street":"Bàu Cát","SupportDisability":"","Status":"Chưa khai thác","Lng":106.641102,"Lat":10.793079,"Search":"NtNHD 37 BC","Routes":"64"},{"StopId":2396,"Code":"QTP 004","Name":"Nguyễn Hồng Đào","StopType":"Trụ dừng","Zone":"Quận Tân Phú","Ward":null,"AddressNo":"Đối diện 770","Street":"Âu Cơ","SupportDisability":"","Status":"Đang khai thác","Lng":106.640253,"Lat":10.789466,"Search":"NHD Dd770 AC","Routes":"23, 27, 62, 64"},{"StopId":2299,"Code":"QTP 005","Name":"Trạm Ngã 4 Thoại Ngọc Hầu","StopType":"Ô sơn","Zone":"Quận Tân Phú","Ward":"Phường Hoà Thạnh","AddressNo":"647","Street":"Âu Cơ","SupportDisability":"","Status":"Đang khai thác","Lng":106.641235,"Lat":10.786605,"Search":"TN4TNH 647 AC","Routes":"23, 27, 62, 64"},{"StopId":1729,"Code":"QTP 119","Name":"Trường Trung Cấp CNTT Sài Gòn","StopType":"Trụ dừng","Zone":"Quận Tân Phú","Ward":"Phường Hoà Thạnh","AddressNo":"14 (1333)","Street":"Thoại Ngọc Hầu","SupportDisability":"","Status":"Đang khai thác","Lng":106.640481,"Lat":10.78513,"Search":"TTCCSG 14( TNH","Routes":"62, 64"},{"StopId":1727,"Code":"QTP 120","Name":"UBND Quận Tân Phú","StopType":"Trụ dừng","Zone":"Quận Tân Phú","Ward":null,"AddressNo":"Đối diện 65","Street":"Thoại Ngọc Hầu","SupportDisability":"","Status":"Đang khai thác","Lng":106.637779,"Lat":10.783206,"Search":"UQTP Dd65 TNH","Routes":"62, 64"},{"StopId":3576,"Code":"QTP 191","Name":"Thoại Ngọc Hầu","StopType":"Trụ dừng","Zone":"Quận Tân Phú","Ward":"Phường Phú Thạnh","AddressNo":"611","Street":"Lũy Bán Bích","SupportDisability":"","Status":"Đang khai thác","Lng":106.635237,"Lat":10.779211,"Search":"TNH 611 LBB","Routes":"62, 64, 69"},{"StopId":3577,"Code":"QTPT220","Name":"Đình Hòa Thạnh","StopType":"Trụ dừng","Zone":"Quận Tân Phú","Ward":"Phường Phú Thạnh","AddressNo":"531","Street":"Lũy Bán Bích","SupportDisability":"","Status":"Đang khai thác","Lng":106.634159,"Lat":10.777061,"Search":"DHT 531 LBB","Routes":"62, 64, 69"},{"StopId":3578,"Code":"QTP 193","Name":"công ty nhựa Tân Phú","StopType":"Trụ dừng","Zone":"Quận Tân Phú","Ward":"Phường Hiệp Tân","AddressNo":"425","Street":"Lũy Bán Bích","SupportDisability":"","Status":"Đang khai thác","Lng":106.632625,"Lat":10.774632,"Search":"ctnTP 425 LBB","Routes":"62, 64, 69"},{"StopId":3579,"Code":"QTP 194","Name":"Cây Keo","StopType":"Trụ dừng","Zone":"Quận Tân Phú","Ward":"Phường Hiệp Tân","AddressNo":"295-297","Street":"Lũy Bán Bích","SupportDisability":"","Status":"Đang khai thác","Lng":106.631831,"Lat":10.771633,"Search":"CK 295-297 LBB","Routes":"62, 64, 69"},{"StopId":1570,"Code":"QTP 137","Name":"Ngã 4 Hòa Bình","StopType":"Biển treo","Zone":"Quận Tân Phú","Ward":"Phường Hiệp Tân","AddressNo":"69","Street":"Hòa Bình","SupportDisability":"","Status":"Đang khai thác","Lng":106.632539,"Lat":10.769973,"Search":"N4HB 69 HB","Routes":"15, 62, 64, 69"},{"StopId":1567,"Code":"QTP 136","Name":"Trường Hoàng Diệu","StopType":"Trụ dừng","Zone":"Quận Tân Phú","Ward":null,"AddressNo":"49","Street":"Hòa Bình","SupportDisability":"","Status":"Đang khai thác","Lng":106.633966,"Lat":10.769583,"Search":"THD 49 HB","Routes":"15, 62, 64, 69"},{"StopId":1571,"Code":"Q11 045","Name":"Thuỷ Tạ","StopType":"Nhà chờ","Zone":"Quận 11","Ward":null,"AddressNo":"ĐD 90 (nhà hàng Thủy Tạ Đầm Sen)","Street":"Hòa Bình","SupportDisability":"","Status":"Đang khai thác","Lng":106.637866,"Lat":10.768814,"Search":"TT D90(hTTDS HB","Routes":"15, 23, 62, 64, 69"},{"StopId":1022,"Code":"BX91","Name":"Bến xe buýt Đầm Sen","StopType":"Bến xe","Zone":"Quận 11","Ward":null,"AddressNo":"BẾN XE BUÝT ĐẦM SEN","Street":"Hòa Bình","SupportDisability":"","Status":"Đang khai thác","Lng":106.639733,"Lat":10.767834,"Search":"BxbDS BXBDS HB","Routes":"15, 38, 64"}]