[{"StopId":1482,"Code":"BX76","Name":"Khu chế xuất Linh Trung 2","StopType":"Bến xe","Zone":"TP. Thủ Đức - KV3","Ward":"Phường Linh Trung","AddressNo":"BẾN XE BUÝT KCX LINH TRUNG 2","Street":"Ngô Chí Quốc","SupportDisability":"","Status":"Đang khai thác","Lng":106.71764,"Lat":10.891215,"Search":"KcxLT2 BXBKLT2 NCQ","Routes":"141"},{"StopId":1478,"Code":"QTD 035","Name":"Khu Công nghiệp Đồng an","StopType":"Trụ dừng","Zone":"TP. Thủ Đức - KV3","Ward":"Phường Bình Chiểu","AddressNo":"1303","Street":"Tỉnh lộ 43","SupportDisability":"","Status":"Đang khai thác","Lng":106.721122,"Lat":10.893886,"Search":"KCnDa 1303 Tl43","Routes":"141"},{"StopId":1479,"Code":"QTD 036","Name":"Chợ Đồng An","StopType":"Trụ dừng","Zone":"TP. Thủ Đức - KV3","Ward":"Phường Bình Chiểu","AddressNo":"1275 (1269)","Street":"Tỉnh lộ 43","SupportDisability":"","Status":"Đang khai thác","Lng":106.723694,"Lat":10.892311,"Search":"CDA 1275( Tl43","Routes":"141"},{"StopId":1481,"Code":"QTD 037","Name":"Ngã 3 Linh Trung 2","StopType":"Trụ dừng","Zone":"TP. Thủ Đức - KV3","Ward":null,"AddressNo":"1227","Street":"Tỉnh lộ 43","SupportDisability":"","Status":"Đang khai thác","Lng":106.727688,"Lat":10.889835,"Search":"N3LT2 1227 Tl43","Routes":"141"},{"StopId":1483,"Code":"QTD 038","Name":"Nhà hàng Song Sinh","StopType":"Trụ dừng","Zone":"TP. Thủ Đức - KV3","Ward":null,"AddressNo":"1101-1103","Street":"Tỉnh lộ 43","SupportDisability":"","Status":"Đang khai thác","Lng":106.728734,"Lat":10.884615,"Search":"NhSS 1101-1103 Tl43","Routes":"141"},{"StopId":1486,"Code":"QTD 039","Name":"UBND Phường Bình Chiểu","StopType":"Trụ dừng","Zone":"TP. Thủ Đức - KV3","Ward":null,"AddressNo":"1049","Street":"Tỉnh lộ 43","SupportDisability":"","Status":"Đang khai thác","Lng":106.729254,"Lat":10.881938,"Search":"UPBC 1049 Tl43","Routes":"141"},{"StopId":1484,"Code":"QTD 040","Name":"Chợ Bình Chiểu","StopType":"Trụ dừng","Zone":"TP. Thủ Đức - KV3","Ward":null,"AddressNo":"961","Street":"Tỉnh lộ 43","SupportDisability":"","Status":"Đang khai thác","Lng":106.730472,"Lat":10.879025,"Search":"CBC 961 Tl43","Routes":"141"},{"StopId":1487,"Code":"QTD 041","Name":"Cây Xăng Bình Chiểu","StopType":"Trụ dừng","Zone":"TP. Thủ Đức - KV3","Ward":null,"AddressNo":"927-929","Street":"Tỉnh lộ 43","SupportDisability":"","Status":"Đang khai thác","Lng":106.731845,"Lat":10.876154,"Search":"CXBC 927-929 Tl43","Routes":"141"},{"StopId":1489,"Code":"QTD 042","Name":"Ngã Tư Gò Dưa","StopType":"Biển treo","Zone":"TP. Thủ Đức - KV3","Ward":null,"AddressNo":"865","Street":"Tỉnh lộ 43","SupportDisability":"","Status":"Đang khai thác","Lng":106.73207,"Lat":10.873826,"Search":"NTGD 865 Tl43","Routes":"141"},{"StopId":4459,"Code":"QTD 243","Name":"Cầu vượt Gò Dưa","StopType":"Trụ dừng","Zone":"TP. Thủ Đức - KV3","Ward":null,"AddressNo":"43 ","Street":"Đường số 10","SupportDisability":"","Status":"Đang khai thác","Lng":106.733792,"Lat":10.867351,"Search":"CvGD 43 Ds10","Routes":"141"},{"StopId":1485,"Code":"QTD 043","Name":"Phường Tam Bình","StopType":"Trụ dừng","Zone":"TP. Thủ Đức - KV3","Ward":"Phường Tam Bình","AddressNo":"691","Street":"Tô Ngọc Vân","SupportDisability":"","Status":"Đang khai thác","Lng":106.735611,"Lat":10.868147,"Search":"PTB 691 TNV","Routes":"141, 29, 89"},{"StopId":1492,"Code":"QTD 044","Name":"Điện lực Thủ Đức","StopType":"Trụ dừng","Zone":"TP. Thủ Đức - KV3","Ward":"Phường Tam Bình","AddressNo":"Điện lực Thủ Đức","Street":"Tô Ngọc Vân","SupportDisability":"","Status":"Đang khai thác","Lng":106.738144,"Lat":10.866876,"Search":"DlTD DlTD TNV","Routes":"141, 29, 89"},{"StopId":1488,"Code":"QTD 045","Name":"Công ty Minh Nghệ","StopType":"Trụ dừng","Zone":"TP. Thủ Đức - KV3","Ward":null,"AddressNo":"601","Street":"Tô Ngọc Vân","SupportDisability":"","Status":"Đang khai thác","Lng":106.740358,"Lat":10.865981,"Search":"CtMN 601 TNV","Routes":"141, 29, 89"},{"StopId":1494,"Code":"QTD 046","Name":"Chùa Vạn Hạnh","StopType":"Trụ dừng","Zone":"TP. Thủ Đức - KV3","Ward":"Phường Tam Phú","AddressNo":"571-573 (583)","Street":"Tô Ngọc Vân","SupportDisability":"","Status":"Đang khai thác","Lng":106.741839,"Lat":10.864554,"Search":"CVH 571-573( TNV","Routes":"141, 29, 89"},{"StopId":1490,"Code":"QTD 047","Name":"Chùa Vạn Đức","StopType":"Trụ dừng","Zone":"TP. Thủ Đức - KV3","Ward":null,"AddressNo":"521","Street":"Tô Ngọc Vân","SupportDisability":"","Status":"Đang khai thác","Lng":106.742713,"Lat":10.862968,"Search":"CVD 521 TNV","Routes":"141, 29"},{"StopId":1496,"Code":"QTD 048","Name":"Nhà thờ Tam Hà","StopType":"Trụ dừng","Zone":"TP. Thủ Đức - KV3","Ward":"Phường Tam Phú","AddressNo":"415 (419)","Street":"Tô Ngọc Vân","SupportDisability":"","Status":"Đang khai thác","Lng":106.745465,"Lat":10.860908,"Search":"NtTH 415( TNV","Routes":"141"},{"StopId":1491,"Code":"QTD 049","Name":"Chợ Tam Hà","StopType":"Biển treo","Zone":"TP. Thủ Đức - KV3","Ward":null,"AddressNo":"351-353","Street":"Tô Ngọc Vân","SupportDisability":"","Status":"Đang khai thác","Lng":106.747761,"Lat":10.859586,"Search":"CTH 351-353 TNV","Routes":"141"},{"StopId":1498,"Code":"QTD 050","Name":"Ngã Ba Linh Đông","StopType":"Trụ dừng","Zone":"TP. Thủ Đức - KV3","Ward":null,"AddressNo":"219","Street":"Tô Ngọc Vân","SupportDisability":"","Status":"Đang khai thác","Lng":106.75045,"Lat":10.855843,"Search":"NBLD 219 TNV","Routes":"141, 29, 89"},{"StopId":1493,"Code":"QTD 051","Name":"Bồn nước","StopType":"Trụ dừng","Zone":"TP. Thủ Đức - KV3","Ward":null,"AddressNo":"111","Street":"Tô Ngọc Vân","SupportDisability":"","Status":"Đang khai thác","Lng":106.752037,"Lat":10.852854,"Search":"Bn 111 TNV","Routes":"141, 29, 89"},{"StopId":1500,"Code":"QTD 052","Name":"Chợ Thủ Đức","StopType":"Trụ dừng","Zone":"TP. Thủ Đức - KV3","Ward":null,"AddressNo":"13","Street":"Tô Ngọc Vân","SupportDisability":"","Status":"Đang khai thác","Lng":106.75428,"Lat":10.851198,"Search":"CTD 13 TNV","Routes":"141, 29, 89"},{"StopId":493,"Code":"QTD 070","Name":"Ngã ba Chương Dương","StopType":"Trụ dừng","Zone":"TP. Thủ Đức - KV3","Ward":"Phường Bình Thọ","AddressNo":"120","Street":"Võ Văn Ngân","SupportDisability":"","Status":"Đang khai thác","Lng":106.760931,"Lat":10.850419,"Search":"NbCD 120 VVN","Routes":"06, 08, 141, 168V, 169V, 56, 57, 89"},{"StopId":490,"Code":"QTD 071","Name":"Cao đẳng xây dựng 2","StopType":"Nhà chờ","Zone":"TP. Thủ Đức - KV3","Ward":null,"AddressNo":"190","Street":"Võ Văn Ngân","SupportDisability":"","Status":"Đang khai thác","Lng":106.764439,"Lat":10.85065,"Search":"Cdxd2 190 VVN","Routes":"06, 08, 141, 168V, 169V, 56, 57, 89"},{"StopId":492,"Code":"QTD 072","Name":"Siêu thị Nguyễn Kim","StopType":"Trụ dừng","Zone":"TP. Thủ Đức - KV3","Ward":"Phường Linh Chiểu","AddressNo":"275-274","Street":"Võ Văn Ngân","SupportDisability":"","Status":"Đang khai thác","Lng":106.769112,"Lat":10.849686,"Search":"StNK 275-274 VVN","Routes":"06, 08, 141, 168V, 56, 57, 89"},{"StopId":497,"Code":"QTD 073","Name":"Trường ĐHSP Kỹ Thuật","StopType":"Trụ dừng","Zone":"TP. Thủ Đức - KV3","Ward":"Phường Bình Thọ","AddressNo":"366-368","Street":"Võ Văn Ngân","SupportDisability":"","Status":"Đang khai thác","Lng":106.771917,"Lat":10.849597,"Search":"TDKT 366-368 VVN","Routes":"06, 08, 141, 168V, 56, 57, 89"},{"StopId":1502,"Code":"Q9 089","Name":"Siêu thị Coopmart","StopType":"Nhà chờ","Zone":"TP. Thủ Đức - KV2","Ward":null,"AddressNo":"4-6","Street":"Lê Văn Việt","SupportDisability":"","Status":"Đang khai thác","Lng":106.775032,"Lat":10.848192,"Search":"StC 4-6 LVV","Routes":"141, 56, 57, 76"},{"StopId":1504,"Code":"Q9 090","Name":"Bệnh viện 7C-Trường Quân y 2","StopType":"Trụ dừng","Zone":"TP. Thủ Đức - KV2","Ward":null,"AddressNo":"50","Street":"Lê Văn Việt","SupportDisability":"","Status":"Đang khai thác","Lng":106.778124,"Lat":10.846262,"Search":"Bv7C-TruongQy2 50 LVV","Routes":"141, 56, 57, 76"},{"StopId":1495,"Code":"Q9 091","Name":"Nhà sách Thành Nghĩa","StopType":"Trụ dừng","Zone":"TP. Thủ Đức - KV2","Ward":null,"AddressNo":"142-144","Street":"Lê Văn Việt","SupportDisability":"","Status":"Đang khai thác","Lng":106.780563,"Lat":10.84486,"Search":"NsTN 142-144 LVV","Routes":"141, 162V, 56, 57, 76"},{"StopId":1497,"Code":"Q9 092","Name":"Trạm y tế Phường Hiệp Phú","StopType":"Trụ dừng","Zone":"TP. Thủ Đức - KV2","Ward":"Phường Tăng Nhơn Phú B","AddressNo":"192-194 (188)","Street":"Lê Văn Việt","SupportDisability":"","Status":"Đang khai thác","Lng":106.782028,"Lat":10.844114,"Search":"TytPHP 192-194( LVV","Routes":"141, 162V, 56, 76, 99"},{"StopId":1499,"Code":"Q9 093","Name":"Chợ Hiệp Phú","StopType":"Trụ dừng","Zone":"TP. Thủ Đức - KV2","Ward":"Phường Tăng Nhơn Phú B","AddressNo":"(278) 284","Street":"Lê Văn Việt","SupportDisability":"","Status":"Đang khai thác","Lng":106.784261,"Lat":10.844128,"Search":"CHP (284 LVV","Routes":"141, 162V, 56, 76, 99"},{"StopId":1506,"Code":"Q9 094","Name":"Chợ Tăng Nhơn Phú A","StopType":"Trụ dừng","Zone":"TP. Thủ Đức - KV2","Ward":"Phường Tăng Nhơn Phú A","AddressNo":"424A-424B","Street":"Lê Văn Việt","SupportDisability":"","Status":"Đang khai thác","Lng":106.787973,"Lat":10.844813,"Search":"CTNPA 424A-424B LVV","Routes":"141, 56, 99"},{"StopId":1501,"Code":"Q9 095","Name":"Bệnh viện Quận 9","StopType":"Trụ dừng","Zone":"TP. Thủ Đức - KV2","Ward":null,"AddressNo":"Đối diện Bệnh viện Quận 9","Street":"Lê Văn Việt","SupportDisability":"","Status":"Đang khai thác","Lng":106.790977,"Lat":10.8446,"Search":"BvQ9 DdBvQ9 LVV","Routes":"141, 56, 99"},{"StopId":1508,"Code":"Q9 096","Name":"Đại Học GTVT","StopType":"Trụ dừng","Zone":"TP. Thủ Đức - KV2","Ward":"Phường Tăng Nhơn Phú A","AddressNo":"Đối diện 451","Street":"Lê Văn Việt","SupportDisability":"","Status":"Đang khai thác","Lng":106.793922,"Lat":10.845276,"Search":"DHG Dd451 LVV","Routes":"141, 56, 99"},{"StopId":8101,"Code":"Q9 313","Name":"Ký túc xá Đại học Sư phạm kỹ thuật","StopType":"Nhà chờ","Zone":"TP. Thủ Đức - KV2","Ward":"Phường Tăng Nhơn Phú A","AddressNo":"Cây xanh 132-134","Street":"Lê Văn Việt","SupportDisability":"Có","Status":"Đang khai thác","Lng":106.796429,"Lat":10.845888,"Search":"KtxDhSpkt Cx132-134 LVV","Routes":"141, 56, 99"},{"StopId":1505,"Code":"Q9 242","Name":"Ngã 3 Nghêu sò","StopType":"Trụ dừng","Zone":"TP. Thủ Đức - KV2","Ward":null,"AddressNo":"CX3","Street":"Làng Tăng Phú","SupportDisability":"","Status":"Đang khai thác","Lng":106.798767,"Lat":10.845685,"Search":"N3Ns C LTP","Routes":"141, 76"},{"StopId":1507,"Code":"Q9 243","Name":"Khu phố 4","StopType":"Trụ dừng","Zone":"TP. Thủ Đức - KV2","Ward":null,"AddressNo":"50-52","Street":"Làng Tăng Phú","SupportDisability":"","Status":"Đang khai thác","Lng":106.79838,"Lat":10.842879,"Search":"Kp4 50-52 LTP","Routes":"141, 76"},{"StopId":1510,"Code":"Q9 244","Name":"Ngã 3 Xóm Bến","StopType":"Trụ dừng","Zone":"TP. Thủ Đức - KV2","Ward":null,"AddressNo":"19D","Street":"Làng Tăng Phú","SupportDisability":"","Status":"Đang khai thác","Lng":106.797184,"Lat":10.840382,"Search":"N3XB 19D LTP","Routes":"141, 76"},{"StopId":1509,"Code":"Q9 074","Name":"Dốc xóm Bến","StopType":"Trụ dừng","Zone":"TP. Thủ Đức - KV2","Ward":null,"AddressNo":"Đối diện Quán Nhà Quê","Street":"Lã Xuân Oai","SupportDisability":"","Status":"Đang khai thác","Lng":106.799408,"Lat":10.836178,"Search":"DxB DdQNQ LXO","Routes":"141, 76"},{"StopId":1512,"Code":"Q9 073","Name":"Ngã tư Samsung","StopType":"Trụ dừng","Zone":"TP. Thủ Đức - KV2","Ward":null,"AddressNo":"Cột điện T73C (Đối diện 215)","Street":"Lã Xuân Oai","SupportDisability":"","Status":"Đang khai thác","Lng":106.803589,"Lat":10.831241,"Search":"NtS CdT(d215) LXO","Routes":"141, 76"},{"StopId":1511,"Code":"Q9 072","Name":"Ngã ba Lò Lu","StopType":"Trụ dừng","Zone":"TP. Thủ Đức - KV2","Ward":null,"AddressNo":"12/1","Street":"Lã Xuân Oai","SupportDisability":"","Status":"Đang khai thác","Lng":106.808084,"Lat":10.823885,"Search":"NbLL 12/1 LXO","Routes":"141"},{"StopId":1515,"Code":"Q9 071","Name":"Trạm xăng số 5","StopType":"Trụ dừng","Zone":"TP. Thủ Đức - KV2","Ward":null,"AddressNo":"Kế 106 (Kế 67)","Street":"Lã Xuân Oai","SupportDisability":"","Status":"Đang khai thác","Lng":106.809624,"Lat":10.819593,"Search":"Txs5 K106(67) LXO","Routes":"141"},{"StopId":1513,"Code":"Q9 070","Name":"Trường cấp 3 Long Trường","StopType":"Trụ dừng","Zone":"TP. Thủ Đức - KV2","Ward":null,"AddressNo":"13-12A (18)","Street":"Lã Xuân Oai","SupportDisability":"","Status":"Đang khai thác","Lng":106.810707,"Lat":10.817035,"Search":"Tc3LT 13-12A( LXO","Routes":"141"},{"StopId":1517,"Code":"Q9 069","Name":"Quán Tây Tăng Long","StopType":"Trụ dừng","Zone":"TP. Thủ Đức - KV2","Ward":null,"AddressNo":"Đối diện 18A1","Street":"Lã Xuân Oai","SupportDisability":"","Status":"Đang khai thác","Lng":106.813766,"Lat":10.813004,"Search":"QTTL Dd18A1 LXO","Routes":"141"},{"StopId":7160,"Code":"Q9 068","Name":"Câu cá Lan Anh","StopType":"Trụ dừng","Zone":"TP. Thủ Đức - KV2","Ward":null,"AddressNo":"Đối diện 27","Street":"Lã Xuân Oai","SupportDisability":"Có","Status":"Đang khai thác","Lng":106.815627,"Lat":10.809105,"Search":"CcLA Dd27 LXO","Routes":"141"},{"StopId":1519,"Code":"Q9 067","Name":"Ngã 3 Long Trường","StopType":"Trụ dừng","Zone":"TP. Thủ Đức - KV2","Ward":null,"AddressNo":"766 (487)","Street":"Lã Xuân Oai","SupportDisability":"","Status":"Đang khai thác","Lng":106.816962,"Lat":10.806007,"Search":"N3LT 766( LXO","Routes":"141"},{"StopId":1516,"Code":"Q9 166","Name":"Chợ Long Trường","StopType":"Trụ dừng","Zone":"TP. Thủ Đức - KV2","Ward":"Phường Long Trường","AddressNo":"Chợ Long Trường","Street":"Nguyễn Duy Trinh","SupportDisability":"","Status":"Đang khai thác","Lng":106.821106,"Lat":10.806039,"Search":"CLT CLT NDT","Routes":"141, 88"},{"StopId":4551,"Code":"Q9 278","Name":"Tam Đa 1","StopType":"Trụ dừng","Zone":"TP. Thủ Đức - KV2","Ward":null,"AddressNo":"Tam Đa 1","Street":"Tam Đa","SupportDisability":"","Status":"Không có","Lng":106.827595,"Lat":10.807345,"Search":"TD1 TD1 TD","Routes":"141"},{"StopId":3264,"Code":"Q9 279","Name":"Đường số 10","StopType":"Trụ dừng","Zone":"TP. Thủ Đức - KV2","Ward":"Phường Long Trường","AddressNo":"31B (Kế 129/2)","Street":"Tam Đa","SupportDisability":"","Status":"Đang khai thác","Lng":106.83098,"Lat":10.807841,"Search":"Ds10 31B(129/2) TD","Routes":"141"},{"StopId":8011,"Code":"TPTĐ 141","Name":"Trụ sở Khu phố Tam Đa","StopType":"Trụ dừng","Zone":"TP. Thủ Đức - KV2","Ward":"Phường Trường Thạnh","AddressNo":"Gần Trụ sở Khu phố Tam Đa ","Street":"Tam Đa","SupportDisability":"Có","Status":"Đang khai thác","Lng":106.835012,"Lat":10.806661,"Search":"TsKpTD GTsKpTD TD","Routes":"141"},{"StopId":1521,"Code":"BX28","Name":"Khu du lịch BCR","StopType":"Bến xe","Zone":"TP. Thủ Đức - KV2","Ward":null,"AddressNo":"KDL BCR","Street":"Tam Đa","SupportDisability":"","Status":"Đang khai thác","Lng":106.839058,"Lat":10.803757,"Search":"KdlB KB TD","Routes":"141"}]