[{"StopId":7212,"Code":"BXLT Go Cong","Name":"Bến xe Gò Công","StopType":"Bến xe","Zone":"Ngoại thành","Ward":null,"AddressNo":"Bến xe Gò Công","Street":"Trần Công Tưởng","SupportDisability":"Có","Status":"Đang khai thác","Lng":106.661925,"Lat":10.359629,"Search":"BxGC BxGC TCT","Routes":"62-9"},{"StopId":3116,"Code":"LA_4","Name":"Nhà máy Kizunai","StopType":"Ô sơn","Zone":"Huyện Bình Chánh","Ward":null,"AddressNo":"Đối diện 86 (B8/33B6)","Street":"Quốc lộ 50","SupportDisability":"","Status":"Đang khai thác","Lng":106.660509,"Lat":10.633061,"Search":"NmK Dd86( Ql50","Routes":"47, 62-11, 62-9"},{"StopId":3119,"Code":"LA_1","Name":"Hoàng Thái Mart","StopType":"Ô sơn","Zone":"Huyện Bình Chánh","Ward":null,"AddressNo":"Cửa hàng gỗ Hồng Thảo (Hoàng Thái Mart)","Street":"Quốc lộ 50","SupportDisability":"","Status":"Đang khai thác","Lng":106.657993,"Lat":10.638318,"Search":"HTM ChgHT(TM Ql50","Routes":"47, 62-11, 62-9"},{"StopId":3118,"Code":"HBC 198","Name":"Trạm xăng Hoàng Thái","StopType":"Trụ dừng","Zone":"Huyện Bình Chánh","Ward":"Xã Quy Đức","AddressNo":"Đối diện D8A/34","Street":"Quốc lộ 50","SupportDisability":"","Status":"Đang khai thác","Lng":106.656861,"Lat":10.644481,"Search":"TxHT DdD Ql50","Routes":"47, 62-11, 62-9"},{"StopId":3121,"Code":"HBC 199","Name":"Bệnh viện Tâm thần Bình Minh","StopType":"Trụ dừng","Zone":"Huyện Bình Chánh","Ward":"Xã Quy Đức","AddressNo":"A11/32A","Street":"Quốc lộ 50","SupportDisability":"","Status":"Đang khai thác","Lng":106.656024,"Lat":10.648282,"Search":"BvTtBM A Ql50","Routes":"47, 62-11, 62-9"},{"StopId":3120,"Code":"HBC 200","Name":"Chùa Phước Hội","StopType":"Trụ dừng","Zone":"Huyện Bình Chánh","Ward":null,"AddressNo":"B7/177","Street":"Quốc lộ 50","SupportDisability":"","Status":"Đang khai thác","Lng":106.654791,"Lat":10.652305,"Search":"CPH B Ql50","Routes":"47, 62-11, 62-9"},{"StopId":3123,"Code":"HBC 201","Name":"Chùa Tam Bửu","StopType":"Ô sơn","Zone":"Huyện Bình Chánh","Ward":null,"AddressNo":"B3/63/1 (B2/63/1)","Street":"Quốc lộ 50","SupportDisability":"","Status":"Đang khai thác","Lng":106.653214,"Lat":10.656296,"Search":"CTB B( Ql50","Routes":"47, 62-11, 62-9"},{"StopId":3122,"Code":"HBC 202","Name":"Chùa Linh Hòa","StopType":"Trụ dừng","Zone":"Huyện Bình Chánh","Ward":null,"AddressNo":"B2/35A","Street":"Quốc lộ 50","SupportDisability":"","Status":"Đang khai thác","Lng":106.651905,"Lat":10.659902,"Search":"CLH B Ql50","Routes":"47, 62-11, 62-9"},{"StopId":3125,"Code":"HBC 203","Name":"Đường liên Ấp 1-2","StopType":"Trụ dừng","Zone":"Huyện Bình Chánh","Ward":"Xã Phạm Văn Hai","AddressNo":"A8/240A","Street":"Quốc lộ 50","SupportDisability":"","Status":"Đang khai thác","Lng":106.651658,"Lat":10.663001,"Search":"DlA1-2 A Ql50","Routes":"47, 62-11, 62-9"},{"StopId":3124,"Code":"HBC 204","Name":"Nghĩa trang Đa Phước","StopType":"Trụ dừng","Zone":"Huyện Bình Chánh","Ward":null,"AddressNo":"A8/233 (Đối diện D14/407)","Street":"Quốc lộ 50","SupportDisability":"","Status":"Đang khai thác","Lng":106.651352,"Lat":10.666502,"Search":"NtDP A(dD Ql50","Routes":"47, 62-11, 62-9"},{"StopId":3127,"Code":"HBC 205","Name":"Trường THCS Đa Phước","StopType":"Nhà chờ","Zone":"Huyện Bình Chánh","Ward":null,"AddressNo":"E11/323","Street":"Quốc lộ 50","SupportDisability":"","Status":"Đang khai thác","Lng":106.651175,"Lat":10.66986,"Search":"TTDP E Ql50","Routes":"47, 62-11, 62-9"},{"StopId":3126,"Code":"HBC 206","Name":"Công ty Hồng Nhất","StopType":"Trụ dừng","Zone":"Huyện Bình Chánh","Ward":null,"AddressNo":"A1/6/5 (A1/6)","Street":"Quốc lộ 50","SupportDisability":"","Status":"Đang khai thác","Lng":106.651003,"Lat":10.673508,"Search":"CtHN A( Ql50","Routes":"47, 62-11, 62-9"},{"StopId":3128,"Code":"HBC 207","Name":"Đình Chánh An Phú","StopType":"Ô sơn","Zone":"Huyện Bình Chánh","Ward":null,"AddressNo":"A6/183","Street":"Quốc lộ 50","SupportDisability":"","Status":"Đang khai thác","Lng":106.650681,"Lat":10.677899,"Search":"DCAP A Ql50","Routes":"47, 62-11, 62-9"},{"StopId":3129,"Code":"HBC 208","Name":"Trường chuyên biệt Rạng Đông","StopType":"Trụ dừng","Zone":"Huyện Bình Chánh","Ward":null,"AddressNo":"A12/366 (A12/363)","Street":"Quốc lộ 50","SupportDisability":"","Status":"Đang khai thác","Lng":106.651261,"Lat":10.683149,"Search":"TcbRD A( Ql50","Routes":"47, 62-11, 62-9"},{"StopId":3131,"Code":"HBC 209","Name":"Trường tiểu học Phong Phú","StopType":"Ô sơn","Zone":"Huyện Bình Chánh","Ward":null,"AddressNo":"Trường Mầm non Hướng Dương (Trường tiểu học Phong Phú)","Street":"Quốc lộ 50","SupportDisability":"","Status":"Đang khai thác","Lng":106.653691,"Lat":10.688516,"Search":"TthPP TMnHD(thPP Ql50","Routes":"47, 62-11, 62-9"},{"StopId":3130,"Code":"HBC 210","Name":"Trịnh Quang Nghị","StopType":"Ô sơn","Zone":"Huyện Bình Chánh","Ward":null,"AddressNo":"D3/65","Street":"Quốc lộ 50","SupportDisability":"","Status":"Đang khai thác","Lng":106.655096,"Lat":10.692622,"Search":"TQN D Ql50","Routes":"47, 62-11, 62-9"},{"StopId":3133,"Code":"HBC 211","Name":"Trạm xăng Kim Quang","StopType":"Ô sơn","Zone":"Huyện Bình Chánh","Ward":null,"AddressNo":"E8/212M","Street":"Quốc lộ 50","SupportDisability":"","Status":"Đang khai thác","Lng":106.654978,"Lat":10.695548,"Search":"TxKQ E Ql50","Routes":"47, 62-11, 62-9"},{"StopId":3132,"Code":"HBC 212","Name":"Trung tâm tư vấn đào tạo Úc Mỹ","StopType":"Trụ dừng","Zone":"Huyện Bình Chánh","Ward":null,"AddressNo":"E8/401 (E8/214A)","Street":"Quốc lộ 50","SupportDisability":"","Status":"Đang khai thác","Lng":106.654501,"Lat":10.698136,"Search":"TttvdtÚM E( Ql50","Routes":"47, 62-11, 62-9"},{"StopId":3136,"Code":"HBC 213","Name":"Chùa Thiện Phước","StopType":"Trụ dừng","Zone":"Huyện Bình Chánh","Ward":null,"AddressNo":"E9/251","Street":"Quốc lộ 50","SupportDisability":"","Status":"Đang khai thác","Lng":106.654587,"Lat":10.701768,"Search":"CTP E Ql50","Routes":"47, 62-11, 62-9"},{"StopId":3134,"Code":"HBC 214","Name":"Xăng dầu Phong Phú","StopType":"Trụ dừng","Zone":"Huyện Bình Chánh","Ward":null,"AddressNo":"E10/288","Street":"Quốc lộ 50","SupportDisability":"","Status":"Đang khai thác","Lng":106.654957,"Lat":10.704709,"Search":"XdPP E Ql50","Routes":"47, 62-11, 62-9"},{"StopId":3137,"Code":"HBC 215","Name":"Mầm non Anh Việt","StopType":"Ô sơn","Zone":"Huyện Bình Chánh","Ward":null,"AddressNo":"E11/304 (E11/304C)","Street":"Quốc lộ 50","SupportDisability":"","Status":"Đang khai thác","Lng":106.655493,"Lat":10.70823,"Search":"MnAV E( Ql50","Routes":"47, 62-11, 62-9"},{"StopId":3135,"Code":"HBC 216","Name":"Chùa Ân Hòa","StopType":"Trụ dừng","Zone":"Huyện Bình Chánh","Ward":null,"AddressNo":"B10/8 (B10/7)","Street":"Quốc lộ 50","SupportDisability":"","Status":"Đang khai thác","Lng":106.655756,"Lat":10.712051,"Search":"CAH B( Ql50","Routes":"47, 62-11, 62-9"},{"StopId":3139,"Code":"HBC 217","Name":"Văn phòng Ấp 3","StopType":"Ô sơn","Zone":"Huyện Bình Chánh","Ward":"Xã Bình Hưng","AddressNo":"B13/118","Street":"Quốc lộ 50","SupportDisability":"","Status":"Đang khai thác","Lng":106.655686,"Lat":10.71552,"Search":"VpA3 B Ql50","Routes":"47, 62-11, 62-9"},{"StopId":3138,"Code":"HBC 218","Name":"Chùa Thiên Trì","StopType":"Trụ dừng","Zone":"Huyện Bình Chánh","Ward":"Xã Bình Hưng","AddressNo":"B15/21 (B15/20)","Street":"Quốc lộ 50","SupportDisability":"","Status":"Đang khai thác","Lng":106.65574,"Lat":10.718598,"Search":"CTT B( Ql50","Routes":"47, 62-11, 62-9"},{"StopId":2247,"Code":"HBC 219","Name":"Bình Hưng","StopType":"Ô sơn","Zone":"Huyện Bình Chánh","Ward":null,"AddressNo":"B17/24","Street":"Quốc lộ 50","SupportDisability":"","Status":"Đang khai thác","Lng":106.655837,"Lat":10.720848,"Search":"BH B Ql50","Routes":"22, 45, 47, 62-11, 62-9"},{"StopId":2244,"Code":"HBC 220","Name":"Giáo xứ Bình Hưng","StopType":"Ô sơn","Zone":"Huyện Bình Chánh","Ward":null,"AddressNo":"A18/16","Street":"Quốc lộ 50","SupportDisability":"","Status":"Đang khai thác","Lng":106.655944,"Lat":10.724923,"Search":"GxBH A Ql50","Routes":"22, 45, 47, 62-11, 62-9"},{"StopId":2246,"Code":"HBC 221","Name":"Mầm non ánh Dương","StopType":"Ô sơn","Zone":"Huyện Bình Chánh","Ward":null,"AddressNo":"A24/20B","Street":"Quốc lộ 50","SupportDisability":"","Status":"Đang khai thác","Lng":106.656089,"Lat":10.7277,"Search":"MnaD A Ql50","Routes":"22, 45, 47, 62-11, 62-9"},{"StopId":2248,"Code":"HBC 222","Name":"Công an Bình Hưng","StopType":"Trụ dừng","Zone":"Huyện Bình Chánh","Ward":null,"AddressNo":"Đối diện A6/10 (A27/13)","Street":"Quốc lộ 50","SupportDisability":"","Status":"Đang khai thác","Lng":106.656105,"Lat":10.730905,"Search":"CaBH DdA( Ql50","Routes":"22, 45, 47, 62-11, 62-9"},{"StopId":496,"Code":"BX 20","Name":"Bến xe buýt Quận 8","StopType":"Bến xe","Zone":"Quận 8","Ward":null,"AddressNo":"BẾN XE BUÝT QUẬN 8","Street":"Quốc lộ 50","SupportDisability":"","Status":"Đang khai thác","Lng":106.656357,"Lat":10.733545,"Search":"BxbQ8 BXBQ8 Ql50","Routes":"08, 22, 25, 34, 59, 62, 62-11, 62-9"}]