[{"StopId":725,"Code":"BX 46","Name":"Bến xe Miền Tây","StopType":"Bến xe","Zone":"Quận Bình Tân","Ward":null,"AddressNo":"Bến xe Miền Tây","Street":"Kinh Dương Vương","SupportDisability":"","Status":"Đang khai thác","Lng":106.619438,"Lat":10.739486,"Search":"BxMT BxMT KDV","Routes":"10, 102, 139, 14, 148, 151, 32, 39, 41, 60-1, 91"},{"StopId":4149,"Code":"QBT 009","Name":"Chợ An Lạc ","StopType":"Trụ dừng","Zone":"Quận Bình Tân","Ward":"Phường An Lạc","AddressNo":"49-51 (317) - KIA ","Street":"Kinh Dương Vương","SupportDisability":"","Status":"Đang khai thác","Lng":106.62136,"Lat":10.743396,"Search":"CAL 49-51(-K KDV","Routes":"09, 10, 139, 14, 148, 25, 32, 61, 62-1, 62-10, 62-2, 62-8, 63-1, 84, 91"},{"StopId":140,"Code":"QBT 010","Name":"Kinh Dương Vương","StopType":"Trụ dừng","Zone":"Quận Bình Tân","Ward":"Phường An Lạc","AddressNo":"7","Street":"Kinh Dương Vương","SupportDisability":"","Status":"Đang khai thác","Lng":106.623162,"Lat":10.744919,"Search":"KDV 7 KDV","Routes":"09, 10, 139, 14, 148, 25, 32, 61, 62-1, 62-10, 62-2, 62-8, 63-1, 84, 91"},{"StopId":718,"Code":"Q6 048","Name":"Công viên Phú Lâm","StopType":"Trụ dừng","Zone":"Quận 6","Ward":null,"AddressNo":"209 ","Street":"Kinh Dương Vương","SupportDisability":"","Status":"Đang khai thác","Lng":106.626257,"Lat":10.747549,"Search":"CvPL 209 KDV","Routes":"09, 139, 14, 32, 62-1, 62-10, 62-2, 62-8, 63-1, 84"},{"StopId":715,"Code":"Q6 049","Name":"Hồ Bơi Phú Lâm","StopType":"Trụ dừng","Zone":"Quận 6","Ward":null,"AddressNo":"157 ","Street":"Kinh Dương Vương","SupportDisability":"","Status":"Đang khai thác","Lng":106.627963,"Lat":10.748914,"Search":"HBPL 157 KDV","Routes":"09, 139, 14, 32, 62-1, 62-10, 62-2, 62-8, 63-1, 84"},{"StopId":720,"Code":"Q6 050","Name":"Cư xá Phú Lâm","StopType":"Trụ dừng","Zone":"Quận 6","Ward":null,"AddressNo":"93","Street":"Kinh Dương Vương","SupportDisability":"","Status":"Đang khai thác","Lng":106.630914,"Lat":10.751217,"Search":"CxPL 93 KDV","Routes":"09, 139, 14, 32, 62-1, 62-10, 62-2, 62-8, 63-1, 84"},{"StopId":7138,"Code":"Q6 116","Name":"UBND Phường 13","StopType":"Trụ dừng","Zone":"Quận 6","Ward":"Phường 13","AddressNo":"Cây xanh số 361","Street":"Đặng Nguyên Cẩn","SupportDisability":"Có","Status":"Đang khai thác","Lng":106.631659,"Lat":10.753905,"Search":"UP13 Cxs361 DNC","Routes":"32"},{"StopId":7139,"Code":"Q6 117","Name":"Tân Hóa","StopType":"Trụ dừng","Zone":"Quận 6","Ward":"Phường 14","AddressNo":"223","Street":"Đặng Nguyên Cẩn","SupportDisability":"Có","Status":"Đang khai thác","Lng":106.634835,"Lat":10.757341,"Search":"TH 223 DNC","Routes":"32"},{"StopId":2575,"Code":"QTP 199","Name":"Cầu Tân Hóa","StopType":"Trụ dừng","Zone":"Quận Tân Phú","Ward":"Phường Tân Thới Hoà","AddressNo":"12A","Street":"Lũy Bán Bích","SupportDisability":"","Status":"Đang khai thác","Lng":106.633258,"Lat":10.759829,"Search":"CTH 12A LBB","Routes":"32"},{"StopId":2580,"Code":"QTP 200","Name":"Công ty Dệt May Sài Gòn","StopType":"Trụ dừng","Zone":"Quận Tân Phú","Ward":"Phường Tân Thới Hoà","AddressNo":"40","Street":"Lũy Bán Bích","SupportDisability":"","Status":"Đang khai thác","Lng":106.632555,"Lat":10.761394,"Search":"CtDMSG 40 LBB","Routes":"32"},{"StopId":2576,"Code":"QTP 201","Name":"Công Ty bao bì nhựa Tân Tiến","StopType":"Nhà chờ","Zone":"Quận Tân Phú","Ward":"Phường Tân Thới Hoà","AddressNo":"98 (đối diện 177)","Street":"Lũy Bán Bích","SupportDisability":"","Status":"Đang khai thác","Lng":106.631874,"Lat":10.76845,"Search":"CTbbnTT 98(d177) LBB","Routes":"32"},{"StopId":1621,"Code":"QTP 143","Name":"Trung Tâm Mua Sắm","StopType":"Ô sơn","Zone":"Quận Tân Phú","Ward":"Phường Hiệp Tân","AddressNo":"214","Street":"Hòa Bình","SupportDisability":"","Status":"Đang khai thác","Lng":106.629044,"Lat":10.771277,"Search":"TTMS 214 HB","Routes":"15, 32"},{"StopId":2577,"Code":"QTP 134","Name":"Đầu Tô Hiệu","StopType":"Trụ dừng","Zone":"Quận Tân Phú","Ward":"Phường Hiệp Tân","AddressNo":"190","Street":"Tô Hiệu","SupportDisability":"","Status":"Đang khai thác","Lng":106.627437,"Lat":10.77303,"Search":"DTH 190 TH","Routes":"32"},{"StopId":2585,"Code":"QTP 135","Name":"Cuối Tô Hiệu","StopType":"Trụ dừng","Zone":"Quận Tân Phú","Ward":"Phường Hiệp Tân","AddressNo":"260-262","Street":"Tô Hiệu","SupportDisability":"","Status":"Đang khai thác","Lng":106.628296,"Lat":10.775538,"Search":"CTH 260-262 TH","Routes":"32"},{"StopId":2578,"Code":"QTP 131","Name":"Nguyễn Lý","StopType":"Trụ dừng","Zone":"Quận Tân Phú","Ward":"Phường Hiệp Tân","AddressNo":"44B (12)","Street":"Nguyễn Lý","SupportDisability":"","Status":"Đang khai thác","Lng":106.62822,"Lat":10.776741,"Search":"NL 44B( NL","Routes":"32"},{"StopId":2587,"Code":"QTP 171","Name":"Lê Cao Lãng","StopType":"Trụ dừng","Zone":"Quận Tân Phú","Ward":"Phường Phú Thạnh","AddressNo":"14-16","Street":"Lê Khôi","SupportDisability":"","Status":"Đang khai thác","Lng":106.627743,"Lat":10.778605,"Search":"LCL 14-16 LK","Routes":"32"},{"StopId":2582,"Code":"QTP 172","Name":"Trần Thủ Độ","StopType":"Trụ dừng","Zone":"Quận Tân Phú","Ward":"Phường Phú Thạnh","AddressNo":"42","Street":"Lê Khôi","SupportDisability":"","Status":"Đang khai thác","Lng":106.628741,"Lat":10.781794,"Search":"TTD 42 LK","Routes":"32"},{"StopId":1732,"Code":"QTP 159","Name":"Chợ Phường 18","StopType":"Trụ dừng","Zone":"Quận Tân Phú","Ward":"Phường Phú Thọ Hoà","AddressNo":"178","Street":"Nguyễn Sơn","SupportDisability":"","Status":"Đang khai thác","Lng":106.625775,"Lat":10.783253,"Search":"CP18 178 NS","Routes":"32"},{"StopId":1733,"Code":"QTP 160","Name":"Phạm Văn Xảo","StopType":"Trụ dừng","Zone":"Quận Tân Phú","Ward":"Phường Phú Thọ Hoà","AddressNo":"302-304","Street":"Nguyễn Sơn","SupportDisability":"","Status":"Đang khai thác","Lng":106.623012,"Lat":10.784107,"Search":"PVX 302-304 NS","Routes":"32"},{"StopId":2589,"Code":"QTPT186","Name":"Trường GTVT","StopType":"Trụ dừng","Zone":"Quận Tân Phú","Ward":"Phường Phú Thọ Hoà","AddressNo":"64","Street":"Văn Cao","SupportDisability":"","Status":"Đang khai thác","Lng":106.622223,"Lat":10.786699,"Search":"TG 64 VC","Routes":"32, 41"},{"StopId":2584,"Code":"QTP 113","Name":"Trạm Chợ Tân Hương","StopType":"Trụ dừng","Zone":"Quận Tân Phú","Ward":"Phường Tân Qúy","AddressNo":"248","Street":"Tân Hương","SupportDisability":"","Status":"Đang khai thác","Lng":106.621381,"Lat":10.790178,"Search":"TCTH 248 TH","Routes":"30, 32, 69"},{"StopId":2591,"Code":"QTP 099","Name":"Trạm y tế  P.Tân Quý","StopType":"Trụ dừng","Zone":"Quận Tân Phú","Ward":"Phường Tân Qúy","AddressNo":"71 (số 259)","Street":"Tân Quý","SupportDisability":"","Status":"Đang khai thác","Lng":106.620839,"Lat":10.790715,"Search":"TytPQ 71(259) TQ","Routes":"32, 69"},{"StopId":2586,"Code":"QTP 100","Name":"Trạm café Minh Thùy","StopType":"Trụ dừng","Zone":"Quận Tân Phú","Ward":"Phường Tân Qúy","AddressNo":"219","Street":"Tân Quý","SupportDisability":"","Status":"Đang khai thác","Lng":106.620628,"Lat":10.792765,"Search":"TcMT 219 TQ","Routes":"32, 69"},{"StopId":2593,"Code":"QTP 101","Name":"Trạm Ngã 4 Gò Dầu- Tân Quý","StopType":"Trụ dừng","Zone":"Quận Tân Phú","Ward":"Phường Tân Qúy","AddressNo":"135","Street":"Tân Quý","SupportDisability":"","Status":"Đang khai thác","Lng":106.620389,"Lat":10.795331,"Search":"TN4GDTQ 135 TQ","Routes":"32, 69"},{"StopId":2588,"Code":"QTP 102","Name":"Trạm UBND Phường Tân Quý","StopType":"Trụ dừng","Zone":"Quận Tân Phú","Ward":null,"AddressNo":"113","Street":"Tân Quý","SupportDisability":"","Status":"Đang khai thác","Lng":106.619942,"Lat":10.796416,"Search":"TUPTQ 113 TQ","Routes":"32"},{"StopId":2595,"Code":"QTP 103","Name":"Đỗ Công Tường","StopType":"Trụ dừng","Zone":"Quận Tân Phú","Ward":"Phường Tân Qúy","AddressNo":"77","Street":"Tân Quý","SupportDisability":"","Status":"Đang khai thác","Lng":106.619781,"Lat":10.797576,"Search":"DCT 77 TQ","Routes":"32"},{"StopId":2590,"Code":"QTP 104","Name":"Trạm Tân Kỳ Tân Quý","StopType":"Trụ dừng","Zone":"Quận Tân Phú","Ward":"Phường Tân Qúy","AddressNo":"11B","Street":"Tân Quý","SupportDisability":"","Status":"Đang khai thác","Lng":106.619598,"Lat":10.798971,"Search":"TTKTQ 11B TQ","Routes":"32"},{"StopId":2592,"Code":"QTP 088","Name":"Trạm Nhà Thờ Họ Tộc Nguyễn","StopType":"Ô sơn","Zone":"Quận Tân Phú","Ward":"Phường Tân Qúy","AddressNo":"395-397","Street":"Tân Kỳ Tân Quý","SupportDisability":"","Status":"Đang khai thác","Lng":106.620845,"Lat":10.799974,"Search":"TNTHTN 395-397 TKTQ","Routes":"32, 69"},{"StopId":2597,"Code":"QTP 089","Name":"Showroom otô","StopType":"Trụ dừng","Zone":"Quận Tân Phú","Ward":null,"AddressNo":"343-345","Street":"Tân Kỳ Tân Quý","SupportDisability":"","Status":"Đang khai thác","Lng":106.622986,"Lat":10.800703,"Search":"So 343-345 TKTQ","Routes":"32, 69"},{"StopId":2594,"Code":"QTP 090","Name":"Trạm Xăng","StopType":"Trụ dừng","Zone":"Quận Tân Phú","Ward":"Phường Tân Sơn Nhì","AddressNo":"295","Street":"Tân Kỳ Tân Quý","SupportDisability":"","Status":"Đang khai thác","Lng":106.626075,"Lat":10.801929,"Search":"TX 295 TKTQ","Routes":"32, 41, 69"},{"StopId":2596,"Code":"QTP 091","Name":"Trạm Đường Số 27","StopType":"Ô sơn","Zone":"Quận Tân Phú","Ward":"Phường Tân Sơn Nhì","AddressNo":"235","Street":"Tân Kỳ Tân Quý","SupportDisability":"","Status":"Đang khai thác","Lng":106.628525,"Lat":10.802643,"Search":"TDS27 235 TKTQ","Routes":"32, 41, 69"},{"StopId":2598,"Code":"QTP 092","Name":"Trạm Lê Trọng Tấn","StopType":"Ô sơn","Zone":"Quận Tân Phú","Ward":"Phường Tân Sơn Nhì","AddressNo":"153","Street":"Tân Kỳ Tân Quý","SupportDisability":"","Status":"Đang khai thác","Lng":106.631592,"Lat":10.803166,"Search":"TLTT 153 TKTQ","Routes":"32, 41, 69"},{"StopId":2600,"Code":"QTP 060","Name":"Trạm Đầu Lê Trọng Tấn","StopType":"Trụ dừng","Zone":"Quận Tân Phú","Ward":"Phường Tây Thạnh","AddressNo":"8A-8B","Street":"Lê Trọng Tấn","SupportDisability":"","Status":"Đang khai thác","Lng":106.632187,"Lat":10.804282,"Search":"TDLTT 8A-8B LTT","Routes":"32, 41, 69"},{"StopId":2602,"Code":"QTP 061","Name":"Trường Đại học Công Nghiệp Thực Phẩm","StopType":"Ô sơn","Zone":"Quận Tân Phú","Ward":"Phường Tây Thạnh","AddressNo":"142-144","Street":"Lê Trọng Tấn","SupportDisability":"","Status":"Đang khai thác","Lng":106.628586,"Lat":10.806065,"Search":"TDhCNTP 142-144 LTT","Routes":"32, 41, 48, 69"},{"StopId":2604,"Code":"QTP 177","Name":"Lê Trọng Tấn","StopType":"Ô sơn","Zone":"Quận Tân Phú","Ward":"Phường Tây Thạnh","AddressNo":"Kế 16","Street":"Dương Đức Hiền","SupportDisability":"","Status":"Đang khai thác","Lng":106.627341,"Lat":10.807414,"Search":"LTT K16 DDH","Routes":"16, 32, 48"},{"StopId":2599,"Code":"QTP 178","Name":"Trung tâm Văn Hóa Quận Tân Phú","StopType":"Trụ dừng","Zone":"Quận Tân Phú","Ward":"Phường Tây Thạnh","AddressNo":"72","Street":"Dương Đức Hiền","SupportDisability":"","Status":"Đang khai thác","Lng":106.627078,"Lat":10.810438,"Search":"TtVHQTP 72 DDH","Routes":"16, 32, 48"},{"StopId":2601,"Code":"QTP 173","Name":"Trạm Bơm","StopType":"Ô sơn","Zone":"Quận Tân Phú","Ward":"Phường Tây Thạnh","AddressNo":"71","Street":"D9","SupportDisability":"","Status":"Đang khai thác","Lng":106.626885,"Lat":10.812114,"Search":"TB 71 D","Routes":"32"},{"StopId":2603,"Code":"QTP 174","Name":"Trạm cuối D9","StopType":"Trụ dừng","Zone":"Quận Tân Phú","Ward":"Phường Tây Thạnh","AddressNo":"12-13","Street":"D9","SupportDisability":"","Status":"Đang khai thác","Lng":106.625238,"Lat":10.814432,"Search":"TcD 12-13 D","Routes":"32"},{"StopId":2457,"Code":"QTP 024","Name":"Cây xăng Tây Thạnh","StopType":"Trụ dừng","Zone":"Quận Tân Phú","Ward":"Phường Tây Thạnh","AddressNo":"Đối diện công ty Ngọc Nghĩa","Street":"Tây Thạnh","SupportDisability":"","Status":"Đang khai thác","Lng":106.625565,"Lat":10.816156,"Search":"CxTT DdctNN TT","Routes":"28, 32, 41"},{"StopId":2916,"Code":"QTP 025","Name":"Trạm Cổng KCN Tân Bình","StopType":"Nhà chờ","Zone":"Quận Tân Phú","Ward":"Phường Tây Thạnh","AddressNo":"29/26 (Công ty Thành Công)","Street":"Tây Thạnh","SupportDisability":"","Status":"Đang khai thác","Lng":106.628945,"Lat":10.819169,"Search":"TCKTB 29/26(tTC TT","Routes":"28, 32, 41"},{"StopId":271,"Code":"QTB 079","Name":"Khu Công Nghiệp Tân Bình","StopType":"Nhà chờ","Zone":"Quận Tân Bình","Ward":null,"AddressNo":"932","Street":"Trường Chinh","SupportDisability":"","Status":"Đang khai thác","Lng":106.630254,"Lat":10.822452,"Search":"KCNTB 932 TC","Routes":"04, 104, 13, 145, 23, 27, 32, 41, 62, 65, 94"},{"StopId":2607,"Code":"QTB 017","Name":"Chung cư Phúc Yên","StopType":"Trụ dừng","Zone":"Quận Tân Bình","Ward":null,"AddressNo":"8 (14/32)","Street":"Phan Huy Ích","SupportDisability":"","Status":"Đang khai thác","Lng":106.630356,"Lat":10.824498,"Search":"CcPY 8( PHÍ","Routes":"32"},{"StopId":2605,"Code":"QTB 018","Name":"Nhà thờ Hy Vọng","StopType":"Ô sơn","Zone":"Quận Tân Bình","Ward":null,"AddressNo":"72","Street":"Phan Huy Ích","SupportDisability":"","Status":"Đang khai thác","Lng":106.632019,"Lat":10.828074,"Search":"NtHV 72 PHÍ","Routes":"32"},{"StopId":2609,"Code":"QTB 019","Name":"Nhà máy hóa chất Tân Bình","StopType":"Trụ dừng","Zone":"Quận Tân Bình","Ward":null,"AddressNo":"Đối diện nhà máy hóa chất Tân Bình","Street":"Phan Huy Ích","SupportDisability":"","Status":"Đang khai thác","Lng":106.633365,"Lat":10.830819,"Search":"NmhcTB DdnmhcTB PHÍ","Routes":"32"},{"StopId":2606,"Code":"QGV 098","Name":"Trường Cao đẳng Du Lịch","StopType":"Trụ dừng","Zone":"Quận Gò Vấp","Ward":null,"AddressNo":"162","Street":"Phan Huy Ích","SupportDisability":"","Status":"Đang khai thác","Lng":106.63439,"Lat":10.833122,"Search":"TCdDL 162 PHÍ","Routes":"32"},{"StopId":4741,"Code":"QGV 099","Name":"Trung tâm y khoa Dân Sinh","StopType":"Trụ dừng","Zone":"Quận Gò Vấp","Ward":"Phường 01","AddressNo":"208","Street":"Phan Huy Ích","SupportDisability":"Có","Status":"Đang khai thác","Lng":106.635189,"Lat":10.834823,"Search":"TtykDS 208 PHÍ","Routes":"32"},{"StopId":4742,"Code":"QGV 100","Name":"Cây xăng Anh Thư","StopType":"Trụ dừng","Zone":"Quận Gò Vấp","Ward":"Phường 01","AddressNo":"246","Street":"Phan Huy Ích","SupportDisability":"Có","Status":"Đang khai thác","Lng":106.63609,"Lat":10.836773,"Search":"CxAT 246 PHÍ","Routes":"32"},{"StopId":2611,"Code":"QGV 101","Name":"Nhà sách Phan Huy Ích","StopType":"Trụ dừng","Zone":"Quận Gò Vấp","Ward":null,"AddressNo":"332","Street":"Phan Huy Ích","SupportDisability":"","Status":"Đang khai thác","Lng":106.63734,"Lat":10.839481,"Search":"NsPHÍ 332 PHÍ","Routes":"32"},{"StopId":2612,"Code":"QGV 102","Name":"Chùa Linh Sơn Hải Hội","StopType":"Ô sơn","Zone":"Quận Gò Vấp","Ward":null,"AddressNo":"386","Street":"Phan Huy Ích","SupportDisability":"","Status":"Đang khai thác","Lng":106.638376,"Lat":10.841415,"Search":"CLSHH 386 PHÍ","Routes":"32"},{"StopId":2613,"Code":"QGV 103","Name":"Ngã ba Nguyễn Duy Cung","StopType":"Trụ dừng","Zone":"Quận Gò Vấp","Ward":null,"AddressNo":"460","Street":"Phan Huy Ích","SupportDisability":"","Status":"Đang khai thác","Lng":106.639507,"Lat":10.843169,"Search":"NbNDC 460 PHÍ","Routes":"32"},{"StopId":2614,"Code":"QGV 084","Name":"Trường An Hội","StopType":"Trụ dừng","Zone":"Quận Gò Vấp","Ward":null,"AddressNo":"6A-B","Street":"Phạm Văn Chiêu","SupportDisability":"","Status":"Đang khai thác","Lng":106.641798,"Lat":10.845039,"Search":"TAH 6A-B PVC","Routes":"32"},{"StopId":2615,"Code":"QGV 085","Name":"Ngã Ba Cây Trâm","StopType":"Trụ dừng","Zone":"Quận Gò Vấp","Ward":null,"AddressNo":"50","Street":"Phạm Văn Chiêu","SupportDisability":"","Status":"Đang khai thác","Lng":106.643364,"Lat":10.845824,"Search":"NBCT 50 PVC","Routes":"32"},{"StopId":2616,"Code":"QGV 086","Name":"Đường số 53","StopType":"Trụ dừng","Zone":"Quận Gò Vấp","Ward":null,"AddressNo":"132","Street":"Phạm Văn Chiêu","SupportDisability":"","Status":"Đang khai thác","Lng":106.645848,"Lat":10.847036,"Search":"Ds53 132 PVC","Routes":"32"},{"StopId":2617,"Code":"QGV 087","Name":"Công ty Huê Phong","StopType":"Trụ dừng","Zone":"Quận Gò Vấp","Ward":null,"AddressNo":"212","Street":"Phạm Văn Chiêu","SupportDisability":"","Status":"Đang khai thác","Lng":106.648015,"Lat":10.84809,"Search":"CtHP 212 PVC","Routes":"32"},{"StopId":2618,"Code":"QGV 088","Name":"Chợ Thạch Đà","StopType":"Trụ dừng","Zone":"Quận Gò Vấp","Ward":null,"AddressNo":"292","Street":"Phạm Văn Chiêu","SupportDisability":"","Status":"Đang khai thác","Lng":106.651019,"Lat":10.849481,"Search":"CTD 292 PVC","Routes":"32"},{"StopId":2620,"Code":"QGV 089","Name":"Nhà thờ Thạch Đà","StopType":"Trụ dừng","Zone":"Quận Gò Vấp","Ward":null,"AddressNo":"400","Street":"Phạm Văn Chiêu","SupportDisability":"","Status":"Đang khai thác","Lng":106.654356,"Lat":10.850756,"Search":"NtTD 400 PVC","Routes":"32"},{"StopId":2619,"Code":"QGV 090","Name":"Trung tâm Văn hóa Quận Gò Vấp","StopType":"Trụ dừng","Zone":"Quận Gò Vấp","Ward":null,"AddressNo":"490","Street":"Phạm Văn Chiêu","SupportDisability":"","Status":"Đang khai thác","Lng":106.65765,"Lat":10.851372,"Search":"TtVhQGV 490 PVC","Routes":"32"},{"StopId":4740,"Code":"QGV 091","Name":"Trường Lê Thị Hồng Gấm","StopType":"Trụ dừng","Zone":"Quận Gò Vấp","Ward":"Phường 01","AddressNo":"624","Street":"Phạm Văn Chiêu","SupportDisability":"Có","Status":"Đang khai thác","Lng":106.661314,"Lat":10.852626,"Search":"TLTHG 624 PVC","Routes":"32, 36"},{"StopId":2621,"Code":"QGV 092","Name":"Nhà thờ Hợp An","StopType":"Trụ dừng","Zone":"Quận Gò Vấp","Ward":null,"AddressNo":"778","Street":"Phạm Văn Chiêu","SupportDisability":"","Status":"Đang khai thác","Lng":106.664447,"Lat":10.853701,"Search":"NtHA 778 PVC","Routes":"32, 36"},{"StopId":2623,"Code":"QGV 026","Name":"Nhà Thờ Hà Nội","StopType":"Trụ dừng","Zone":"Quận Gò Vấp","Ward":null,"AddressNo":"687","Street":"Thống Nhất","SupportDisability":"","Status":"Đang khai thác","Lng":106.665106,"Lat":10.851082,"Search":"NTHN 687 TN","Routes":"146, 32, 36"},{"StopId":2624,"Code":"QGV 063","Name":"Nhà thờ Trung Bắc","StopType":"Trụ dừng","Zone":"Quận Gò Vấp","Ward":null,"AddressNo":"777","Street":"Lê Đức Thọ","SupportDisability":"","Status":"Đang khai thác","Lng":106.666002,"Lat":10.849112,"Search":"NtTB 777 LDT","Routes":"32"},{"StopId":2625,"Code":"QGV 064 ","Name":"Trường THCS Lý Tự Trọng","StopType":"Trụ dừng","Zone":"Quận Gò Vấp","Ward":null,"AddressNo":"527","Street":"Lê Đức Thọ","SupportDisability":"","Status":"Đang khai thác","Lng":106.670632,"Lat":10.846335,"Search":"TTLTT 527 LDT","Routes":"32"},{"StopId":2629,"Code":"QGV 065","Name":"Bệnh Viện Gò Vấp","StopType":"Trụ dừng","Zone":"Quận Gò Vấp","Ward":null,"AddressNo":"467","Street":"Lê Đức Thọ","SupportDisability":"","Status":"Đang khai thác","Lng":106.672354,"Lat":10.844692,"Search":"BVGV 467 LDT","Routes":"32"},{"StopId":2626,"Code":"QGV 066","Name":"Ngã Ba Lê Hoàng Phái","StopType":"Trụ dừng","Zone":"Quận Gò Vấp","Ward":null,"AddressNo":"353","Street":"Lê Đức Thọ","SupportDisability":"","Status":"Đang khai thác","Lng":106.675697,"Lat":10.842499,"Search":"NBLHP 353 LDT","Routes":"32"},{"StopId":72,"Code":"QGV 109","Name":"Ngã tư An Nhơn","StopType":"Trụ dừng","Zone":"Quận Gò Vấp","Ward":null,"AddressNo":"388","Street":"Nguyễn Oanh","SupportDisability":"","Status":"Đang khai thác","Lng":106.676833,"Lat":10.842268,"Search":"NtAN 388 NO","Routes":"03, 161, 32, 59"},{"StopId":64,"Code":"QGV 110","Name":"Bến Đò","StopType":"Trụ dừng","Zone":"Quận Gò Vấp","Ward":null,"AddressNo":"538","Street":"Nguyễn Oanh","SupportDisability":"","Status":"Đang khai thác","Lng":106.678496,"Lat":10.84691,"Search":"BD 538 NO","Routes":"03, 161, 32, 59"},{"StopId":4754,"Code":"QGV 111","Name":"Cầu An Lộc","StopType":"Trụ dừng","Zone":"Quận Gò Vấp","Ward":"Phường 06","AddressNo":"604","Street":"Nguyễn Oanh","SupportDisability":"Có","Status":"Đang khai thác","Lng":106.678802,"Lat":10.849117,"Search":"CAL 604 NO","Routes":"03, 161, 32, 59"},{"StopId":73,"Code":"Q12 032","Name":"Nhà hàng Bến Xưa","StopType":"Trụ dừng","Zone":"Quận 12","Ward":null,"AddressNo":"42","Street":"Hà Huy Giáp","SupportDisability":"","Status":"Đang khai thác","Lng":106.679285,"Lat":10.852642,"Search":"NhBX 42 HHG","Routes":"03, 161, 32, 59"},{"StopId":213,"Code":"Q12 033","Name":"Ngã tư Ga","StopType":"Trụ dừng","Zone":"Quận 12","Ward":null,"AddressNo":"154","Street":"Hà Huy Giáp","SupportDisability":"","Status":"Đang khai thác","Lng":106.679907,"Lat":10.857331,"Search":"NtG 154 HHG","Routes":"03, 161, 32, 59"},{"StopId":6834,"Code":"Q12 0330","Name":"Ngọc Lan","StopType":"Trụ dừng","Zone":"Quận 12","Ward":"Phường Thạnh Lộc","AddressNo":"193","Street":"Hà Huy Giáp","SupportDisability":"Có","Status":"Đang khai thác","Lng":106.68179,"Lat":10.863242,"Search":"NL 193 HHG","Routes":"103, 161, 32"},{"StopId":946,"Code":"BX37","Name":"Bến xe Ngã tư Ga","StopType":"Bến xe","Zone":"Quận 12","Ward":null,"AddressNo":"Bến xe Ngã Tư Ga","Street":"Quốc lộ 1A","SupportDisability":"","Status":"Đang khai thác","Lng":106.67835998535156,"Lat":10.862156867980957,"Search":"BxNtG BxNTG Ql1A","Routes":"103, 161, 32, 58, 59"}]