[{"StopId":35,"Code":"BX 01","Name":"Bến xe buýt Sài Gòn","StopType":"Bến xe","Zone":"Quận 1","Ward":"Phường Phạm Ngũ Lão","AddressNo":"BẾN XE BUÝT SÀI GÒN","Street":"Lê Lai","SupportDisability":"Có","Status":"Đang khai thác","Lng":106.689362,"Lat":10.767676,"Search":"BxbSG BXBSG LL","Routes":"03, 04, 102, 109, 13, 140, 18, 19, 20, 27, 28, 34, 36, 39, 52, 65, 69, 72, 75, 86, 88, 93, D4, DL03, DL04, DRCB, BD, DRCB, VT"},{"StopId":7276,"Code":"Q1 190","Name":"Tôn Thất Tùng","StopType":"Trụ dừng","Zone":"Quận 1","Ward":"Phường Phạm Ngũ Lão","AddressNo":"277-279-275Y","Street":"Phạm Ngũ Lão","SupportDisability":"Có","Status":"Đang khai thác","Lng":106.690941,"Lat":10.76767,"Search":"TTT 277-279-275Y PNL","Routes":"03, 04, 102, 109, 13, 140, 156V, 18, 19, 20, 28, 34, 36, 39, 46, 52, 65, 69, 72, 72-2B, 75, 86, 88, 93, D4"},{"StopId":7277,"Code":"Q1 191","Name":"Nguyễn Thị Nghĩa","StopType":"Trụ dừng","Zone":"Quận 1","Ward":"Phường Phạm Ngũ Lão","AddressNo":"187","Street":"Phạm Ngũ Lão","SupportDisability":"Có","Status":"Đang khai thác","Lng":106.693699,"Lat":10.768788,"Search":"NTN 187 PNL","Routes":"03, 04, 102, 109, 13, 140, 156V, 18, 19, 20, 28, 34, 36, 39, 46, 52, 65, 69, 72, 72-2B, 93, D4, DL01, DL02"},{"StopId":7278,"Code":"Q1 192","Name":"Trường Emst Thalmann","StopType":"Nhà chờ","Zone":"Quận 1","Ward":"Phường Phạm Ngũ Lão","AddressNo":"Trường Emst Thalmann","Street":"Phạm Ngũ Lão","SupportDisability":"Có","Status":"Đang khai thác","Lng":106.695587,"Lat":10.769504,"Search":"TET TET PNL","Routes":"03, 04, 109, 13, 156V, 18, 19, 20, 28, 34, 36, 39, 52, 65, 69, 72-2B, 93, D4"},{"StopId":7268,"Code":"Q1 182","Name":"Trạm Trung chuyển trên đường Hàm Nghi","StopType":"Nhà chờ","Zone":"Quận 1","Ward":"Phường Nguyễn Thái Bình","AddressNo":"Hàm Nghi 13 (102)","Street":"Hàm Nghi","SupportDisability":"Có","Status":"Đang khai thác","Lng":106.70086,"Lat":10.77079,"Search":"TTctdHN HN13( HN","Routes":"34, 39"},{"StopId":7564,"Code":"Q1 196","Name":"Bảo tàng Mỹ Thuật","StopType":"Trụ dừng","Zone":"Quận 1","Ward":"Phường Bến Nghé","AddressNo":"56","Street":"Nguyễn Thái Bình","SupportDisability":"Có","Status":"Đang khai thác","Lng":106.699669,"Lat":10.769251,"Search":"BtMT 56 NTB","Routes":"102, 34, 38, 39, 72-2B, 86, D4"},{"StopId":2854,"Code":"Q1 167","Name":"Chợ Dân Sinh","StopType":"Trụ dừng","Zone":"Quận 1","Ward":null,"AddressNo":"125-127","Street":"Ký Con","SupportDisability":"","Status":"Đang khai thác","Lng":106.698242,"Lat":10.767312,"Search":"CDS 125-127 KC","Routes":"39, 72-2B, D4"},{"StopId":2857,"Code":"Q1 162","Name":"Chợ Nga","StopType":"Trụ dừng","Zone":"Quận 1","Ward":null,"AddressNo":"324","Street":"Võ Văn Kiệt","SupportDisability":"","Status":"Đang khai thác","Lng":106.696118,"Lat":10.761784,"Search":"CN 324 VVK","Routes":"39"},{"StopId":2856,"Code":"Q1 163","Name":"Trường tiểu học Chương Dương","StopType":"Nhà chờ","Zone":"Quận 1","Ward":null,"AddressNo":"490","Street":"Võ Văn Kiệt","SupportDisability":"","Status":"Đang khai thác","Lng":106.691841,"Lat":10.75852,"Search":"TthCD 490 VVK","Routes":"39"},{"StopId":2858,"Code":"Q5 103","Name":"Nhà Đèn Chợ Quán","StopType":"Trụ dừng","Zone":"Quận 5","Ward":null,"AddressNo":"628-630 (8)","Street":"Võ Văn Kiệt","SupportDisability":"","Status":"Đang khai thác","Lng":106.686287,"Lat":10.753272,"Search":"NDCQ 628-630( VVK","Routes":"39"},{"StopId":2859,"Code":"Q5 104","Name":"Trần Bình Trọng","StopType":"Trụ dừng","Zone":"Quận 5","Ward":null,"AddressNo":"682-686 (60-62)","Street":"Võ Văn Kiệt","SupportDisability":"","Status":"Đang khai thác","Lng":106.683228,"Lat":10.751929,"Search":"TBT 682-686( VVK","Routes":"39"},{"StopId":2860,"Code":"Q5 105","Name":"Bệnh viện Nhiệt Đới","StopType":"Nhà chờ","Zone":"Quận 5","Ward":null,"AddressNo":"764","Street":"Võ Văn Kiệt","SupportDisability":"","Status":"Đang khai thác","Lng":106.678795,"Lat":10.752234,"Search":"BvND 764 VVK","Routes":"39"},{"StopId":2861,"Code":"Q5 106","Name":"Chợ Hòa Bình","StopType":"Nhà chờ","Zone":"Quận 5","Ward":null,"AddressNo":"794","Street":"Võ Văn Kiệt","SupportDisability":"","Status":"Đang khai thác","Lng":106.676651,"Lat":10.751644,"Search":"CHB 794 VVK","Routes":"39"},{"StopId":2862,"Code":"Q5 107","Name":"Đại Thế Giới","StopType":"Trụ dừng","Zone":"Quận 5","Ward":null,"AddressNo":"1114","Street":"Võ Văn Kiệt","SupportDisability":"","Status":"Đang khai thác","Lng":106.668167,"Lat":10.750508,"Search":"DTG 1114 VVK","Routes":"39"},{"StopId":2863,"Code":"Q5 108","Name":"Hải Thượng Lãn Ông","StopType":"Trụ dừng","Zone":"Quận 5","Ward":null,"AddressNo":"1182","Street":"Võ Văn Kiệt","SupportDisability":"","Status":"Đang khai thác","Lng":106.663926,"Lat":10.750342,"Search":"HTLO 1182 VVK","Routes":"39"},{"StopId":138,"Code":"Q5 015","Name":"Hải Thượng Lãn Ông","StopType":"Trụ dừng","Zone":"Quận 5","Ward":null,"AddressNo":"210-212","Street":"Hải Thượng Lãn Ông","SupportDisability":"","Status":"Đang khai thác","Lng":106.658358,"Lat":10.750948,"Search":"HTLO 210-212 HTLO","Routes":"01, 07, 10, 25, 39, 47, 56"},{"StopId":139,"Code":"Q5 102","Name":"Chợ Kim Biên","StopType":"Trụ dừng","Zone":"Quận 5","Ward":null,"AddressNo":"5","Street":"Trang Tử","SupportDisability":"","Status":"Đang khai thác","Lng":106.655086,"Lat":10.751128,"Search":"CKB 5 TT","Routes":"01, 07, 10, 25, 39, 47, 56"},{"StopId":4773,"Code":"Q6 052","Name":"Cây xăng","StopType":"Ô sơn","Zone":"Quận 6","Ward":"Phường 01","AddressNo":"Đối diện 13","Street":"Lê Quang Sung","SupportDisability":"Có","Status":"Đang khai thác","Lng":106.652538,"Lat":10.751112,"Search":"Cx Dd13 LQS","Routes":"10, 25, 39, 91"},{"StopId":4418,"Code":"Q6 072","Name":"Bãi Sậy","StopType":"Trụ dừng","Zone":"Quận 6","Ward":null,"AddressNo":"1D","Street":"Phạm Đình Hổ","SupportDisability":"","Status":"Đang khai thác","Lng":106.649303,"Lat":10.748803,"Search":"BS 1D PDH","Routes":"101, 39"},{"StopId":2867,"Code":"Q6 102","Name":"Mai Xuân Thưởng","StopType":"Trụ dừng","Zone":"Quận 6","Ward":null,"AddressNo":"1454","Street":"Võ Văn Kiệt","SupportDisability":"","Status":"Đang khai thác","Lng":106.64992,"Lat":10.743786,"Search":"MXT 1454 VVK","Routes":"39"},{"StopId":2866,"Code":"Q6 103","Name":"Bình Tiên","StopType":"Trụ dừng","Zone":"Quận 6","Ward":null,"AddressNo":"1534A","Street":"Võ Văn Kiệt","SupportDisability":"","Status":"Đang khai thác","Lng":106.642817,"Lat":10.739564,"Search":"BT 1534A VVK","Routes":"39"},{"StopId":2868,"Code":"Q6 104","Name":"Cầu Lò Gốm","StopType":"Trụ dừng","Zone":"Quận 6","Ward":null,"AddressNo":"1610","Street":"Võ Văn Kiệt","SupportDisability":"","Status":"Đang khai thác","Lng":106.637684,"Lat":10.736434,"Search":"CLG 1610 VVK","Routes":"39"},{"StopId":2869,"Code":"Q6 105","Name":"Cầu Rạch Cây","StopType":"Trụ dừng","Zone":"Quận 6","Ward":null,"AddressNo":"7/51A","Street":"Võ Văn Kiệt","SupportDisability":"","Status":"Đang khai thác","Lng":106.631042,"Lat":10.732523,"Search":"CRC 7/51A VVK","Routes":"39"},{"StopId":2870,"Code":"Q8 130","Name":"Carina Plaza","StopType":"Trụ dừng","Zone":"Quận 8","Ward":null,"AddressNo":"Carina Plaza","Street":"Võ Văn Kiệt","SupportDisability":"","Status":"Đang khai thác","Lng":106.625512,"Lat":10.729503,"Search":"CP CP VVK","Routes":"39"},{"StopId":2871,"Code":"QBT 229","Name":"Đường số 1B","StopType":"Trụ dừng","Zone":"Quận Bình Tân","Ward":null,"AddressNo":"Tủ điện 6-3","Street":"Võ Văn Kiệt","SupportDisability":"","Status":"Đang khai thác","Lng":106.617897,"Lat":10.725624,"Search":"Ds1B Td6-3 VVK","Routes":"39"},{"StopId":2872,"Code":"QBT 230","Name":"Hồ Học Lãm","StopType":"Trụ dừng","Zone":"Quận Bình Tân","Ward":null,"AddressNo":"Trạm tủ điện P8.1","Street":"Võ Văn Kiệt","SupportDisability":"","Status":"Đang khai thác","Lng":106.612541,"Lat":10.722957,"Search":"HHL TtdP VVK","Routes":"39"},{"StopId":1798,"Code":"QBT 046","Name":"Chùa Sùng Quang","StopType":"Trụ dừng","Zone":"Quận Bình Tân","Ward":"Phường An Lạc","AddressNo":"324","Street":"Hồ Học Lãm","SupportDisability":"","Status":"Đang khai thác","Lng":106.610566,"Lat":10.723284,"Search":"CSQ 324 HHL","Routes":"15, 39"},{"StopId":1851,"Code":"QBT 039","Name":"Chợ Khu phố 2","StopType":"Trụ dừng","Zone":"Quận Bình Tân","Ward":"Phường An Lạc","AddressNo":"428","Street":"Hồ Học Lãm","SupportDisability":"","Status":"Đang khai thác","Lng":106.60885,"Lat":10.726035,"Search":"CKp2 428 HHL","Routes":"15, 39"},{"StopId":709,"Code":"QBT 003","Name":"Hàng Dương","StopType":"Trụ dừng","Zone":"Quận Bình Tân","Ward":"Phường An Lạc","AddressNo":"703","Street":"Kinh Dương Vương","SupportDisability":"","Status":"Đang khai thác","Lng":106.607605,"Lat":10.72832,"Search":"HD 703 KDV","Routes":"09, 102, 151, 39, 60-1, 61, 62-1, 62-10, 62-2, 62-8, 63-1, 84"},{"StopId":714,"Code":"QBT 004","Name":"Ủy ban","StopType":"Trụ dừng","Zone":"Quận Bình Tân","Ward":"Phường An Lạc","AddressNo":"631-637","Street":"Kinh Dương Vương","SupportDisability":"","Status":"Đang khai thác","Lng":106.610255,"Lat":10.729977,"Search":"Ub 631-637 KDV","Routes":"09, 102, 151, 39, 60-1, 61, 62-1, 62-10, 62-2, 62-8, 63-1, 84"},{"StopId":710,"Code":"QBT 005","Name":"Lâm Thành","StopType":"Trụ dừng","Zone":"Quận Bình Tân","Ward":"Phường An Lạc","AddressNo":"289(561)","Street":"Kinh Dương Vương","SupportDisability":"","Status":"Đang khai thác","Lng":106.61298,"Lat":10.734278,"Search":"LT 289(561) KDV","Routes":"09, 102, 151, 39, 60-1, 61, 62-1, 62-10, 62-2, 62-8, 63-1, 84"},{"StopId":716,"Code":"QBT 006","Name":"Tên Lửa","StopType":"Trụ dừng","Zone":"Quận Bình Tân","Ward":"Phường An Lạc","AddressNo":"251(511)","Street":"Kinh Dương Vương","SupportDisability":"","Status":"Đang khai thác","Lng":106.614906,"Lat":10.737541,"Search":"TL 251(511) KDV","Routes":"09, 102, 151, 39, 60-1, 61, 62-1, 62-10, 62-2, 62-8, 63-1, 84"},{"StopId":713,"Code":"QBT 007","Name":"Bệnh viện Triều An","StopType":"Nhà chờ","Zone":"Quận Bình Tân","Ward":"Phường An Lạc","AddressNo":"Bệnh viện Triều An","Street":"Kinh Dương Vương","SupportDisability":"","Status":"Đang khai thác","Lng":106.61687,"Lat":10.739665,"Search":"BvTA BvTA KDV","Routes":"09, 102, 151, 25, 39, 41, 60-1, 61, 62-1, 62-10, 62-2, 62-8, 63-1, 84"},{"StopId":725,"Code":"BX 46","Name":"Bến xe Miền Tây","StopType":"Bến xe","Zone":"Quận Bình Tân","Ward":null,"AddressNo":"Bến xe Miền Tây","Street":"Kinh Dương Vương","SupportDisability":"","Status":"Đang khai thác","Lng":106.619438,"Lat":10.739486,"Search":"BxMT BxMT KDV","Routes":"10, 102, 139, 14, 148, 151, 32, 39, 41, 60-1, 91"}]