[{"StopId":725,"Code":"BX 46","Name":"Bến xe Miền Tây","StopType":"Bến xe","Zone":"Quận Bình Tân","Ward":null,"AddressNo":"Bến xe Miền Tây","Street":"Kinh Dương Vương","SupportDisability":"","Status":"Đang khai thác","Lng":106.619438,"Lat":10.739486,"Search":"BxMT BxMT KDV","Routes":"10, 102, 139, 14, 148, 151, 32, 39, 41, 60-1, 91"},{"StopId":630,"Code":"QBT 014","Name":"Bệnh viện Triều An","StopType":"Trụ dừng","Zone":"Quận Bình Tân","Ward":"Phường An Lạc","AddressNo":"480 (EXIMBANK)","Street":"Kinh Dương Vương","SupportDisability":"","Status":"Đang khai thác","Lng":106.616392,"Lat":10.739675,"Search":"BvTA 480( KDV","Routes":"09, 102, 151, 25, 39, 41, 60-1, 61, 62-1, 62-10, 62-2, 62-8, 63-1, 84"},{"StopId":631,"Code":"QBT 015","Name":"Hàng Dương","StopType":"Trụ dừng","Zone":"Quận Bình Tân","Ward":"Phường An Lạc","AddressNo":"548","Street":"Kinh Dương Vương","SupportDisability":"","Status":"Đang khai thác","Lng":106.613144,"Lat":10.735138,"Search":"HD 548 KDV","Routes":"09, 102, 151, 39, 60-1, 61, 62-1, 62-10, 62-2, 62-8, 63-1, 84"},{"StopId":632,"Code":"QBT 016","Name":"SinCo","StopType":"Nhà chờ","Zone":"Quận Bình Tân","Ward":null,"AddressNo":"Đối diện nhà trọ Thanh Trường","Street":"Kinh Dương Vương","SupportDisability":"","Status":"Đang khai thác","Lng":106.611028,"Lat":10.731674,"Search":"S DdntTT KDV","Routes":"09, 102, 151, 39, 60-1, 61, 62-1, 62-10, 62-2, 62-8, 63-1, 84"},{"StopId":633,"Code":"QBT 017","Name":"Hoa hồng","StopType":"Trụ dừng","Zone":"Quận Bình Tân","Ward":"Phường An Lạc","AddressNo":"620","Street":"Kinh Dương Vương","SupportDisability":"","Status":"Đang khai thác","Lng":106.608276,"Lat":10.729014,"Search":"Hh 620 KDV","Routes":"09, 102, 151, 39, 60-1, 61, 62-1, 62-10, 62-2, 62-8, 63-1, 84"},{"StopId":634,"Code":"QBT 018","Name":"An Lạc","StopType":"Trụ dừng","Zone":"Quận Bình Tân","Ward":null,"AddressNo":"676","Street":"Kinh Dương Vương","SupportDisability":"","Status":"Đang khai thác","Lng":106.605751,"Lat":10.72733,"Search":"AL 676 KDV","Routes":"09, 102, 60-1, 61, 62-1, 62-10, 62-2, 62-8, 63-1, 84"},{"StopId":635,"Code":"QBT 019","Name":"Thời trang","StopType":"Trụ dừng","Zone":"Quận Bình Tân","Ward":null,"AddressNo":"724","Street":"Kinh Dương Vương","SupportDisability":"","Status":"Đang khai thác","Lng":106.603027,"Lat":10.725466,"Search":"Tt 724 KDV","Routes":"09, 102, 60-1, 61, 62-1, 62-10, 62-2, 62-8, 63-1, 84"},{"StopId":636,"Code":"HBC 362","Name":"Bãi xe Phương Trang","StopType":"Trụ dừng","Zone":"Huyện Bình Chánh","Ward":null,"AddressNo":"Bãi xe Phương Trang","Street":"Quốc lộ 1A","SupportDisability":"","Status":"Đang khai thác","Lng":106.600342,"Lat":10.721022,"Search":"BxPT BxPT Ql1A","Routes":"09, 102, 62-1, 62-10, 62-2, 62-8, 63-1, 84"},{"StopId":637,"Code":"HBC 363","Name":"Hưng Nhơn","StopType":"Nhà chờ","Zone":"Huyện Bình Chánh","Ward":"Xã Tân Kiên","AddressNo":"B1/5","Street":"Quốc lộ 1A","SupportDisability":"","Status":"Đang khai thác","Lng":106.598791,"Lat":10.712241,"Search":"HN B Ql1A","Routes":"09, 101, 102, 62-1, 62-10, 62-2, 62-8, 63-1, 84"},{"StopId":638,"Code":"HBC 364","Name":"Dương Đình Cúc","StopType":"Trụ dừng","Zone":"Huyện Bình Chánh","Ward":"Xã Tân Kiên","AddressNo":"C3/4","Street":"Quốc lộ 1A","SupportDisability":"","Status":"Đang khai thác","Lng":106.598089,"Lat":10.70706,"Search":"DDC C Ql1A","Routes":"09, 101, 102, 62-1, 62-10, 62-2, 63-1, 84"},{"StopId":639,"Code":"HBC 365","Name":"Nguyễn Hữu Trí","StopType":"Trụ dừng","Zone":"Huyện Bình Chánh","Ward":"Thị trấn Tân Túc","AddressNo":"Kế E9/21","Street":"Quốc lộ 1A","SupportDisability":"","Status":"Đang khai thác","Lng":106.596415,"Lat":10.696112,"Search":"NHT KE Ql1A","Routes":"09, 102, 22, 62-1, 62-10, 62-2, 62-8, 63-1"},{"StopId":640,"Code":"HBC 366","Name":"Nút giao Bình Thuận","StopType":"Trụ dừng","Zone":"Huyện Bình Chánh","Ward":"Thị trấn Tân Túc","AddressNo":"D1/25","Street":"Quốc lộ 1A","SupportDisability":"","Status":"Đang khai thác","Lng":106.595101,"Lat":10.691884,"Search":"NgBT D Ql1A","Routes":"09, 102, 22, 62-1, 62-10, 62-2, 62-8, 63-1"},{"StopId":813,"Code":"HBC 022","Name":"Nguyễn Văn Linh","StopType":"Trụ dừng","Zone":"Huyện Bình Chánh","Ward":null,"AddressNo":"Cột điện K-NVL T1P(Cột điện 358)","Street":"Nguyễn Văn Linh","SupportDisability":"","Status":"Đang khai thác","Lng":106.595943,"Lat":10.689686,"Search":"NVL CdKTd358) NVL","Routes":"102, 22"},{"StopId":812,"Code":"HBC 023","Name":"đường Ấp 2","StopType":"Trụ dừng","Zone":"Huyện Bình Chánh","Ward":null,"AddressNo":"Cột điện T28P (Cột điện 332)","Street":"Nguyễn Văn Linh","SupportDisability":"","Status":"Đang khai thác","Lng":106.602321,"Lat":10.69152,"Search":"dA2 CdT(d332) NVL","Routes":"102, 22"},{"StopId":815,"Code":"HBC 024","Name":"Đường vào Chợ Bình Điền","StopType":"Trụ dừng","Zone":"Huyện Bình Chánh","Ward":null,"AddressNo":"Cột điện T54P (Cột điện 307)","Street":"Nguyễn Văn Linh","SupportDisability":"","Status":"Đang khai thác","Lng":106.610159,"Lat":10.693745,"Search":"DvCBD CdT(d307) NVL","Routes":"102, 22"},{"StopId":889,"Code":"HBC 452","Name":"Trạm thu phí Chợ Bình Điền","StopType":"Ô sơn","Zone":"Huyện Bình Chánh","Ward":null,"AddressNo":"Đối diện công ty bất động sản","Street":"Đường vào Chợ ĐM Bình Điền","SupportDisability":"","Status":"Đang khai thác","Lng":106.609359,"Lat":10.698405,"Search":"TtpCBD Ddctbds DvCDBD","Routes":"102, 22"},{"StopId":891,"Code":"HBC 453","Name":"Chợ Bình Điền","StopType":"Nhà chờ","Zone":"Huyện Bình Chánh","Ward":null,"AddressNo":"Quán ăn Chợ Bình Điền","Street":"Đường vào Chợ ĐM Bình Điền","SupportDisability":"","Status":"Đang khai thác","Lng":106.608372,"Lat":10.701984,"Search":"CBD QaCBD DvCDBD","Routes":"102, 22"},{"StopId":893,"Code":"HBC 451","Name":"Trạm thu phí Chợ Bình Điền","StopType":"Ô sơn","Zone":"Huyện Bình Chánh","Ward":null,"AddressNo":"Công ty bất động sản","Street":"Đường vào Chợ ĐM Bình Điền","SupportDisability":"","Status":"Đang khai thác","Lng":106.609075,"Lat":10.698547,"Search":"TtpCBD Ctbds DvCDBD","Routes":"102, 22"},{"StopId":817,"Code":"HBC 025","Name":"Trạm thu phí","StopType":"Trụ dừng","Zone":"Huyện Bình Chánh","Ward":null,"AddressNo":"Cột điện T70P (Cột điện 291)","Street":"Nguyễn Văn Linh","SupportDisability":"","Status":"Đang khai thác","Lng":106.613388,"Lat":10.694493,"Search":"Ttp CdT(d291) NVL","Routes":"102, 22"},{"StopId":814,"Code":"HBC 026","Name":"Cầu Cần Giuộc","StopType":"Trụ dừng","Zone":"Huyện Bình Chánh","Ward":null,"AddressNo":"Cột điện T84P (Cột điện 277)","Street":"Nguyễn Văn Linh","SupportDisability":"","Status":"Đang khai thác","Lng":106.620603,"Lat":10.696591,"Search":"CCG CdT(d277) NVL","Routes":"102, 22"},{"StopId":818,"Code":"HBC 027","Name":"Cầu Sập","StopType":"Nhà chờ","Zone":"Huyện Bình Chánh","Ward":null,"AddressNo":"Cột điện T102P (Cột điện 258)","Street":"Nguyễn Văn Linh","SupportDisability":"","Status":"Đang khai thác","Lng":106.626692,"Lat":10.698183,"Search":"CS CdT(d258) NVL","Routes":"102, 22"},{"StopId":816,"Code":"HBC 028","Name":"Kim Hằng","StopType":"Trụ dừng","Zone":"Huyện Bình Chánh","Ward":null,"AddressNo":"Cột điện T120P (Cột điện 240)","Street":"Nguyễn Văn Linh","SupportDisability":"","Status":"Đang khai thác","Lng":106.631413,"Lat":10.700144,"Search":"KH CdT(d240) NVL","Routes":"102, 22"},{"StopId":820,"Code":"HBC 029","Name":"Trịnh Quang Nghị","StopType":"Trụ dừng","Zone":"Huyện Bình Chánh","Ward":null,"AddressNo":"Cột điện T128P (Cột điện 230)","Street":"Nguyễn Văn Linh","SupportDisability":"","Status":"Đang khai thác","Lng":106.634218,"Lat":10.702237,"Search":"TQN CdT(d230) NVL","Routes":"102, 22"},{"StopId":819,"Code":"HBC 030","Name":"Khu dân cư 13A","StopType":"Trụ dừng","Zone":"Huyện Bình Chánh","Ward":null,"AddressNo":"Cột điện T146P (Cột điện 213)","Street":"Nguyễn Văn Linh","SupportDisability":"","Status":"Đang khai thác","Lng":106.637893,"Lat":10.705109,"Search":"Kdc13A CdT(d213) NVL","Routes":"102, 140, 22, 45"},{"StopId":822,"Code":"HBC 031","Name":"Đại học Văn Hiến (HungHau Campus)","StopType":"Ô sơn","Zone":"Huyện Bình Chánh","Ward":null,"AddressNo":"13E","Street":"Nguyễn Văn Linh","SupportDisability":"","Status":"Đang khai thác","Lng":106.643343,"Lat":10.709337,"Search":"DhVH(C 13E NVL","Routes":"102, 22, 45"},{"StopId":821,"Code":"HBC 032","Name":"Cầu Bà Lớn","StopType":"Nhà chờ","Zone":"Huyện Bình Chánh","Ward":null,"AddressNo":"Cột điện T186P (Cột điện 175)","Street":"Nguyễn Văn Linh","SupportDisability":"","Status":"Đang khai thác","Lng":106.645961,"Lat":10.711382,"Search":"CBL CdT(d175) NVL","Routes":"102, 140, 22, 45"},{"StopId":824,"Code":"HBC 033","Name":"KHU ĐÔ THỊ HẠNH PHÚC","StopType":"Trụ dừng","Zone":"Huyện Bình Chánh","Ward":null,"AddressNo":"Cột điện T203P (Cột điện 158)","Street":"Nguyễn Văn Linh","SupportDisability":"","Status":"Đang khai thác","Lng":106.648997,"Lat":10.713791,"Search":"KDTHP CdT(d158) NVL","Routes":"102, 140, 22, 45"},{"StopId":823,"Code":"HBC 034","Name":"Quốc lộ 50","StopType":"Trụ dừng","Zone":"Huyện Bình Chánh","Ward":null,"AddressNo":"Cột điện T225P (Cột điện 137)","Street":"Nguyễn Văn Linh","SupportDisability":"","Status":"Đang khai thác","Lng":106.654356,"Lat":10.717971,"Search":"Ql50 CdT(d137) NVL","Routes":"102, 140, 22, 45"},{"StopId":826,"Code":"HBC 035","Name":"Qua Quốc lộ 50","StopType":"Trụ dừng","Zone":"Huyện Bình Chánh","Ward":null,"AddressNo":"Cột điện T232P (Cột điện 131)","Street":"Nguyễn Văn Linh","SupportDisability":"","Status":"Đang khai thác","Lng":106.656303,"Lat":10.719436,"Search":"QQl50 CdT(d131) NVL","Routes":"102"},{"StopId":825,"Code":"HBC 036","Name":"Chùa Viên Minh","StopType":"Nhà chờ","Zone":"Huyện Bình Chánh","Ward":null,"AddressNo":"Cột điện T246P (Cột điện 117)","Street":"Nguyễn Văn Linh","SupportDisability":"","Status":"Đang khai thác","Lng":106.659973,"Lat":10.722198,"Search":"CVM CdT(d117) NVL","Routes":"102"},{"StopId":828,"Code":"HBC 037","Name":"Cầu Xóm Củi","StopType":"Trụ dừng","Zone":"Huyện Bình Chánh","Ward":null,"AddressNo":"Cột điện T268P (Cột điện 96)","Street":"Nguyễn Văn Linh","SupportDisability":"","Status":"Đang khai thác","Lng":106.666866,"Lat":10.72574,"Search":"CXC CdT(d96) NVL","Routes":"102"},{"StopId":830,"Code":"HBC 038","Name":"Sân bóng mi ni","StopType":"Trụ dừng","Zone":"Huyện Bình Chánh","Ward":null,"AddressNo":"Cột điện T288P (Cột điện 76)","Street":"Nguyễn Văn Linh","SupportDisability":"","Status":"Đang khai thác","Lng":106.673234,"Lat":10.727321,"Search":"Sbmn CdT(d76) NVL","Routes":"102"},{"StopId":827,"Code":"HBC 039","Name":"Phạm Hùng","StopType":"Trụ dừng","Zone":"Huyện Bình Chánh","Ward":null,"AddressNo":"C11/36B7 (Hai Nô)","Street":"Nguyễn Văn Linh","SupportDisability":"","Status":"Đang khai thác","Lng":106.67675,"Lat":10.727517,"Search":"PH C(N NVL","Routes":"102"},{"StopId":832,"Code":"HBC 040","Name":"Phúc Minh","StopType":"Ô sơn","Zone":"Huyện Bình Chánh","Ward":null,"AddressNo":"Cột điện T312P (Công ty Phúc Minh)","Street":"Nguyễn Văn Linh","SupportDisability":"","Status":"Đang khai thác","Lng":106.680121,"Lat":10.727574,"Search":"PM CdT(tPM NVL","Routes":"102, 34"},{"StopId":829,"Code":"HBC 041","Name":"Cầu Ông Bé","StopType":"Trụ dừng","Zone":"Huyện Bình Chánh","Ward":null,"AddressNo":"Cột điện T324P (Cột điện 47)","Street":"Nguyễn Văn Linh","SupportDisability":"","Status":"Đang khai thác","Lng":106.684177,"Lat":10.727785,"Search":"COB CdT(d47) NVL","Routes":"102, 34"},{"StopId":831,"Code":"HBC 042","Name":"Trung Sơn","StopType":"Trụ dừng","Zone":"Huyện Bình Chánh","Ward":null,"AddressNo":"Cột điện T334P (Cột điện 37)","Street":"Nguyễn Văn Linh","SupportDisability":"","Status":"Đang khai thác","Lng":106.687416,"Lat":10.7279,"Search":"TS CdT(d37) NVL","Routes":"102, 34"},{"StopId":833,"Code":"Q7 093","Name":"Đại học RMIT","StopType":"Nhà chờ","Zone":"Quận 7","Ward":null,"AddressNo":"Đối diện trạm thu phí","Street":"Nguyễn Văn Linh","SupportDisability":"","Status":"Đang khai thác","Lng":106.695308,"Lat":10.728011,"Search":"DhR Ddttp NVL","Routes":"102, 34"},{"StopId":834,"Code":"Q7 094","Name":"Lê Văn Lương","StopType":"Trụ dừng","Zone":"Quận 7","Ward":null,"AddressNo":"Cạnh 38 Lê Văn Lương","Street":"Nguyễn Văn Linh","SupportDisability":"","Status":"Đang khai thác","Lng":106.698974,"Lat":10.728002,"Search":"LVL C38LVL NVL","Routes":"102, 34"},{"StopId":835,"Code":"Q7 095","Name":"Phòng cháy chữa cháy Quận 7","StopType":"Nhà chờ","Zone":"Quận 7","Ward":null,"AddressNo":"Cạnh cột điện 39","Street":"Nguyễn Văn Linh","SupportDisability":"","Status":"Đang khai thác","Lng":106.704031,"Lat":10.728106,"Search":"PcccQ7 Ccd39 NVL","Routes":"102, 34, 68"},{"StopId":836,"Code":"Q7 096","Name":"Nguyễn Đức Cảnh","StopType":"Trụ dừng","Zone":"Quận 7","Ward":null,"AddressNo":"37","Street":"Nguyễn Văn Linh","SupportDisability":"","Status":"Đang khai thác","Lng":106.709341,"Lat":10.728212,"Search":"NDC 37 NVL","Routes":"102, 34"},{"StopId":837,"Code":"Q7 097","Name":"Co.op mart Phú Mỹ Hưng","StopType":"Nhà chờ","Zone":"Quận 7","Ward":null,"AddressNo":"Co.op mart Phú Mỹ Hưng","Street":"Nguyễn Văn Linh","SupportDisability":"","Status":"Đang khai thác","Lng":106.711557,"Lat":10.728275,"Search":"CmPMH CmPMH NVL","Routes":"102, 34"},{"StopId":838,"Code":"Q7 098","Name":"Cầu Thầy Tiêu","StopType":"Nhà chờ","Zone":"Quận 7","Ward":null,"AddressNo":"Trung tâm truyền hình cáp","Street":"Nguyễn Văn Linh","SupportDisability":"","Status":"Đang khai thác","Lng":106.714829,"Lat":10.728375,"Search":"CTT Ttthc NVL","Routes":"102, 34"},{"StopId":839,"Code":"Q7 099","Name":"bệnh viện Việt Pháp","StopType":"Trụ dừng","Zone":"Quận 7","Ward":null,"AddressNo":"Đối diện bệnh viện Việt Pháp","Street":"Nguyễn Văn Linh","SupportDisability":"","Status":"Đang khai thác","Lng":106.719646,"Lat":10.730309,"Search":"bvVP DdbvVP NVL","Routes":"102, 34"},{"StopId":840,"Code":"Q7 100","Name":"Cầu Đa Khoa","StopType":"Trụ dừng","Zone":"Quận 7","Ward":null,"AddressNo":"Đối diện 354","Street":"Nguyễn Văn Linh","SupportDisability":"","Status":"Đang khai thác","Lng":106.721798,"Lat":10.738937,"Search":"CDK Dd354 NVL","Routes":"102, 31"},{"StopId":842,"Code":"Q7 101","Name":"Cầu Lý Phục Man","StopType":"Trụ dừng","Zone":"Quận 7","Ward":null,"AddressNo":"Đối diện 404","Street":"Nguyễn Văn Linh","SupportDisability":"","Status":"Đang khai thác","Lng":106.721862,"Lat":10.742031,"Search":"CLPM Dd404 NVL","Routes":"102, 31"},{"StopId":841,"Code":"Q7 102","Name":"Ủy ban phường Tân Thuận Tây","StopType":"Trụ dừng","Zone":"Quận 7","Ward":null,"AddressNo":"Đối diện UBND P. Tân Thuận Tây","Street":"Nguyễn Văn Linh","SupportDisability":"","Status":"Đang khai thác","Lng":106.721991,"Lat":10.746975,"Search":"?bpTTT DdUPTTT NVL","Routes":"102, 31"},{"StopId":844,"Code":"Q7 103","Name":"Cầu Tân Thuận 2","StopType":"Trụ dừng","Zone":"Quận 7","Ward":null,"AddressNo":"Đối diện 41","Street":"Nguyễn Văn Linh","SupportDisability":"","Status":"Đang khai thác","Lng":106.724174,"Lat":10.751307,"Search":"CTT2 Dd41 NVL","Routes":"102, 31"},{"StopId":848,"Code":"Q4 031","Name":"Cảng Sài Gòn","StopType":"Nhà chờ","Zone":"Quận 4","Ward":null,"AddressNo":"Đối diện 466","Street":"Nguyễn Tất Thành","SupportDisability":"","Status":"Đang khai thác","Lng":106.7155,"Lat":10.758443,"Search":"CSG Dd466 NTT","Routes":"102, 20, 31, 34, 75"},{"StopId":847,"Code":"Q4 032","Name":"Nhà thờ Thánh An Tôn","StopType":"Nhà chờ","Zone":"Quận 4","Ward":null,"AddressNo":"Đối diện 448","Street":"Nguyễn Tất Thành","SupportDisability":"","Status":"Đang khai thác","Lng":106.713241,"Lat":10.759771,"Search":"NtTAT Dd448 NTT","Routes":"102, 20, 31, 34, 75"},{"StopId":850,"Code":"Q4 033","Name":"Đại học Nguyễn Tất Thành","StopType":"Nhà chờ","Zone":"Quận 4","Ward":null,"AddressNo":"Đối diện 300A","Street":"Nguyễn Tất Thành","SupportDisability":"","Status":"Đang khai thác","Lng":106.710194,"Lat":10.761557,"Search":"DhNTT Dd300A NTT","Routes":"102, 20, 31, 34, 75"},{"StopId":849,"Code":"Q4 034","Name":"Bưu Điện Quận 4","StopType":"Ô sơn","Zone":"Quận 4","Ward":null,"AddressNo":"75-83","Street":"Nguyễn Tất Thành","SupportDisability":"","Status":"Đang khai thác","Lng":106.707941,"Lat":10.763744,"Search":"BDQ4 75-83 NTT","Routes":"102, 20, 31, 34, 75"},{"StopId":852,"Code":"Q4 006","Name":"Chợ Xóm Chiếu","StopType":"Trụ dừng","Zone":"Quận 4","Ward":null,"AddressNo":"34","Street":"Hoàng Diệu","SupportDisability":"","Status":"Đang khai thác","Lng":106.706471,"Lat":10.764983,"Search":"CXC 34 HD","Routes":"102, 20, 31, 34, 75"},{"StopId":851,"Code":"Q4 007","Name":"Đoàn Văn Bơ","StopType":"Trụ dừng","Zone":"Quận 4","Ward":null,"AddressNo":"106-108","Street":"Hoàng Diệu","SupportDisability":"","Status":"Đang khai thác","Lng":106.704031,"Lat":10.763744,"Search":"DVB 106-108 HD","Routes":"102, 20, 31, 34, 75"},{"StopId":2028,"Code":"Q1 194","Name":"Trường Cao Thắng","StopType":"Nhà chờ","Zone":"Quận 1","Ward":"Phường Bến Nghé","AddressNo":"Trường Cao Thắng","Street":"Hàm Nghi","SupportDisability":"","Status":"Đang khai thác","Lng":106.701853,"Lat":10.771043,"Search":"TCT TCT HN","Routes":"01, 03, 102, 19, 20, 34, 38, 39, 45, 56, 72-2B, 75, 86, 88, D4"},{"StopId":4223,"Code":"Q1 102","Name":"Trạm Trung chuyển trên đường Hàm Nghi","StopType":"Nhà chờ","Zone":"Quận 1","Ward":"Phường Bến Thành","AddressNo":"Hàm Nghi 4","Street":"Hàm Nghi","SupportDisability":"","Status":"Đang khai thác","Lng":106.699514,"Lat":10.771043,"Search":"TTctdHN HN4 HN","Routes":"01, 102, 44, 65, 86"},{"StopId":7273,"Code":"Q1 187","Name":"Khách sạn New World","StopType":"Nhà chờ","Zone":"Quận 1","Ward":"Phường Bến Thành","AddressNo":"Số 76","Street":"Lê Lai","SupportDisability":"Có","Status":"Đang khai thác","Lng":106.695946,"Lat":10.770964,"Search":"KsNW S76 LL","Routes":"03, 04, 102, 109, 18, 19, 20, 34, 36, 39, 52, 53, 72-2B, 86, 88, 93, D4"},{"StopId":7274,"Code":"Q1 188","Name":"Nguyễn Thị Nghĩa","StopType":"Trụ dừng","Zone":"Quận 1","Ward":"Phường Bến Thành","AddressNo":"94-96","Street":"Lê Lai","SupportDisability":"Có","Status":"Đang khai thác","Lng":106.693495,"Lat":10.769952,"Search":"NTN 94-96 LL","Routes":"03, 04, 102, 109, 13, 140, 156D, 18, 19, 20, 34, 36, 39, 52, 53, 69, 72, 72-2B, 75, 86, 88, 93, D4"},{"StopId":7275,"Code":"Q1 189","Name":"Tôn Thất Tùng","StopType":"Trụ dừng","Zone":"Quận 1","Ward":"Phường Bến Thành","AddressNo":"202-204","Street":"Lê Lai","SupportDisability":"Có","Status":"Đang khai thác","Lng":106.690469,"Lat":10.768761,"Search":"TTT 202-204 LL","Routes":"03, 04, 102, 109, 13, 140, 156D, 18, 19, 20, 34, 36, 39, 52, 53, 69, 72, 72-2B, 75, 86, 88, 93, D4"},{"StopId":35,"Code":"BX 01","Name":"Bến xe buýt Sài Gòn","StopType":"Bến xe","Zone":"Quận 1","Ward":"Phường Phạm Ngũ Lão","AddressNo":"BẾN XE BUÝT SÀI GÒN","Street":"Lê Lai","SupportDisability":"Có","Status":"Đang khai thác","Lng":106.689362,"Lat":10.767676,"Search":"BxbSG BXBSG LL","Routes":"03, 04, 102, 109, 13, 140, 18, 19, 20, 27, 28, 34, 36, 39, 52, 65, 69, 72, 75, 86, 88, 93, D4, DL03, DL04, DRCB, BD, DRCB, VT"}]