[{"StopId":7695,"Code":"BX 33","Name":"Bến xe Miền Đông mới","StopType":"Bến xe","Zone":"TP. Thủ Đức - KV2","Ward":"Phường Long Bình","AddressNo":"Bến xe Miền Đông mới","Street":"Quốc lộ 1","SupportDisability":"Có","Status":"Đang khai thác","Lng":106.81497,"Lat":10.878606,"Search":"BxMDm BxMDm Ql1","Routes":"150, 56, 60-7, 61-05, 61-77, 61-9, 67, 76, 93"},{"StopId":3742,"Code":"Q9 267","Name":"Đường Hoàng Hữu Nam","StopType":"Trụ dừng","Zone":"TP. Thủ Đức - KV2","Ward":"Phường Long Bình","AddressNo":"373","Street":"Hoàng Hữu Nam","SupportDisability":"","Status":"Đang khai thác","Lng":106.814125,"Lat":10.871176,"Search":"DHHN 373 HHN","Routes":"150, 56, 61-05, 61-77, 61-9, 67, 76, 93"},{"StopId":3744,"Code":"Q9 060","Name":"Nghĩa trang liệt sĩ Tp.HCM","StopType":"Nhà chờ","Zone":"TP. Thủ Đức - KV2","Ward":"Phường Tân Phú","AddressNo":"Đối diện 28","Street":"D400","SupportDisability":"","Status":"Đang khai thác","Lng":106.809345,"Lat":10.871408,"Search":"NtlsT Dd28 D","Routes":"150, 56, 61-05, 61-77, 61-9, 67, 76, 93"},{"StopId":1919,"Code":"Q9 225","Name":"Nghĩa trang liệt sĩ TP.HCM","StopType":"Trụ dừng","Zone":"TP. Thủ Đức - KV2","Ward":"Phường Tân Phú","AddressNo":"Nghĩa trang liệt sĩ Thành phố HCM","Street":"Quốc lộ 1","SupportDisability":"","Status":"Đang khai thác","Lng":106.809458,"Lat":10.873515,"Search":"NtlsT NtlsTpH Ql1","Routes":"08, 10, 150, 164V, 19, 33, 53, 56, 60-1, 60-2, 60-3, 60-7, 61-05, 61-9, 67, 93, 99"},{"StopId":572,"Code":"QTD 175","Name":"Đại học An Ninh Nhân Dân","StopType":"Trụ dừng","Zone":"TP. Thủ Đức - KV3","Ward":null,"AddressNo":"Nhà máy Tiến Thành","Street":"Quốc lộ 1","SupportDisability":"","Status":"Đang khai thác","Lng":106.806657,"Lat":10.871402,"Search":"DhANND NmTT Ql1","Routes":"08, 10, 150, 164V, 166, 19, 33, 53, 60-1, 60-2, 60-3, 60-7, 61-9, 67, 99"},{"StopId":576,"Code":"QTD 176","Name":"Trường giáo dục Quốc phòng","StopType":"Trụ dừng","Zone":"TP. Thủ Đức - KV3","Ward":null,"AddressNo":"Trường giáo dục Quốc phòng","Street":"Quốc lộ 1","SupportDisability":"","Status":"Đang khai thác","Lng":106.804727,"Lat":10.869172,"Search":"TgdQp TgdQp Ql1","Routes":"08, 10, 150, 164V, 166, 19, 33, 53, 60-2, 60-3, 60-7, 61-9, 67, 99"},{"StopId":574,"Code":"QTD 177","Name":"Khu DL Suối Tiên","StopType":"Nhà chờ","Zone":"TP. Thủ Đức - KV3","Ward":"Phường Linh Trung","AddressNo":"9/29","Street":"Quốc lộ 1","SupportDisability":"","Status":"Đang khai thác","Lng":106.801116,"Lat":10.86605,"Search":"KDST 9/29 Ql1","Routes":"08, 10, 150, 19, 33, 53, 60-1, 60-2, 60-3, 60-7, 61-9, 67, 76, 93, 99"},{"StopId":4559,"Code":"QTD 197","Name":"Câu vượt Trạm 2","StopType":"Nhà chờ","Zone":"TP. Thủ Đức - KV3","Ward":"Phường Linh Trung","AddressNo":"Câu vượt Trạm 2","Street":"Quốc lộ 1","SupportDisability":"","Status":"Đang khai thác","Lng":106.797318,"Lat":10.8639,"Search":"CvT2 CvT2 Ql1","Routes":"08, 150, 67, 76"},{"StopId":398,"Code":"QTD 074","Name":"Khu Công nghệ cao Q9","StopType":"Trụ dừng","Zone":"TP. Thủ Đức - KV3","Ward":"Phường Linh Trung","AddressNo":"Đối diện Khu công nghệ cao","Street":"Xa Lộ Hà Nội","SupportDisability":"","Status":"Đang khai thác","Lng":106.791138,"Lat":10.860218,"Search":"KCncQ DdKcnc XLHN","Routes":"06, 08, 10, 150, 52, 60-3, 67, 76"},{"StopId":4392,"Code":"QTD 075","Name":"Xa Lộ Hà Nội","StopType":"Nhà chờ","Zone":"TP. Thủ Đức - KV3","Ward":"Phường Linh Trung","AddressNo":"Đối diện Khu Công Nghệ Cao Q.9","Street":"Xa Lộ Hà Nội","SupportDisability":"","Status":"Đang khai thác","Lng":106.788633,"Lat":10.858716,"Search":"XLHN DdKCNCQ XLHN","Routes":"06, 08, 10, 150, 52, 60-3, 67, 76"},{"StopId":401,"Code":"QTD 076","Name":"Công ty Cocacola","StopType":"Nhà chờ","Zone":"TP. Thủ Đức - KV3","Ward":"Phường Linh Trung","AddressNo":"Công ty Cocacola","Street":"Xa Lộ Hà Nội","SupportDisability":"","Status":"Đang khai thác","Lng":106.784964,"Lat":10.856483,"Search":"CtC CtC XLHN","Routes":"06, 08, 10, 150, 52, 60-3, 67, 76"},{"StopId":1113,"Code":"QTD 077","Name":"Ngã tư Thủ Đức","StopType":"Nhà chờ","Zone":"TP. Thủ Đức - KV3","Ward":"Phường Bình Thọ","AddressNo":"Đối diện Coopmart","Street":"Võ Nguyên Giáp","SupportDisability":"","Status":"Đang khai thác","Lng":106.77299,"Lat":10.84828,"Search":"NtTD DdC VNG","Routes":"10, 150, 52, 53, 60-3, 67"},{"StopId":8094,"Code":"TPTĐ 224","Name":"Ga metro Thủ Đức","StopType":"Nhà chờ","Zone":"TP. Thủ Đức - KV3","Ward":"Phường Bình Thọ","AddressNo":"Cạnh ga metro Thủ Đức","Street":"Xa Lộ Hà Nội","SupportDisability":"Có","Status":"Đang khai thác","Lng":106.771394,"Lat":10.845622,"Search":"GmTD CgmTD XLHN","Routes":"10, 150, 52, 53, 60-3, 67"},{"StopId":1111,"Code":"QTD 078","Name":"Betong Hải Âu","StopType":"Trụ dừng","Zone":"TP. Thủ Đức - KV3","Ward":"Phường Bình Thọ","AddressNo":"Đối diện Betong Hải Âu","Street":"Võ Nguyên Giáp","SupportDisability":"","Status":"Đang khai thác","Lng":106.77063,"Lat":10.844297,"Search":"BHA DdBHA VNG","Routes":"10, 150, 52, 53, 60-3, 67"},{"StopId":1112,"Code":"QTD 079","Name":"UBND Quận 9","StopType":"Nhà chờ","Zone":"TP. Thủ Đức - KV3","Ward":"Phường Bình Thọ","AddressNo":"126","Street":"Võ Nguyên Giáp","SupportDisability":"","Status":"Đang khai thác","Lng":106.768607,"Lat":10.840745,"Search":"UQ9 126 VNG","Routes":"10, 150, 52, 53, 60-3, 67"},{"StopId":410,"Code":"QTD 080","Name":"Ngã 4 Bình Thái","StopType":"Nhà chờ","Zone":"TP. Thủ Đức - KV3","Ward":"Phường Trường Thọ","AddressNo":"Đối diện 592C","Street":"Võ Nguyên Giáp","SupportDisability":"","Status":"Đang khai thác","Lng":106.765244,"Lat":10.834945,"Search":"N4BT Dd592C VNG","Routes":"06, 10, 150, 52, 53, 56, 60-3, 67"},{"StopId":413,"Code":"QTD 081","Name":"Công ty truyền tải điện 4","StopType":"Nhà chờ","Zone":"TP. Thủ Đức - KV3","Ward":"Phường Trường Thọ","AddressNo":"Công ty truyền tải điện 4","Street":"Võ Nguyên Giáp","SupportDisability":"","Status":"Đang khai thác","Lng":106.763635,"Lat":10.831957,"Search":"Ctttd4 Ctttd4 VNG","Routes":"06, 10, 150, 52, 53, 56, 60-3, 67"},{"StopId":412,"Code":"QTD 082","Name":"Ngã 4 Tây Hòa (RMK)","StopType":"Nhà chờ","Zone":"TP. Thủ Đức - KV3","Ward":"Phường Trường Thọ","AddressNo":"Nhà máy thép Thủ Đức","Street":"Võ Nguyên Giáp","SupportDisability":"","Status":"Đang khai thác","Lng":106.759998,"Lat":10.825366,"Search":"N4TH( NmtTD VNG","Routes":"06, 10, 150, 52, 53, 56, 60-3, 67, 99"},{"StopId":414,"Code":"QTD 083","Name":"Xi măng Hà Tiên","StopType":"Nhà chờ","Zone":"TP. Thủ Đức - KV3","Ward":"Phường Trường Thọ","AddressNo":"Xi măng Hà Tiên 1","Street":"Võ Nguyên Giáp","SupportDisability":"","Status":"Đang khai thác","Lng":106.758142,"Lat":10.820576,"Search":"XmHT XmHT1 VNG","Routes":"06, 10, 150, 52, 53, 56, 60-3, 67, 99"},{"StopId":415,"Code":"Q2 075","Name":"Cát Lái","StopType":"Nhà chờ","Zone":"TP. Thủ Đức - KV1","Ward":null,"AddressNo":"Đối diện Esstella","Street":"Võ Nguyên Giáp","SupportDisability":"","Status":"Đang khai thác","Lng":106.747948,"Lat":10.802925,"Search":"CL DdE VNG","Routes":"06, 10, 150, 153, 52, 53, 56, 60-3, 67"},{"StopId":416,"Code":"Q2 076","Name":"Metro Quận 2","StopType":"Nhà chờ","Zone":"TP. Thủ Đức - KV1","Ward":null,"AddressNo":"655","Street":"Võ Nguyên Giáp","SupportDisability":"","Status":"Đang khai thác","Lng":106.7434,"Lat":10.802134,"Search":"MQ2 655 VNG","Routes":"06, 10, 150, 153, 154, 52, 53, 56, 60-3, 67"},{"StopId":8154,"Code":"TPTĐ 135","Name":"Ga An Phú","StopType":"Nhà chờ","Zone":"TP. Thủ Đức - KV1","Ward":"Phường An Phú","AddressNo":"159","Street":"Võ Nguyên Giáp","SupportDisability":"Có","Status":"Đang khai thác","Lng":106.741589,"Lat":10.801817,"Search":"GAP 159 VNG","Routes":"06, 150, 153, 154, 52, 53, 56, 60-3, 67"},{"StopId":417,"Code":"Q2 077","Name":"Thảo Điền","StopType":"Nhà chờ","Zone":"TP. Thủ Đức - KV1","Ward":"Phường Thảo Điền","AddressNo":"Ngã ba Thảo Điền","Street":"Võ Nguyên Giáp","SupportDisability":"","Status":"Đang khai thác","Lng":106.738762,"Lat":10.801309,"Search":"TD NbTD VNG","Routes":"06, 10, 150, 154, 52, 53, 56, 60-3, 67, 72-1"},{"StopId":418,"Code":"Q2 078","Name":"Cầu Đen","StopType":"Nhà chờ","Zone":"TP. Thủ Đức - KV1","Ward":"Phường Thảo Điền","AddressNo":"Đối diện Cầu Đen","Street":"Võ Nguyên Giáp","SupportDisability":"","Status":"Đang khai thác","Lng":106.73436,"Lat":10.800451,"Search":"CD DdCD VNG","Routes":"06, 10, 150, 154, 52, 53, 56, 60-3, 67, 72-1"},{"StopId":419,"Code":"QBTH 056","Name":"Cầu Sài Gòn","StopType":"Trụ dừng","Zone":"Quận Bình Thạnh","Ward":null,"AddressNo":"24(597)","Street":"Điện Biên Phủ","SupportDisability":"","Status":"Đang khai thác","Lng":106.719571,"Lat":10.798893,"Search":"CSG 24(597) DBP","Routes":"06, 10, 104, 150, 157, 158, 160, 161, 30, 43, 52, 55, 60-3, 67"},{"StopId":420,"Code":"QBTH 055","Name":"Khu Du lịch Văn Thánh","StopType":"Nhà chờ","Zone":"Quận Bình Thạnh","Ward":null,"AddressNo":"152/72c(559)","Street":"Điện Biên Phủ","SupportDisability":"","Status":"Đang khai thác","Lng":106.717227,"Lat":10.800274,"Search":"KDlVT 152/72c(559) DBP","Routes":"06, 10, 104, 150, 157, 158, 161, 30, 43, 44, 52, 55, 60-3, 67"},{"StopId":421,"Code":"QBTH 054","Name":"Đại học Hutech","StopType":"Nhà chờ","Zone":"Quận Bình Thạnh","Ward":null,"AddressNo":"483","Street":"Điện Biên Phủ","SupportDisability":"","Status":"Đang khai thác","Lng":106.714856,"Lat":10.801228,"Search":"DhH 483 DBP","Routes":"06, 10, 104, 14, 150, 157, 161, 19, 30, 43, 44, 45, 52, 55, 60-3, 67, 72-1"},{"StopId":423,"Code":"QBTH 053","Name":"Cây xăng dầu","StopType":"Trụ dừng","Zone":"Quận Bình Thạnh","Ward":null,"AddressNo":"419","Street":"Điện Biên Phủ","SupportDisability":"","Status":"Đang khai thác","Lng":106.712834,"Lat":10.801697,"Search":"Cxd 419 DBP","Routes":"06, 10, 104, 14, 150, 157, 161, 19, 30, 43, 44, 45, 52, 55, 67"},{"StopId":299,"Code":"QBTH 123","Name":"Ngã Ba Hàng Xanh","StopType":"Biển treo","Zone":"Quận Bình Thạnh","Ward":null,"AddressNo":"334-336","Street":"Xô Viết Nghệ Tĩnh","SupportDisability":"","Status":"Đang khai thác","Lng":106.711509,"Lat":10.803262,"Search":"NBHX 334-336 XVNT","Routes":"05, 08, 14, 146, 161, 19, 24, 44, 45, 60-3, 67, 91, 93"},{"StopId":302,"Code":"QBTH 122","Name":"Đài Liệt sĩ","StopType":"Biển treo","Zone":"Quận Bình Thạnh","Ward":null,"AddressNo":"504","Street":"Xô Viết Nghệ Tĩnh","SupportDisability":"","Status":"Đang khai thác","Lng":106.711965,"Lat":10.808831,"Search":"DLs 504 XVNT","Routes":"05, 08, 14, 146, 158, 161, 19, 24, 43, 44, 45, 60-3, 67, 91, 93"},{"StopId":522,"Code":"QBTH 136","Name":"Cổng ra - Bến xe Miền Đông 3","StopType":"Trụ dừng","Zone":"Quận Bình Thạnh","Ward":null,"AddressNo":"100-102","Street":"Quốc lộ 13","SupportDisability":"","Status":"Đang khai thác","Lng":106.712532,"Lat":10.811666,"Search":"Cr-BxMD3 100-102 Ql13","Routes":"08, 19, 67, 91"},{"StopId":361,"Code":"QBTH 038","Name":"Cổng vào-Bến xe Miền Đông","StopType":"Nhà chờ","Zone":"Quận Bình Thạnh","Ward":null,"AddressNo":"78/3","Street":"Đinh Bộ Lĩnh","SupportDisability":"","Status":"Đang khai thác","Lng":106.711257,"Lat":10.816661,"Search":"CvxMD 78/3 DBL","Routes":"05, 08, 14, 146, 161, 19, 24, 43, 45, 60-3, 64, 67, 91, 93"},{"StopId":1403,"Code":"BX44","Name":"Bến xe Miền Đông","StopType":"Bến xe","Zone":"Quận Bình Thạnh","Ward":null,"AddressNo":"Bến xe Miền Đông","Street":"Đinh Bộ Lĩnh","SupportDisability":"","Status":"Đang khai thác","Lng":106.711294,"Lat":10.814733,"Search":"BxMD BxMD DBL","Routes":"14, 146, 24, 43, 45, 60-3, 61-8, 64, 67"}]