[{"StopId":278,"Code":"BX84","Name":"Bến xe buýt Chợ Lớn - B","StopType":"Bến xe","Zone":"Quận 6","Ward":null,"AddressNo":"BẾN XE BUÝT CHỢ LỚN B","Street":"Lê Quang Sung","SupportDisability":"","Status":"Đang khai thác","Lng":106.65107,"Lat":10.751185,"Search":"BxbCL-B BXBCLB LQS","Routes":"101, 145, 23, 61, 62-2, 68, 84"},{"StopId":4774,"Code":"Q6 063","Name":"Nguyễn Thị Nhỏ","StopType":"Biển treo","Zone":"Quận 6","Ward":"Phường 01","AddressNo":"14-16","Street":"Nguyễn Thị Nhỏ","SupportDisability":"Có","Status":"Đang khai thác","Lng":106.650585,"Lat":10.751802,"Search":"NTN 14-16 NTN","Routes":"103, 23, 94"},{"StopId":464,"Code":"Q5 023","Name":"Bến xe Chợ Lớn","StopType":"Trụ dừng","Zone":"Quận 5","Ward":null,"AddressNo":"555","Street":"Hồng Bàng","SupportDisability":"","Status":"Đang khai thác","Lng":106.65221,"Lat":10.753299,"Search":"BxCL 555 HB","Routes":"06, 09, 103, 139, 23, 62-1, 62-10, 62-6, 62-7, 63-1, 68, 81, 94"},{"StopId":897,"Code":"Q5 079","Name":"Tạ Uyên","StopType":"Trụ dừng","Zone":"Quận 5","Ward":null,"AddressNo":"20-22","Street":"Tạ Uyên","SupportDisability":"","Status":"Đang khai thác","Lng":106.65383,"Lat":10.754606,"Search":"TU 20-22 TU","Routes":"05, 103, 23, 94"},{"StopId":896,"Code":"Q11 082","Name":"Trạm Trần Quý - Tạ Uyên","StopType":"Trụ dừng","Zone":"Quận 11","Ward":null,"AddressNo":"114","Street":"Tạ Uyên","SupportDisability":"","Status":"Đang khai thác","Lng":106.653603,"Lat":10.758002,"Search":"TTQ-TU 114 TU","Routes":"103, 23"},{"StopId":1023,"Code":"Q11 034","Name":"Chợ Phú Thọ","StopType":"Trụ dừng","Zone":"Quận 11","Ward":null,"AddressNo":"134","Street":"Lãnh Binh Thăng","SupportDisability":"","Status":"Đang khai thác","Lng":106.653798,"Lat":10.762522,"Search":"CPT 134 LBT","Routes":"23, 62"},{"StopId":1018,"Code":"Q11 035","Name":"Công viên Lãnh Binh Thăng","StopType":"Nhà chờ","Zone":"Quận 11","Ward":null,"AddressNo":"Đối diện Trường mầm non (278)","Street":"Lãnh Binh Thăng","SupportDisability":"","Status":"Đang khai thác","Lng":106.650746,"Lat":10.76307,"Search":"CvLBT DdTmn( LBT","Routes":"23, 62"},{"StopId":1024,"Code":"Q11 036","Name":"Nhà văn hóa Quận 11","StopType":"Trụ dừng","Zone":"Quận 11","Ward":null,"AddressNo":"284","Street":"Lãnh Binh Thăng","SupportDisability":"","Status":"Đang khai thác","Lng":106.649389,"Lat":10.763813,"Search":"NvhQ11 284 LBT","Routes":"23, 62"},{"StopId":1027,"Code":"Q11 037","Name":"Chợ Lãnh Binh Thăng","StopType":"Trụ dừng","Zone":"Quận 11","Ward":null,"AddressNo":"308-310","Street":"Lãnh Binh Thăng","SupportDisability":"","Status":"Đang khai thác","Lng":106.646926,"Lat":10.76512,"Search":"CLBT 308-310 LBT","Routes":"23, 62"},{"StopId":1020,"Code":"Q11 040","Name":"Tòa án nhân dân Quận 11","StopType":"Trụ dừng","Zone":"Quận 11","Ward":null,"AddressNo":"150","Street":"Ông Ích Khiêm","SupportDisability":"","Status":"Đang khai thác","Lng":106.643082,"Lat":10.76659,"Search":"TandQ11 150 OÍK","Routes":"23, 62, 69"},{"StopId":1029,"Code":"Q11 043","Name":"Bãi xe buýt Đầm Sen","StopType":"Ô sơn","Zone":"Quận 11","Ward":null,"AddressNo":"40A","Street":"Hòa Bình","SupportDisability":"","Status":"Đang khai thác","Lng":106.641176,"Lat":10.767196,"Search":"BxbDS 40A HB","Routes":"15, 23, 38, 62, 69"},{"StopId":1616,"Code":"Q11 044","Name":"Trường Hòa Bình","StopType":"Trụ dừng","Zone":"Quận 11","Ward":null,"AddressNo":"72","Street":"Hòa Bình","SupportDisability":"","Status":"Đang khai thác","Lng":106.639261,"Lat":10.768361,"Search":"THB 72 HB","Routes":"15, 23, 62, 64, 69"},{"StopId":2191,"Code":"QTP 147","Name":"Ngã 3 Khuông Việt - Hòa Bình","StopType":"Trụ dừng","Zone":"Quận Tân Phú","Ward":null,"AddressNo":"317","Street":"Khuông Việt","SupportDisability":"","Status":"Đang khai thác","Lng":106.637802,"Lat":10.770205,"Search":"N3KV-HB 317 KV","Routes":"23"},{"StopId":2192,"Code":"QTP 148","Name":"Trạm chùa","StopType":"Trụ dừng","Zone":"Quận Tân Phú","Ward":null,"AddressNo":"249","Street":"Khuông Việt","SupportDisability":"","Status":"Đang khai thác","Lng":106.637625,"Lat":10.772919,"Search":"Tc 249 KV","Routes":"23"},{"StopId":2193,"Code":"QTP 149","Name":"Trạm cầu số 2","StopType":"Ô sơn","Zone":"Quận Tân Phú","Ward":null,"AddressNo":"115","Street":"Khuông Việt","SupportDisability":"","Status":"Đang khai thác","Lng":106.639599,"Lat":10.776429,"Search":"Tcs2 115 KV","Routes":"23"},{"StopId":2194,"Code":"QTP 150","Name":"Trạm Lê Ngã","StopType":"Ô sơn","Zone":"Quận Tân Phú","Ward":null,"AddressNo":"69","Street":"Khuông Việt","SupportDisability":"","Status":"Đang khai thác","Lng":106.641487,"Lat":10.777789,"Search":"TLN 69 KV","Routes":"23"},{"StopId":7311,"Code":"QTP 151","Name":"Âu Cơ","StopType":"Ô sơn","Zone":"Quận Tân Phú","Ward":"Phường Phú Trung","AddressNo":"03","Street":"Khuông Việt","SupportDisability":"Có","Status":"Đang khai thác","Lng":106.64264,"Lat":10.78085,"Search":"AC 03 KV","Routes":"23"},{"StopId":2199,"Code":"QTB 046","Name":"Bệnh Viện Tân Phú","StopType":"Trụ dừng","Zone":"Quận Tân Bình","Ward":null,"AddressNo":"584-590","Street":"Âu Cơ","SupportDisability":"","Status":"Đang khai thác","Lng":106.642785,"Lat":10.78299,"Search":"BVTP 584-590 AC","Routes":"23, 27"},{"StopId":2195,"Code":"QTB 047","Name":"Ngã tư Thoại Ngọc Hầu","StopType":"Nhà chờ","Zone":"Quận Tân Bình","Ward":null,"AddressNo":"678","Street":"Âu Cơ","SupportDisability":"","Status":"Đang khai thác","Lng":106.641991,"Lat":10.785335,"Search":"NtTNH 678 AC","Routes":"23, 27"},{"StopId":2196,"Code":"QTB 048","Name":"Bàu Cát 8","StopType":"Trụ dừng","Zone":"Quận Tân Bình","Ward":null,"AddressNo":"722","Street":"Âu Cơ","SupportDisability":"","Status":"Đang khai thác","Lng":106.641182,"Lat":10.78729,"Search":"BC8 722 AC","Routes":"23, 27, 62, 64"},{"StopId":2198,"Code":"QTB 150","Name":"Chợ Bàu Cát","StopType":"Trụ dừng","Zone":"Quận Tân Bình","Ward":null,"AddressNo":"205","Street":"Nguyễn Hồng Đào","SupportDisability":"","Status":"Đang khai thác","Lng":106.641678,"Lat":10.791806,"Search":"CBC 205 NHD","Routes":"23"},{"StopId":2201,"Code":"QTB 149","Name":"Bàu Cát 2","StopType":"Ô sơn","Zone":"Quận Tân Bình","Ward":null,"AddressNo":"181-185","Street":"Nguyễn Hồng Đào","SupportDisability":"","Status":"Đang khai thác","Lng":106.642349,"Lat":10.793495,"Search":"BC2 181-185 NHD","Routes":"23, 64"},{"StopId":2203,"Code":"QTB 148","Name":"Ngã ba Trường Chinh","StopType":"Ô sơn","Zone":"Quận Tân Bình","Ward":null,"AddressNo":"21","Street":"Nguyễn Hồng Đào","SupportDisability":"","Status":"Đang khai thác","Lng":106.643445,"Lat":10.797017,"Search":"NbTC 21 NHD","Routes":"23, 64"},{"StopId":2200,"Code":"QTB 071","Name":"Ngã ba Ấp Bắc","StopType":"Trụ dừng","Zone":"Quận Tân Bình","Ward":null,"AddressNo":"366A","Street":"Trường Chinh","SupportDisability":"","Status":"Đang khai thác","Lng":106.641036,"Lat":10.799642,"Search":"NbAB 366A TC","Routes":"13, 23, 65, 94"},{"StopId":2205,"Code":"QTB 072","Name":"Chợ Võ Thành Trang","StopType":"Nhà chờ","Zone":"Quận Tân Bình","Ward":null,"AddressNo":"510","Street":"Trường Chinh","SupportDisability":"","Status":"Đang khai thác","Lng":106.637823,"Lat":10.801365,"Search":"CVTT 510 TC","Routes":"13, 23, 65, 94"},{"StopId":1302,"Code":"QTB 073","Name":"Ngã tư Tân Kỳ Tân Quý","StopType":"Biển treo","Zone":"Quận Tân Bình","Ward":null,"AddressNo":"638","Street":"Trường Chinh","SupportDisability":"","Status":"Đang khai thác","Lng":106.635629,"Lat":10.804732,"Search":"NtTKTQ 638 TC","Routes":"13, 23, 27, 62, 65, 94"},{"StopId":2202,"Code":"QTB 074","Name":"Siêu thị Big C","StopType":"Nhà chờ","Zone":"Quận Tân Bình","Ward":null,"AddressNo":"680","Street":"Trường Chinh","SupportDisability":"","Status":"Đang khai thác","Lng":106.635184,"Lat":10.806202,"Search":"StBC 680 TC","Routes":"13, 23, 27, 62, 65, 94"},{"StopId":268,"Code":"QTB 075","Name":"Mũi tàu Cộng Hòa","StopType":"Trụ dừng","Zone":"Quận Tân Bình","Ward":null,"AddressNo":"19B1","Street":"Trường Chinh","SupportDisability":"","Status":"Đang khai thác","Lng":106.634638,"Lat":10.808314,"Search":"MtCH 19B1 TC","Routes":"04, 104, 13, 145, 16, 23, 27, 28, 62, 63-1, 65, 94"},{"StopId":267,"Code":"QTB 076","Name":"Ngã ba Chế Lan Viên","StopType":"Nhà chờ","Zone":"Quận Tân Bình","Ward":null,"AddressNo":"Đối diện đường Chế Lan Viên","Street":"Trường Chinh","SupportDisability":"","Status":"Đang khai thác","Lng":106.633349,"Lat":10.812204,"Search":"NbCLV DddCLV TC","Routes":"04, 104, 13, 145, 23, 27, 28, 62, 65, 94"},{"StopId":270,"Code":"QTB 078","Name":"UBND Phường 15","StopType":"Nhà chờ","Zone":"Quận Tân Bình","Ward":null,"AddressNo":"850","Street":"Trường Chinh","SupportDisability":"","Status":"Đang khai thác","Lng":106.631461,"Lat":10.818332,"Search":"UP15 850 TC","Routes":"04, 104, 13, 145, 23, 27, 62, 65, 94"},{"StopId":271,"Code":"QTB 079","Name":"Khu Công Nghiệp Tân Bình","StopType":"Nhà chờ","Zone":"Quận Tân Bình","Ward":null,"AddressNo":"932","Street":"Trường Chinh","SupportDisability":"","Status":"Đang khai thác","Lng":106.630254,"Lat":10.822452,"Search":"KCNTB 932 TC","Routes":"04, 104, 13, 145, 23, 27, 32, 41, 62, 65, 94"},{"StopId":272,"Code":"Q12 128","Name":"Cầu Tham Lương - Siêu thị Thiên Hòa","StopType":"Nhà chờ","Zone":"Quận 12","Ward":null,"AddressNo":"60A-B (1/17A)","Street":"Trường Chinh","SupportDisability":"","Status":"Đang khai thác","Lng":106.625828,"Lat":10.826957,"Search":"CTL-StTH 60A-B( TC","Routes":"04, 104, 13, 145, 23, 27, 41, 62, 65, 94"},{"StopId":2207,"Code":"Q12 186","Name":"Công ty thời trang Sài Gòn","StopType":"Nhà chờ","Zone":"Quận 12","Ward":null,"AddressNo":"Công ty thời trang Sài Gòn","Street":"Phan Văn Hớn","SupportDisability":"","Status":"Đang khai thác","Lng":106.623516,"Lat":10.827637,"Search":"CtttSG CtttSG PVH","Routes":"23"},{"StopId":2208,"Code":"Q12 187","Name":"Công ty Thuận Kiều","StopType":"Nhà chờ","Zone":"Quận 12","Ward":null,"AddressNo":"102","Street":"Phan Văn Hớn","SupportDisability":"","Status":"Đang khai thác","Lng":106.619707,"Lat":10.828469,"Search":"CtTK 102 PVH","Routes":"23"},{"StopId":2206,"Code":"Q12 188","Name":"Chùa Bửu Tạng","StopType":"Trụ dừng","Zone":"Quận 12","Ward":null,"AddressNo":"174","Street":"Phan Văn Hớn","SupportDisability":"","Status":"Đang khai thác","Lng":106.616049,"Lat":10.829418,"Search":"CBT 174 PVH","Routes":"23"},{"StopId":2204,"Code":"Q12 189","Name":"Trường Nghệ thuật và Du Lịch","StopType":"Trụ dừng","Zone":"Quận 12","Ward":null,"AddressNo":"250A","Street":"Phan Văn Hớn","SupportDisability":"","Status":"Đang khai thác","Lng":106.611435,"Lat":10.831746,"Search":"TNtvDL 250A PVH","Routes":"23"},{"StopId":2287,"Code":"Q12 190","Name":"Nhà sách Nhân Văn","StopType":"Trụ dừng","Zone":"Quận 12","Ward":null,"AddressNo":"Nhà sách quận 12","Street":"Phan Văn Hớn","SupportDisability":"","Status":"Đang khai thác","Lng":106.607863,"Lat":10.833928,"Search":"NsNV Nsq12 PVH","Routes":"23"},{"StopId":2210,"Code":"HHM 177","Name":"Ngã tư Bà Điểm","StopType":"Trụ dừng","Zone":"Huyện Hóc Môn","Ward":"Xã Bà Điểm","AddressNo":"kế 33/3E (11/2)","Street":"Phan Văn Hớn","SupportDisability":"","Status":"Đang khai thác","Lng":106.606237,"Lat":10.835008,"Search":"NtBD k33/3E( PVH","Routes":"23"},{"StopId":2212,"Code":"HHM 178","Name":"Nguyễn Văn Cừ","StopType":"Trụ dừng","Zone":"Huyện Hóc Môn","Ward":"Xã Bà Điểm","AddressNo":"18/3E","Street":"Phan Văn Hớn","SupportDisability":"","Status":"Đang khai thác","Lng":106.602809,"Lat":10.837342,"Search":"NVC 18/3E PVH","Routes":"23"},{"StopId":2211,"Code":"HHM 179","Name":"Chợ Bà Điểm","StopType":"Trụ dừng","Zone":"Huyện Hóc Môn","Ward":"Xã Bà Điểm","AddressNo":"đd 14/9","Street":"Phan Văn Hớn","SupportDisability":"","Status":"Đang khai thác","Lng":106.599693,"Lat":10.839987,"Search":"CBD d14/9 PVH","Routes":"23, 48, 71"},{"StopId":2213,"Code":"HHM 180","Name":"Đình Tân Thới Nhất","StopType":"Trụ dừng","Zone":"Huyện Hóc Môn","Ward":"Xã Bà Điểm","AddressNo":"đd 8/2 (số 123)","Street":"Phan Văn Hớn","SupportDisability":"","Status":"Đang khai thác","Lng":106.598572,"Lat":10.840835,"Search":"DTTN d8/2(123) PVH","Routes":"23"},{"StopId":2215,"Code":"HHM 181","Name":"Cây xăng Tây Lân","StopType":"Trụ dừng","Zone":"Huyện Hóc Môn","Ward":"Xã Bà Điểm","AddressNo":"108/5A","Street":"Phan Văn Hớn","SupportDisability":"","Status":"Đang khai thác","Lng":106.596973,"Lat":10.842105,"Search":"CxTL 108/5A PVH","Routes":"23"},{"StopId":2273,"Code":"HHM 182","Name":"Kênh tiêu Bà Điểm","StopType":"Trụ dừng","Zone":"Huyện Hóc Môn","Ward":"Xã Bà Điểm","AddressNo":"12","Street":"Phan Văn Hớn","SupportDisability":"","Status":"Đang khai thác","Lng":106.592376,"Lat":10.846209,"Search":"KtBD 12 PVH","Routes":"23"},{"StopId":2217,"Code":"HHM 183","Name":"Chợ Đại Hải","StopType":"Trụ dừng","Zone":"Huyện Hóc Môn","Ward":null,"AddressNo":"26/4(60A)","Street":"Phan Văn Hớn","SupportDisability":"","Status":"Đang khai thác","Lng":106.589355,"Lat":10.848585,"Search":"CDH 26/4(60A) PVH","Routes":"23"},{"StopId":2214,"Code":"HHM 184","Name":"Phạm Văn Sáng","StopType":"Trụ dừng","Zone":"Huyện Hóc Môn","Ward":"Xã Xuân Thới Thượng","AddressNo":"118","Street":"Phan Văn Hớn","SupportDisability":"","Status":"Đang khai thác","Lng":106.585793,"Lat":10.851536,"Search":"PVS 118 PVH","Routes":"23"},{"StopId":4659,"Code":"HHM 185","Name":"Xuân Thới Thượng 28","StopType":"Trụ dừng","Zone":"Huyện Hóc Môn","Ward":null,"AddressNo":"82 (kế 28)","Street":"Phan Văn Hớn","SupportDisability":"","Status":"Đang khai thác","Lng":106.581953,"Lat":10.854739,"Search":"XTT28 82(28) PVH","Routes":"23"},{"StopId":4657,"Code":"HHM 186","Name":"Trường Xuân Thới Thượng","StopType":"Nhà chờ","Zone":"Huyện Hóc Môn","Ward":"Xã Xuân Thới Thượng","AddressNo":"10 (Trường Xuân Thới Thượng)","Street":"Phan Văn Hớn","SupportDisability":"Có","Status":"Đang khai thác","Lng":106.578552,"Lat":10.857594,"Search":"TXTT 10(XTT PVH","Routes":"23"},{"StopId":4658,"Code":"HHM 187","Name":"Trường tiểu học Ngã 3 Giồng","StopType":"Trụ dừng","Zone":"Huyện Hóc Môn","Ward":"Xã Xuân Thới Thượng","AddressNo":"80/12 (70/5A)","Street":"Phan Văn Hớn","SupportDisability":"","Status":"Đang khai thác","Lng":106.575365,"Lat":10.86026,"Search":"TthN3G 80/12( PVH","Routes":"23"},{"StopId":3971,"Code":"HHM 188","Name":"Chợ Xuân Thới Thượng","StopType":"Ô sơn","Zone":"Huyện Hóc Môn","Ward":"Xã Xuân Thới Thượng","AddressNo":"109/1","Street":"Phan Văn Hớn","SupportDisability":"","Status":"Đang khai thác","Lng":106.568998,"Lat":10.863279,"Search":"CXTT 109/1 PVH","Routes":"23"},{"StopId":4715,"Code":"HHM 189","Name":"Xuân Thới Thượng 14","StopType":"Trụ dừng","Zone":"Huyện Hóc Môn","Ward":"Xã Xuân Thới Thượng","AddressNo":"124/2B (GYM)","Street":"Phan Văn Hớn","SupportDisability":"","Status":"Đang khai thác","Lng":106.565634,"Lat":10.864838,"Search":"XTT14 124/2B( PVH","Routes":"23"},{"StopId":2220,"Code":"HHM 190","Name":"Dương Công Khi","StopType":"Trụ dừng","Zone":"Huyện Hóc Môn","Ward":"Xã Xuân Thới Thượng","AddressNo":"đd 5/3 (số 135/4)","Street":"Phan Văn Hớn","SupportDisability":"","Status":"Đang khai thác","Lng":106.562667,"Lat":10.866166,"Search":"DCK d5/3(135/4) PVH","Routes":"23, 28"},{"StopId":2221,"Code":"HHM 1900","Name":"Ngã 3 Giồng","StopType":"Trụ dừng","Zone":"Huyện Hóc Môn","Ward":"Xã Xuân Thới Thượng","AddressNo":"Ngã 3 dòng","Street":"Phan Văn Hớn","SupportDisability":"","Status":"Đang khai thác","Lng":106.559476,"Lat":10.867599,"Search":"N3G N3d PVH","Routes":"23"},{"StopId":2222,"Code":"HHM 066","Name":"Trường PTTH Nguyễn Văn Cừ","StopType":"Trụ dừng","Zone":"Huyện Hóc Môn","Ward":"Xã Xuân Thới Sơn","AddressNo":"Đối diện trường Nguyễn Văn Cừ","Street":"Nguyễn Văn Bứa","SupportDisability":"","Status":"Đang khai thác","Lng":106.550753,"Lat":10.869479,"Search":"TPNVC DdtNVC NVB","Routes":"23, 62-5, 78, 85"},{"StopId":3949,"Code":"HHM 067","Name":"Thái Sơn","StopType":"Trụ dừng","Zone":"Huyện Hóc Môn","Ward":"Xã Xuân Thới Sơn","AddressNo":"48B","Street":"Nguyễn Văn Bứa","SupportDisability":"","Status":"Đang khai thác","Lng":106.54673,"Lat":10.870006,"Search":"TS 48B NVB","Routes":"23, 62-5, 78, 85"},{"StopId":3939,"Code":"HHM 068","Name":"Lò Muối","StopType":"Trụ dừng","Zone":"Huyện Hóc Môn","Ward":"Xã Xuân Thới Sơn","AddressNo":"23B","Street":"Nguyễn Văn Bứa","SupportDisability":"","Status":"Đang khai thác","Lng":106.541677,"Lat":10.870702,"Search":"LM 23B NVB","Routes":"23, 62-5, 78, 85"},{"StopId":2265,"Code":"HHM 069","Name":"trường tiểu học Nhị Xuân","StopType":"Trụ dừng","Zone":"Huyện Hóc Môn","Ward":"Xã Xuân Thới Sơn","AddressNo":"8B","Street":"Nguyễn Văn Bứa","SupportDisability":"","Status":"Đang khai thác","Lng":106.538576,"Lat":10.871223,"Search":"tthNX 8B NVB","Routes":"23, 62-5, 78, 85"},{"StopId":2227,"Code":"BX 39","Name":"Bến xe buýt Cầu Lớn","StopType":"Bến xe","Zone":"Huyện Hóc Môn","Ward":"Xã Xuân Thới Sơn","AddressNo":"BẾN XE BUÝT CẦU LỚN","Street":"Nguyễn Văn Bứa","SupportDisability":"","Status":"Đang khai thác","Lng":106.535561,"Lat":10.871845,"Search":"BxbCL BXBCL NVB","Routes":"23, 62-5, 78, 85"}]