[{"StopId":1805,"Code":"BX 76","Name":"Đường 44","StopType":"Bến xe","Zone":"Quận 8","Ward":null,"AddressNo":"44","Street":"Đường 44 Trương Đình Hội","SupportDisability":"","Status":"Đang khai thác","Lng":106.622685,"Lat":10.723932,"Search":"D44 44 D44TDH","Routes":"15"},{"StopId":7585,"Code":"Q8 147","Name":"Trường Nguyễn Thị Định","StopType":"Ô sơn","Zone":"Quận 8","Ward":"Phường 16","AddressNo":"Đối diện Trường THPT Nguyễn Thị Định","Street":"Phạm Đức Sơn (Đường số 44)","SupportDisability":"Có","Status":"Đang khai thác","Lng":106.622969,"Lat":10.724675,"Search":"TNTD DdTTNTD PDS(s44)","Routes":"15"},{"StopId":8115,"Code":"Q8 157","Name":"Trường THCS Bình Đông","StopType":"Ô sơn","Zone":"Quận 8","Ward":"Phường 16","AddressNo":"Số 2 Trương Đình Hội","Street":"Trương Đình Hội","SupportDisability":"Có","Status":"Đang khai thác","Lng":106.625767,"Lat":10.716965,"Search":"TTBD S2TDH TDH","Routes":"15"},{"StopId":770,"Code":"Q8 143","Name":"Chợ Kiến Đức","StopType":"Ô sơn","Zone":"Quận 8","Ward":"Phường 01","AddressNo":"Đối diện 22/2","Street":"An Dương Vương","SupportDisability":"","Status":"Đang khai thác","Lng":106.618924,"Lat":10.715794,"Search":"CKD Dd22/2 ADV","Routes":"101, 15"},{"StopId":7049,"Code":"Q8 144","Name":"Nhựa Chợ Lớn","StopType":"Ô sơn","Zone":"Quận 8","Ward":"Phường 01","AddressNo":"Đối diện Nhựa Chợ Lớn (Đối diện 54)","Street":"An Dương Vương","SupportDisability":"Có","Status":"Đang khai thác","Lng":106.618752,"Lat":10.713564,"Search":"NCL DdNCL(d54) ADV","Routes":"101, 15"},{"StopId":763,"Code":"Q8 081","Name":"Bến Phú Định","StopType":"Ô sơn","Zone":"Quận 8","Ward":null,"AddressNo":"1","Street":"An Dương Vương","SupportDisability":"","Status":"Đang khai thác","Lng":106.61864,"Lat":10.71135,"Search":"BPD 1 ADV","Routes":"101, 15"},{"StopId":1847,"Code":"Q8 134","Name":"Chùa Viên Giác","StopType":"Ô sơn","Zone":"Quận 8","Ward":null,"AddressNo":"Đối diện Chùa Giác Viên","Street":"Hồ Học Lãm","SupportDisability":"","Status":"Đang khai thác","Lng":106.616848,"Lat":10.713359,"Search":"CVG DdCGV HHL","Routes":"101, 15"},{"StopId":1849,"Code":"QBT 036","Name":"Nhựa Long Thành","StopType":"Trụ dừng","Zone":"Quận Bình Tân","Ward":null,"AddressNo":"Đối diện 152A (ĐD 217)","Street":"Hồ Học Lãm","SupportDisability":"","Status":"Đang khai thác","Lng":106.613817,"Lat":10.718234,"Search":"NLT Dd152A(217) HHL","Routes":"101, 15"},{"StopId":1848,"Code":"QBT 037","Name":"Võ Văn Kiệt","StopType":"Trụ dừng","Zone":"Quận Bình Tân","Ward":null,"AddressNo":"258","Street":"Hồ Học Lãm","SupportDisability":"","Status":"Đang khai thác","Lng":106.612229,"Lat":10.72069,"Search":"VVK 258 HHL","Routes":"101, 15"},{"StopId":1798,"Code":"QBT 046","Name":"Chùa Sùng Quang","StopType":"Trụ dừng","Zone":"Quận Bình Tân","Ward":"Phường An Lạc","AddressNo":"324","Street":"Hồ Học Lãm","SupportDisability":"","Status":"Đang khai thác","Lng":106.610566,"Lat":10.723284,"Search":"CSQ 324 HHL","Routes":"15, 39"},{"StopId":1851,"Code":"QBT 039","Name":"Chợ Khu phố 2","StopType":"Trụ dừng","Zone":"Quận Bình Tân","Ward":"Phường An Lạc","AddressNo":"428","Street":"Hồ Học Lãm","SupportDisability":"","Status":"Đang khai thác","Lng":106.60885,"Lat":10.726035,"Search":"CKp2 428 HHL","Routes":"15, 39"},{"StopId":1852,"Code":"QBT 040","Name":"Ngã tư An Lạc","StopType":"Ô sơn","Zone":"Quận Bình Tân","Ward":"Phường An Lạc","AddressNo":"488","Street":"Hồ Học Lãm","SupportDisability":"","Status":"Đang khai thác","Lng":106.606857,"Lat":10.729012,"Search":"NtAL 488 HHL","Routes":"15, 151"},{"StopId":1853,"Code":"QBT 041","Name":"Siêu thị Big C","StopType":"Ô sơn","Zone":"Quận Bình Tân","Ward":"Phường An Lạc","AddressNo":"588","Street":"Hồ Học Lãm","SupportDisability":"","Status":"Đang khai thác","Lng":106.604934,"Lat":10.732233,"Search":"StBC 588 HHL","Routes":"15, 151"},{"StopId":1855,"Code":"QBT 042","Name":"Hẻm Sinco Hồ Ngọc Lãm","StopType":"Trụ dừng","Zone":"Quận Bình Tân","Ward":null,"AddressNo":"E4/39","Street":"Hồ Học Lãm","SupportDisability":"","Status":"Đang khai thác","Lng":106.603302,"Lat":10.734642,"Search":"HSHNL E HHL","Routes":"15, 151"},{"StopId":1856,"Code":"QBT 051","Name":"Trạm Điện Quốc lộ 1A","StopType":"Ô sơn","Zone":"Quận Bình Tân","Ward":"Phường Bình Trị Đông B","AddressNo":"1229C","Street":"Quốc lộ 1A","SupportDisability":"","Status":"Đang khai thác","Lng":106.601364,"Lat":10.737657,"Search":"TDQl1A 1229C Ql1A","Routes":"15, 151, 60-1"},{"StopId":1854,"Code":"QBT 052","Name":"Công ty Hai Thành","StopType":"Trụ dừng","Zone":"Quận Bình Tân","Ward":null,"AddressNo":"E4/48","Street":"Quốc lộ 1A","SupportDisability":"","Status":"Đang khai thác","Lng":106.598442,"Lat":10.742307,"Search":"CtHT E Ql1A","Routes":"15, 151, 60-1"},{"StopId":1857,"Code":"QBT 053","Name":"Công ty Pouyuen","StopType":"Nhà chờ","Zone":"Quận Bình Tân","Ward":null,"AddressNo":"Công ty Pouyuen","Street":"Quốc lộ 1A","SupportDisability":"","Status":"Đang khai thác","Lng":106.595078,"Lat":10.747634,"Search":"CtP CtP Ql1A","Routes":"15, 151, 60-1"},{"StopId":1858,"Code":"QBT 054","Name":"KCN Tân Tạo","StopType":"Nhà chờ","Zone":"Quận Bình Tân","Ward":null,"AddressNo":"56","Street":"Quốc lộ 1A","SupportDisability":"","Status":"Đang khai thác","Lng":106.592692,"Lat":10.752967,"Search":"KTT 56 Ql1A","Routes":"15, 151, 60-1"},{"StopId":1859,"Code":"QBT 055","Name":"Nhà sách Tân Tạo","StopType":"Ô sơn","Zone":"Quận Bình Tân","Ward":"Phường Tân Tạo","AddressNo":"1157","Street":"Quốc lộ 1A","SupportDisability":"","Status":"Đang khai thác","Lng":106.592369,"Lat":10.755164,"Search":"NsTT 1157 Ql1A","Routes":"15, 151"},{"StopId":1861,"Code":"QBT 056","Name":"Trạm xăng số 5","StopType":"Ô sơn","Zone":"Quận Bình Tân","Ward":"Phường Tân Tạo","AddressNo":"1137 (D11/89A)","Street":"Quốc lộ 1A","SupportDisability":"","Status":"Đang khai thác","Lng":106.591858,"Lat":10.757884,"Search":"Txs5 1137( Ql1A","Routes":"15, 151, 25, 60-1"},{"StopId":1863,"Code":"QBT 057","Name":"Chung cư Tân Mai","StopType":"Trụ dừng","Zone":"Quận Bình Tân","Ward":null,"AddressNo":"Đối diện 952","Street":"Quốc lộ 1A","SupportDisability":"","Status":"Đang khai thác","Lng":106.590927,"Lat":10.763075,"Search":"CcTM Dd952 Ql1A","Routes":"15, 151, 25, 60-1"},{"StopId":1865,"Code":"QBT 058","Name":"Hương lộ 2","StopType":"Ô sơn","Zone":"Quận Bình Tân","Ward":null,"AddressNo":"1083A","Street":"Quốc lộ 1A","SupportDisability":"","Status":"Đang khai thác","Lng":106.591148,"Lat":10.768476,"Search":"Hl2 1083A Ql1A","Routes":"15, 151, 25, 60-1"},{"StopId":1860,"Code":"QBT 115","Name":"Quốc lộ 1A","StopType":"Trụ dừng","Zone":"Quận Bình Tân","Ward":"Phường Bình Trị Đông A","AddressNo":"1013","Street":"Hương lộ 2","SupportDisability":"","Status":"Đang khai thác","Lng":106.59288,"Lat":10.769257,"Search":"Ql1A 1013 Hl2","Routes":"15"},{"StopId":1862,"Code":"QBT 114","Name":"Bệnh viện Bình Tân","StopType":"Ô sơn","Zone":"Quận Bình Tân","Ward":"Phường Bình Trị Đông A","AddressNo":"927 (Minh Trí)","Street":"Hương lộ 2","SupportDisability":"","Status":"Đang khai thác","Lng":106.594838,"Lat":10.768387,"Search":"BvBT 927(T Hl2","Routes":"15"},{"StopId":1864,"Code":"QBT 116","Name":"Bệnh viện Bình Tân","StopType":"Ô sơn","Zone":"Quận Bình Tân","Ward":"Phường Bình Trị Đông A","AddressNo":"863","Street":"Hương lộ 2","SupportDisability":"","Status":"Đang khai thác","Lng":106.597477,"Lat":10.767349,"Search":"BvBT 863 Hl2","Routes":"15"},{"StopId":7179,"Code":"QBT 285","Name":"Bệnh viện Bình Tân","StopType":"Ô sơn","Zone":"Quận Bình Tân","Ward":"Phường Bình Trị Đông A","AddressNo":"809","Street":"Hương Lộ 2","SupportDisability":"Có","Status":"Đang khai thác","Lng":106.603013,"Lat":10.764814,"Search":"BvBT 809 HL2","Routes":"15"},{"StopId":1866,"Code":"QBT 113","Name":"Thạch cao Thanh Tài","StopType":"Ô sơn","Zone":"Quận Bình Tân","Ward":"Phường Bình Trị Đông A","AddressNo":"737","Street":"Hương lộ 2","SupportDisability":"","Status":"Đang khai thác","Lng":106.605835,"Lat":10.766184,"Search":"TcTT 737 Hl2","Routes":"15, 16"},{"StopId":1868,"Code":"QBT 117","Name":"Trường Bình Trị","StopType":"Trụ dừng","Zone":"Quận Bình Tân","Ward":null,"AddressNo":"637","Street":"Hương lộ 2","SupportDisability":"","Status":"Đang khai thác","Lng":106.610207,"Lat":10.768187,"Search":"TBT 637 Hl2","Routes":"15"},{"StopId":1867,"Code":"QBT 249","Name":"589","StopType":"Ô sơn","Zone":"Quận Bình Tân","Ward":null,"AddressNo":"589","Street":"Hương lộ 2","SupportDisability":"","Status":"Đang khai thác","Lng":106.6146,"Lat":10.77049,"Search":"589 589 Hl2","Routes":"15"},{"StopId":1869,"Code":"QBT 250","Name":"497","StopType":"Ô sơn","Zone":"Quận Bình Tân","Ward":null,"AddressNo":"497","Street":"Hương lộ 2","SupportDisability":"","Status":"Đang khai thác","Lng":106.61739,"Lat":10.771649,"Search":"497 497 Hl2","Routes":"15"},{"StopId":1870,"Code":"QBT 232","Name":"Chợ Ngã tư 4 Xã","StopType":"Trụ dừng","Zone":"Quận Bình Tân","Ward":"Phường Bình Trị Đông","AddressNo":"449A (451C)","Street":"Hương lộ 2","SupportDisability":"","Status":"Đang khai thác","Lng":106.620619,"Lat":10.77323,"Search":"CNt4X 449A( Hl2","Routes":"15"},{"StopId":1568,"Code":"QTP 140","Name":"Ngã 4 bốn xã","StopType":"Trụ dừng","Zone":"Quận Tân Phú","Ward":"Phường Hiệp Tân","AddressNo":"257","Street":"Hòa Bình","SupportDisability":"","Status":"Đang khai thác","Lng":106.622926,"Lat":10.773193,"Search":"N4bx 257 HB","Routes":"15"},{"StopId":1563,"Code":"QTP 139","Name":"Tô Hiệu","StopType":"Trụ dừng","Zone":"Quận Tân Phú","Ward":"Phường Hiệp Tân","AddressNo":"245","Street":"Hòa Bình","SupportDisability":"","Status":"Đang khai thác","Lng":106.6259,"Lat":10.772165,"Search":"TH 245 HB","Routes":"15"},{"StopId":1565,"Code":"QTP 138","Name":"Trâm Tâm Mua Sắm","StopType":"Trụ dừng","Zone":"Quận Tân Phú","Ward":"Phường Hiệp Tân","AddressNo":"165","Street":"Hòa Bình","SupportDisability":"","Status":"Đang khai thác","Lng":106.628569,"Lat":10.771296,"Search":"TTMS 165 HB","Routes":"15, 32"},{"StopId":1570,"Code":"QTP 137","Name":"Ngã 4 Hòa Bình","StopType":"Biển treo","Zone":"Quận Tân Phú","Ward":"Phường Hiệp Tân","AddressNo":"69","Street":"Hòa Bình","SupportDisability":"","Status":"Đang khai thác","Lng":106.632539,"Lat":10.769973,"Search":"N4HB 69 HB","Routes":"15, 62, 64, 69"},{"StopId":1567,"Code":"QTP 136","Name":"Trường Hoàng Diệu","StopType":"Trụ dừng","Zone":"Quận Tân Phú","Ward":null,"AddressNo":"49","Street":"Hòa Bình","SupportDisability":"","Status":"Đang khai thác","Lng":106.633966,"Lat":10.769583,"Search":"THD 49 HB","Routes":"15, 62, 64, 69"},{"StopId":1571,"Code":"Q11 045","Name":"Thuỷ Tạ","StopType":"Nhà chờ","Zone":"Quận 11","Ward":null,"AddressNo":"ĐD 90 (nhà hàng Thủy Tạ Đầm Sen)","Street":"Hòa Bình","SupportDisability":"","Status":"Đang khai thác","Lng":106.637866,"Lat":10.768814,"Search":"TT D90(hTTDS HB","Routes":"15, 23, 62, 64, 69"},{"StopId":1022,"Code":"BX91","Name":"Bến xe buýt Đầm Sen","StopType":"Bến xe","Zone":"Quận 11","Ward":null,"AddressNo":"BẾN XE BUÝT ĐẦM SEN","Street":"Hòa Bình","SupportDisability":"","Status":"Đang khai thác","Lng":106.639733,"Lat":10.767834,"Search":"BxbDS BXBDS HB","Routes":"15, 38, 64"}]