[{"StopId":7508,"Code":"BX 91","Name":"Bến tàu thủy Hiệp Bình Chánh","StopType":"Bến xe","Zone":"TP. Thủ Đức - KV3","Ward":"Phường Hiệp Bình Chánh","AddressNo":"Bến tàu thủy Hiệp Bình Chánh","Street":"Số 10","SupportDisability":"Có","Status":"Đang khai thác","Lng":106.731545,"Lat":10.827458,"Search":"BttHBC BttHBC S10","Routes":"89"},{"StopId":4138,"Code":"QTDT003","Name":"Trường Tiểu học Hiệp Bình Chánh","StopType":"Trụ dừng","Zone":"TP. Thủ Đức - KV3","Ward":"Phường Hiệp Bình Chánh","AddressNo":"29","Street":"Số 1","SupportDisability":"","Status":"Đang khai thác","Lng":106.729259,"Lat":10.832115,"Search":"TThHBC 29 S1","Routes":"89"},{"StopId":526,"Code":"QTD 121","Name":"Cá sấu Hoa cà","StopType":"Nhà chờ","Zone":"TP. Thủ Đức - KV3","Ward":"Phường Hiệp Bình Chánh","AddressNo":"Đối diện Cá sấu Hoa Cà","Street":"Phạm Văn Đồng","SupportDisability":"Có","Status":"Đang khai thác","Lng":106.728331,"Lat":10.833606,"Search":"CsHc DdCsHC PVD","Routes":"08, 50, 89, 93"},{"StopId":527,"Code":"QTD 122","Name":"THCS Ngô Chí Quốc","StopType":"Nhà chờ","Zone":"TP. Thủ Đức - KV3","Ward":"Phường Hiệp Bình Chánh","AddressNo":"412","Street":"Phạm Văn Đồng","SupportDisability":"Có","Status":"Đang khai thác","Lng":106.730713,"Lat":10.83555,"Search":"TNCQ 412 PVD","Routes":"08, 50, 89, 93"},{"StopId":3276,"Code":"QTD 231","Name":"Chợ Hiệp Bình","StopType":"Trụ dừng","Zone":"TP. Thủ Đức - KV3","Ward":"Phường Hiệp Bình Chánh","AddressNo":"30","Street":"Hiệp Bình","SupportDisability":"","Status":"Đang khai thác","Lng":106.732221,"Lat":10.839212,"Search":"CHB 30 HB","Routes":"57, 89"},{"StopId":7144,"Code":"QTD 233","Name":"Đường 38","StopType":"Ô sơn","Zone":"TP. Thủ Đức - KV3","Ward":"Phường Hiệp Bình Phước","AddressNo":"122","Street":"Hiệp Bình","SupportDisability":"Có","Status":"Đang khai thác","Lng":106.730933,"Lat":10.843148,"Search":"D38 122 HB","Routes":"57, 89"},{"StopId":8037,"Code":"TPTĐ 167","Name":"Đường số 44","StopType":"Trụ dừng","Zone":"TP. Thủ Đức - KV3","Ward":"Phường Tam Bình","AddressNo":"Giữa số 36 - 38 (Công ty TNHH TM Kim Lợi)","Street":"Tam Bình","SupportDisability":"Có","Status":"Chưa khai thác","Lng":106.729326,"Lat":10.849689,"Search":"Ds44 Gs36-38(tTTKL TB","Routes":"89"},{"StopId":8039,"Code":"TPTĐ 169","Name":"Cầu rạch Gò Dưa","StopType":"Trụ dừng","Zone":"TP. Thủ Đức - KV3","Ward":"Phường Tam Phú","AddressNo":"146","Street":"Tam Bình","SupportDisability":"Có","Status":"Chưa khai thác","Lng":106.733699,"Lat":10.854411,"Search":"CrGD 146 TB","Routes":"89"},{"StopId":8042,"Code":"TPTĐ 172","Name":"Trạm đúc bê tông","StopType":"Trụ dừng","Zone":"TP. Thủ Đức - KV3","Ward":"Phường Tam Phú","AddressNo":"Đối diện 55B1","Street":"Cây Keo","SupportDisability":"Có","Status":"Chưa khai thác","Lng":106.73993,"Lat":10.861319,"Search":"Tdbt Dd55B1 CK","Routes":"89"},{"StopId":1546,"Code":"QTD 023","Name":"Chùa Vạn Hạnh","StopType":"Trụ dừng","Zone":"TP. Thủ Đức - KV3","Ward":null,"AddressNo":"522","Street":"Tô Ngọc Vân","SupportDisability":"","Status":"Đang khai thác","Lng":106.741928,"Lat":10.86497,"Search":"CVH 522 TNV","Routes":"141, 29, 89"},{"StopId":1550,"Code":"QTD 024","Name":"Công ty Minh Nghệ","StopType":"Trụ dừng","Zone":"TP. Thủ Đức - KV3","Ward":null,"AddressNo":"96D3","Street":"Tô Ngọc Vân","SupportDisability":"","Status":"Đang khai thác","Lng":106.739929,"Lat":10.866192,"Search":"CtMN 96D3 TNV","Routes":"141, 29, 89"},{"StopId":1548,"Code":"QTD 025","Name":"Điện lực Thủ Đức","StopType":"Trụ dừng","Zone":"TP. Thủ Đức - KV3","Ward":null,"AddressNo":"562","Street":"Tô Ngọc Vân","SupportDisability":"","Status":"Đang khai thác","Lng":106.738564,"Lat":10.866601,"Search":"DlTD 562 TNV","Routes":"141, 29, 89"},{"StopId":1552,"Code":"QTD 026","Name":"UBND Phường Tam Bình","StopType":"Trụ dừng","Zone":"TP. Thủ Đức - KV3","Ward":null,"AddressNo":"640","Street":"Tô Ngọc Vân","SupportDisability":"","Status":"Đang khai thác","Lng":106.735382,"Lat":10.868458,"Search":"UPTB 640 TNV","Routes":"141, 29, 89"},{"StopId":4076,"Code":"QTD 001","Name":"Nhà sách Tam Bình","StopType":"Trụ dừng","Zone":"TP. Thủ Đức - KV3","Ward":"Phường Tam Bình","AddressNo":"Đối diện 81","Street":"Gò Dưa","SupportDisability":"","Status":"Đang khai thác","Lng":106.735418,"Lat":10.868779,"Search":"NsTB Dd81 GD","Routes":"89"},{"StopId":4078,"Code":"QTD 002","Name":"Chợ Tam Bình","StopType":"Trụ dừng","Zone":"TP. Thủ Đức - KV3","Ward":"Phường Tam Bình","AddressNo":"162","Street":"Gò Dưa","SupportDisability":"","Status":"Đang khai thác","Lng":106.738434,"Lat":10.86989,"Search":"CTB 162 GD","Routes":"89"},{"StopId":4084,"Code":"QTD 003","Name":"Khu Phố 2 Gò Dưa","StopType":"Trụ dừng","Zone":"TP. Thủ Đức - KV3","Ward":"Phường Tam Bình","AddressNo":"280 (258)","Street":"Gò Dưa","SupportDisability":"","Status":"Đang khai thác","Lng":106.741694,"Lat":10.871171,"Search":"KP2GD 280( GD","Routes":"89"},{"StopId":4081,"Code":"QTD 010","Name":"Giáo xứ Tam Hải","StopType":"Trụ dừng","Zone":"TP. Thủ Đức - KV3","Ward":"Phường Tam Phú","AddressNo":"181","Street":"Tam Châu","SupportDisability":"","Status":"Đang khai thác","Lng":106.743159,"Lat":10.870359,"Search":"GxTH 181 TC","Routes":"89"},{"StopId":4083,"Code":"QTD 009","Name":"Rửa xe Ba Lực","StopType":"Biển treo","Zone":"TP. Thủ Đức - KV3","Ward":null,"AddressNo":"117","Street":"Tam Châu","SupportDisability":"","Status":"Đang khai thác","Lng":106.744822,"Lat":10.867367,"Search":"RxBL 117 TC","Routes":"89"},{"StopId":4087,"Code":"QTD 008","Name":"Đường Tam Châu","StopType":"Trụ dừng","Zone":"TP. Thủ Đức - KV3","Ward":"Phường Tam Phú","AddressNo":"47 (41)","Street":"Tam Châu","SupportDisability":"","Status":"Đang khai thác","Lng":106.744575,"Lat":10.864722,"Search":"DTC 47( TC","Routes":"89"},{"StopId":2509,"Code":"QTD 016","Name":"Bệnh viện Thủ Đức","StopType":"Trụ dừng","Zone":"TP. Thủ Đức - KV3","Ward":"Phường Tam Phú","AddressNo":"108","Street":"Tam Hà","SupportDisability":"","Status":"Đang khai thác","Lng":106.745682,"Lat":10.863108,"Search":"BvTD 108 TH","Routes":"29, 89"},{"StopId":2540,"Code":"QTD 017","Name":"Ngã  Ba Tam Hà - Tô Ngọc Vân","StopType":"Trụ dừng","Zone":"TP. Thủ Đức - KV3","Ward":"Phường Tam Phú","AddressNo":"28","Street":"Tam Hà","SupportDisability":"","Status":"Đang khai thác","Lng":106.747833,"Lat":10.860026,"Search":"NBTH-TNV 28 TH","Routes":"29, 89"},{"StopId":1498,"Code":"QTD 050","Name":"Ngã Ba Linh Đông","StopType":"Trụ dừng","Zone":"TP. Thủ Đức - KV3","Ward":null,"AddressNo":"219","Street":"Tô Ngọc Vân","SupportDisability":"","Status":"Đang khai thác","Lng":106.75045,"Lat":10.855843,"Search":"NBLD 219 TNV","Routes":"141, 29, 89"},{"StopId":1493,"Code":"QTD 051","Name":"Bồn nước","StopType":"Trụ dừng","Zone":"TP. Thủ Đức - KV3","Ward":null,"AddressNo":"111","Street":"Tô Ngọc Vân","SupportDisability":"","Status":"Đang khai thác","Lng":106.752037,"Lat":10.852854,"Search":"Bn 111 TNV","Routes":"141, 29, 89"},{"StopId":1500,"Code":"QTD 052","Name":"Chợ Thủ Đức","StopType":"Trụ dừng","Zone":"TP. Thủ Đức - KV3","Ward":null,"AddressNo":"13","Street":"Tô Ngọc Vân","SupportDisability":"","Status":"Đang khai thác","Lng":106.75428,"Lat":10.851198,"Search":"CTD 13 TNV","Routes":"141, 29, 89"},{"StopId":6983,"Code":"QHCTD_4","Name":"Bãi xe Phường Bình Thọ","StopType":"Bến bãi QH chung QH","Zone":"TP. Thủ Đức - KV3","Ward":"Phường Bình Chiểu","AddressNo":"Bãi xe Phường Bình Thọ","Street":"Võ Văn Ngân","SupportDisability":"Có","Status":"Chưa khai thác","Lng":106.756484,"Lat":10.851067,"Search":"BxPBT BxPBT VVN","Routes":"89"},{"StopId":493,"Code":"QTD 070","Name":"Ngã ba Chương Dương","StopType":"Trụ dừng","Zone":"TP. Thủ Đức - KV3","Ward":"Phường Bình Thọ","AddressNo":"120","Street":"Võ Văn Ngân","SupportDisability":"","Status":"Đang khai thác","Lng":106.760931,"Lat":10.850419,"Search":"NbCD 120 VVN","Routes":"06, 08, 141, 168V, 169V, 56, 57, 89"},{"StopId":490,"Code":"QTD 071","Name":"Cao đẳng xây dựng 2","StopType":"Nhà chờ","Zone":"TP. Thủ Đức - KV3","Ward":null,"AddressNo":"190","Street":"Võ Văn Ngân","SupportDisability":"","Status":"Đang khai thác","Lng":106.764439,"Lat":10.85065,"Search":"Cdxd2 190 VVN","Routes":"06, 08, 141, 168V, 169V, 56, 57, 89"},{"StopId":492,"Code":"QTD 072","Name":"Siêu thị Nguyễn Kim","StopType":"Trụ dừng","Zone":"TP. Thủ Đức - KV3","Ward":"Phường Linh Chiểu","AddressNo":"275-274","Street":"Võ Văn Ngân","SupportDisability":"","Status":"Đang khai thác","Lng":106.769112,"Lat":10.849686,"Search":"StNK 275-274 VVN","Routes":"06, 08, 141, 168V, 56, 57, 89"},{"StopId":497,"Code":"QTD 073","Name":"Trường ĐHSP Kỹ Thuật","StopType":"Trụ dừng","Zone":"TP. Thủ Đức - KV3","Ward":"Phường Bình Thọ","AddressNo":"366-368","Street":"Võ Văn Ngân","SupportDisability":"","Status":"Đang khai thác","Lng":106.771917,"Lat":10.849597,"Search":"TDKT 366-368 VVN","Routes":"06, 08, 141, 168V, 56, 57, 89"},{"StopId":1031,"Code":"QTD 084","Name":"Đầu đường Lê Văn Chí","StopType":"Nhà chờ","Zone":"TP. Thủ Đức - KV3","Ward":null,"AddressNo":"116/6","Street":"Lê Văn Chí","SupportDisability":"","Status":"Đang khai thác","Lng":106.774025,"Lat":10.850485,"Search":"DdLVC 116/6 LVC","Routes":"168V, 53, 89"},{"StopId":1033,"Code":"QTD 085","Name":"Nhà máy nước Thủ Đức","StopType":"Nhà chờ","Zone":"TP. Thủ Đức - KV3","Ward":null,"AddressNo":"Nhà máy nước Thủ Đức","Street":"Lê Văn Chí","SupportDisability":"","Status":"Đang khai thác","Lng":106.773173,"Lat":10.853954,"Search":"NmnTD NmnTD LVC","Routes":"168V, 53, 89"},{"StopId":4085,"Code":"QTD 086","Name":"Trường Tiểu Học Hoàng Diệu","StopType":"Trụ dừng","Zone":"TP. Thủ Đức - KV3","Ward":"Phường Linh Trung","AddressNo":"Đối diện 65","Street":"Lê Văn Chí","SupportDisability":"","Status":"Đang khai thác","Lng":106.775436,"Lat":10.856169,"Search":"TTHHD Dd65 LVC","Routes":"89"},{"StopId":4089,"Code":"QTD 087","Name":"Công ty dệt Việt Thắng","StopType":"Biển treo","Zone":"TP. Thủ Đức - KV3","Ward":null,"AddressNo":"16","Street":"Lê Văn Chí","SupportDisability":"","Status":"Đang khai thác","Lng":106.777539,"Lat":10.858211,"Search":"CtdVT 16 LVC","Routes":"89"},{"StopId":1034,"Code":"QTD 234","Name":"Bệnh viện Đa khoa Thủ Đức","StopType":"Trụ dừng","Zone":"TP. Thủ Đức - KV3","Ward":null,"AddressNo":"16-18","Street":"Đường số 16","SupportDisability":"","Status":"Đang khai thác","Lng":106.780098,"Lat":10.860929,"Search":"BvDkTD 16-18 Ds16","Routes":"89"},{"StopId":3279,"Code":"QTD 235","Name":"Hẻm 64","StopType":"Trụ dừng","Zone":"TP. Thủ Đức - KV3","Ward":null,"AddressNo":"60-62","Street":"Đường số 16","SupportDisability":"","Status":"Đang khai thác","Lng":106.7831,"Lat":10.8611,"Search":"H64 60-62 Ds16","Routes":"89"},{"StopId":4556,"Code":"QTĐ 236","Name":"Ngã ba Đường 17","StopType":"Trụ dừng","Zone":"TP. Thủ Đức - KV3","Ward":null,"AddressNo":"90","Street":"Đường số 16","SupportDisability":"","Status":"Đang khai thác","Lng":106.786487,"Lat":10.862367,"Search":"NbD17 90 Ds16","Routes":"89"},{"StopId":4458,"Code":"QTĐ 240","Name":"Đường 17","StopType":"Trụ dừng","Zone":"TP. Thủ Đức - KV3","Ward":null,"AddressNo":"124","Street":"Đường 17","SupportDisability":"","Status":"Đang khai thác","Lng":106.7876,"Lat":10.8638,"Search":"D17 124 D17","Routes":"165, 167D, 89"},{"StopId":394,"Code":"BX73","Name":"BẾN XE BUÝT ĐẠI HỌC NÔNG LÂM","StopType":"Bến xe","Zone":"TP. Thủ Đức - KV3","Ward":null,"AddressNo":"Bến xe buýt ĐH Nông Lâm","Street":"Quốc lộ 1","SupportDisability":"","Status":"Đang khai thác","Lng":106.787445,"Lat":10.868183,"Search":"BXBDHNL BxbDNL Ql1","Routes":"06, 164D, 164V, 165, 167D, 167V, 60-2, 89"}]